state,city,population,pop2025,pop2020,growth,type,pop2024,densityMi,areaMi,lat,lng,rank,fips_code,geo_id
Iowa,Des Moines,208084,208084,213826.0,-0.00548673,City,209232,2360,88.162,41.5726,-93.6102,1,19153,19153
Iowa,Cedar Rapids,134758,134758,137758.0,-0.00443269,City,135358,1817,74.162,41.9659,-91.6789,2,19113,19113
Iowa,Davenport,99489,99489,101651.0,-0.00432341,City,99921,1556,63.923,41.5568,-90.604,3,19163,19163
Iowa,Sioux City,85694,85694,85776.0,-0.000186676,City,85710,1455,58.878,42.4953,-96.3899,4,19193,19193
Iowa,Ankeny,78412,78412,68527.0,0.0258651,City,76435,2474,31.692,41.7302,-93.6025,5,19153,19153
Iowa,Iowa City,76186,76186,74916.0,0.0033451,City,75932,2957,25.763,41.6557,-91.5309,6,19103,19103
Iowa,West Des Moines,74395,74395,68919.0,0.0149386,City,73300,1573,47.293,41.5499,-93.7813,7,19153,19153
Iowa,Waterloo,66160,66160,67275.0,-0.00335929,City,66383,1074,61.595,42.4923,-92.3519,8,19013,19013
Iowa,Ames,65152,65152,66487.0,-0.00408138,City,65419,2310,28.204,42.0263,-93.6213,9,19169,19169
Iowa,Council Bluffs,62138,62138,62790.0,-0.00208775,City,62268,1446,42.963,41.236,-95.8532,10,19155,19155
Iowa,Dubuque,58359,58359,59654.0,-0.00441844,City,58618,1869,31.233,42.4989,-90.7073,11,19061,19061
Iowa,Urbandale,47495,47495,45579.0,0.00812956,City,47112,2106,22.548,41.6368,-93.7798,12,19153,19153
Iowa,Marion,42622,42622,41599.0,0.00483297,City,42417,2386,17.867,42.0454,-91.5862,13,19113,19113
Iowa,Cedar Falls,40760,40760,40702.0,0.000294492,City,40748,1385,29.433,42.5191,-92.454,14,19013,19013
Iowa,Bettendorf,40346,40346,39125.0,0.00608448,City,40102,1894,21.302,41.5668,-90.4769,15,19163,19163
Iowa,Waukee,36488,36488,24380.0,0.0710973,City,34066,1675,21.788,41.5905,-93.8828,16,19049,19049
Iowa,Marshalltown,27577,27577,27569.0,7.2529e-05,City,27575,1436,19.198,42.0343,-92.9063,17,19169,19169
Iowa,Mason City,26664,26664,27269.0,-0.00451745,City,26785,957,27.856,43.1486,-93.1998,18,19013,19013
Iowa,Ottumwa,25116,25116,25455.0,-0.00270013,City,25184,1563,16.064,41.0223,-92.4233,19,19103,19103
Iowa,Johnston,24992,24992,24111.0,0.0070922,City,24816,1282,19.49,41.692,-93.7245,20,19153,19153
Iowa,Coralville,24438,24438,22333.0,0.0175292,City,24017,1929,12.668,41.6988,-91.5968,21,19103,19103
Iowa,Fort Dodge,24409,24409,24864.0,-0.00371429,City,24500,1525,16.008,42.5099,-94.1757,22,19049,19049
Iowa,Clinton,24102,24102,24444.0,-0.0028134,City,24170,677,35.6,41.8424,-90.2428,23,19045,19045
Iowa,Burlington,23320,23320,23932.0,-0.00520433,City,23442,1619,14.408,40.8071,-91.1237,24,19103,19103
Iowa,Muscatine,23071,23071,23745.0,-0.00581746,City,23206,1268,18.196,41.4191,-91.0679,25,19163,19163
Iowa,Altoona,23047,23047,19674.0,0.0301716,City,22372,1942,11.867,41.6464,-93.4786,26,19153,19153
Iowa,North Liberty,21908,21908,20500.0,0.0130399,City,21626,2299,9.528,41.7436,-91.6112,27,19103,19103
Iowa,Clive,19239,19239,18654.0,0.00611861,City,19122,2514,7.654,41.6132,-93.7979,28,19153,19153
Iowa,Grimes,16869,16869,15601.0,0.0152874,City,16615,1405,12.007,41.6778,-93.8023,29,19153,19153
Iowa,Norwalk,16175,16175,12919.0,0.0419351,City,15524,1389,11.649,41.4837,-93.6955,30,19181,19181
Iowa,Indianola,16164,16164,15861.0,0.00378811,City,16103,1414,11.435,41.363,-93.5655,31,19181,19181
Iowa,Newton,15576,15576,15748.0,-0.00217809,City,15610,1384,11.255,41.6963,-93.0405,32,19169,19169
Iowa,Pleasant Hill,12567,12567,10192.0,0.0392822,City,12092,1162,10.813,41.5991,-93.5051,33,19153,19153
Iowa,Boone,12392,12392,12452.0,-0.000967429,City,12404,1356,9.141,42.0493,-93.8725,34,19169,19169
Iowa,Storm Lake,11552,11552,11257.0,0.00513356,City,11493,2129,5.427,42.643,-95.1965,35,19155,19155
Iowa,Spencer,11549,11549,11303.0,0.00426087,City,11500,1055,10.948,43.147,-95.1527,36,19193,19193
Iowa,Oskaloosa,11388,11388,11537.0,-0.00262743,City,11418,1415,8.05,41.2922,-92.6409,37,19181,19181
Iowa,Pella,11055,11055,10467.0,0.0107891,City,10937,1183,9.343,41.4047,-92.9174,38,19181,19181
Iowa,Waverly,10661,10661,10411.0,0.00471209,City,10611,947,11.26,42.722,-92.4695,39,19013,19013
Iowa,Le Mars,10629,10629,10601.0,0.000564812,City,10623,1245,8.537,42.7815,-96.1733,40,19193,19193
Iowa,Carroll,10071,10071,10300.0,-0.0045468,City,10117,1688,5.965,42.0703,-94.8643,41,19049,19049
Iowa,Bondurant,9972,9972,7439.0,0.0535658,City,9465,1052,9.476,41.698,-93.4577,42,19153,19153
Iowa,Fort Madison,9872,9872,10324.0,-0.00903433,City,9962,1023,9.652,40.6208,-91.3495,43,19103,19103
Iowa,Grinnell,9429,9429,9538.0,-0.0023278,City,9451,1657,5.689,41.7352,-92.7249,44,19169,19169
Iowa,Keokuk,9265,9265,9885.0,-0.0132069,City,9389,1018,9.099,40.4095,-91.4025,45,19103,19103
Iowa,Fairfield,9200,9200,9449.0,-0.00540541,City,9250,1391,6.614,41.0064,-91.9666,46,19103,19103
Iowa,Sioux Center,8739,8739,8249.0,0.0113413,City,8641,1385,6.311,43.0748,-96.1704,47,19193,19193
Iowa,Mount Pleasant,8131,8131,9255.0,-0.0269268,City,8356,942,8.628,40.9622,-91.5472,48,19103,19103
Iowa,Perry,8058,8058,7872.0,0.00461289,City,8021,1391,5.794,41.8379,-94.0933,49,19049,19049
Iowa,Denison,7956,7956,8351.0,-0.00983199,City,8035,1215,6.547,42.0164,-95.3529,50,19155,19155
Iowa,Webster City,7645,7645,7815.0,-0.00442766,City,7679,831,9.203,42.4624,-93.8182,51,19169,19169
Iowa,Decorah,7578,7578,7578.0,0.0,City,7578,1046,7.243,43.3016,-91.7848,52,19013,19013
Iowa,Clear Lake,7505,7505,7660.0,-0.00411359,City,7536,696,10.779,43.1351,-93.3736,53,19169,19169
Iowa,Tiffin,7461,7461,4620.0,0.0824024,City,6893,1747,4.271,41.705,-91.6544,54,19103,19103
Iowa,Knoxville,7340,7340,7570.0,-0.006228,City,7386,1589,4.618,41.3185,-93.1026,55,19181,19181
Iowa,Creston,7297,7297,7534.0,-0.00639978,City,7344,1406,5.189,41.0603,-94.3647,56,19049,19049
Iowa,Hiawatha,7241,7241,7186.0,0.00152144,City,7230,1520,4.765,42.0561,-91.6899,57,19113,19113
Iowa,Washington,7189,7189,7346.0,-0.00429363,City,7220,1330,5.405,41.2979,-91.6937,58,19103,19103
Iowa,Charles City,7125,7125,7382.0,-0.00710702,City,7176,1163,6.124,43.0648,-92.6745,59,19013,19013
Iowa,Nevada,6997,6997,6921.0,0.00214838,City,6982,1176,5.949,42.0175,-93.4697,60,19169,19169
Iowa,Eldridge,6925,6925,6727.0,0.00580973,City,6885,710,9.758,41.639,-90.5809,61,19163,19163
Iowa,Atlantic,6774,6774,6791.0,-0.000442673,City,6777,817,8.289,41.393,-95.0219,62,19155,19155
Iowa,Polk City,6772,6772,5599.0,0.0359492,City,6537,1202,5.636,41.7818,-93.7226,63,19153,19153
Iowa,Adel,6672,6672,6176.0,0.0150616,City,6573,1237,5.392,41.6094,-94.0127,64,19049,19049
Iowa,Orange City,6477,6477,6277.0,0.00621407,City,6437,1405,4.609,43.0018,-96.0553,65,19193,19193
Iowa,Independence,6254,6254,6089.0,0.00530461,City,6221,1037,6.028,42.4622,-91.9032,66,19013,19013
Iowa,Asbury,6037,6037,5961.0,0.00249087,City,6022,1900,3.178,42.512,-90.7799,67,19061,19061
Iowa,Maquoketa,6005,6005,6119.0,-0.00381553,City,6028,1329,4.517,42.0605,-90.6639,68,19045,19045
Iowa,Anamosa,5872,5872,5451.0,0.0145128,City,5788,2326,2.524,42.1088,-91.2752,69,19113,19113
Iowa,Estherville,5792,5792,5869.0,-0.00258309,City,5807,1075,5.387,43.3997,-94.8342,70,19049,19049
Iowa,Oelwein,5714,5714,5906.0,-0.0066064,City,5752,1187,4.814,42.6716,-91.9128,71,19013,19013
Iowa,Osceola,5664,5664,5423.0,0.00854701,City,5616,780,7.263,41.0297,-93.7853,72,19181,19181
Iowa,DeWitt,5633,5633,5517.0,0.00409982,City,5610,905,6.222,41.8227,-90.5441,73,19045,19045
Iowa,Spirit Lake,5580,5580,5462.0,0.00431965,City,5556,1234,4.521,43.4167,-95.1131,74,19193,19193
Iowa,Sergeant Bluff,5450,5450,5009.0,0.0164118,City,5362,1834,2.972,42.3975,-96.3509,75,19193,19193
Iowa,Red Oak,5371,5371,5595.0,-0.00830871,City,5416,1368,3.926,41.0141,-95.2244,76,19155,19155
Iowa,Sheldon,5370,5370,5500.0,-0.00481838,City,5396,1118,4.803,43.1797,-95.8434,77,19193,19193
Iowa,Winterset,5370,5370,5379.0,-0.0003723,City,5372,1141,4.705,41.3499,-94.0181,78,19049,19049
Iowa,Manchester,5349,5349,5074.0,0.0103891,City,5294,1105,4.842,42.4853,-91.4561,79,19113,19113
Iowa,Centerville,5302,5302,5407.0,-0.00394514,City,5323,1096,4.837,40.7298,-92.872,80,19181,19181
Iowa,Clarinda,5265,5265,5364.0,-0.00378429,City,5285,1032,5.1,40.7377,-95.0337,81,19155,19155
Iowa,Glenwood,5260,5260,5047.0,0.00824228,City,5217,1800,2.923,41.0447,-95.7406,82,19155,19155
Iowa,Algona,5251,5251,5478.0,-0.00849698,City,5296,1134,4.632,43.0763,-94.2317,83,19169,19169
Iowa,Cherokee,5148,5148,5195.0,-0.0017452,City,5157,753,6.833,42.7495,-95.5522,84,19193,19193
Iowa,Vinton,4968,4968,4925.0,0.00181488,City,4959,1017,4.885,42.1631,-92.0262,85,19013,19013
Iowa,Windsor Heights,4952,4952,5239.0,-0.0113795,City,5009,3453,1.434,41.6045,-93.7128,86,19153,19153
Iowa,Iowa Falls,4945,4945,5087.0,-0.0056304,City,4973,918,5.386,42.5192,-93.2661,87,19169,19169
Iowa,Harlan,4886,4886,4898.0,-0.000409165,City,4888,1105,4.42,41.6495,-95.3268,88,19155,19155
Iowa,Shenandoah,4860,4860,4919.0,-0.00246305,City,4872,1298,3.743,40.7582,-95.3721,89,19155,19155
Iowa,Huxley,4848,4848,4313.0,0.0225691,City,4741,1479,3.278,41.8965,-93.592,90,19169,19169
Iowa,Le Claire,4765,4765,4712.0,0.00231384,City,4754,1024,4.653,41.5956,-90.377,91,19163,19163
Iowa,Humboldt,4679,4679,4788.0,-0.00467985,City,4701,1006,4.652,42.7229,-94.225,92,19169,19169
Iowa,Dyersville,4591,4591,4505.0,0.00371666,City,4574,660,6.955,42.4815,-91.1166,93,19061,19061
Iowa,Mount Vernon,4558,4558,4542.0,0.000658616,City,4555,1304,3.495,41.9236,-91.4238,94,19113,19113
Iowa,Camanche,4539,4539,4571.0,-0.00132013,City,4545,511,8.88,41.7927,-90.2762,95,19045,19045
Iowa,Evansdale,4445,4445,4557.0,-0.00492501,City,4467,1112,3.996,42.4657,-92.2694,96,19013,19013
Iowa,Carlisle,4432,4432,4166.0,0.0121032,City,4379,784,5.651,41.5136,-93.4968,97,19181,19181
Iowa,Chariton,4340,4340,4189.0,0.00696056,City,4310,1152,3.768,41.0174,-93.3096,98,19181,19181
Iowa,Forest City,4276,4276,4266.0,0.000467945,City,4274,932,4.588,43.2571,-93.6366,99,19169,19169
Iowa,Hampton,4234,4234,4329.0,-0.00446743,City,4253,957,4.425,42.742,-93.205,100,19169,19169
Iowa,Monticello,4062,4062,4046.0,0.000739098,City,4059,722,5.627,42.2304,-91.1859,101,19061,19061
Iowa,Jefferson,4046,4046,4180.0,-0.00662902,City,4073,673,6.016,42.0177,-94.3794,102,19049,19049
Iowa,Rock Valley,4030,4030,4067.0,-0.00173396,City,4037,903,4.461,43.2026,-96.289,103,19193,19193
Iowa,Cresco,3893,3893,3903.0,-0.000513478,City,3895,1166,3.34,43.3717,-92.1163,104,19013,19013
Iowa,Waukon,3745,3745,3825.0,-0.00425419,City,3761,1319,2.84,43.2685,-91.4785,105,19061,19061
Iowa,Carter Lake,3738,3738,3790.0,-0.00266809,City,3748,2084,1.794,41.2885,-95.9169,106,19155,19155
Iowa,West Liberty,3646,3646,3851.0,-0.0111202,City,3687,2063,1.767,41.573,-91.2626,107,19103,19103
Iowa,Albia,3618,3618,3725.0,-0.00577082,City,3639,1113,3.252,41.0265,-92.8038,108,19181,19181
Iowa,Emmetsburg,3574,3574,3696.0,-0.00667037,City,3598,943,3.792,43.1148,-94.6796,109,19049,19049
Iowa,Eagle Grove,3542,3542,3601.0,-0.00337648,City,3554,865,4.095,42.6663,-93.9024,110,19169,19169
Iowa,Osage,3471,3471,3635.0,-0.00941781,City,3504,1548,2.242,43.2827,-92.8113,111,19013,19013
Iowa,Story City,3418,3418,3343.0,0.00440787,City,3403,1197,2.856,42.1857,-93.5869,112,19169,19169
Iowa,New Hampton,3376,3376,3491.0,-0.0067667,City,3399,1007,3.352,43.0562,-92.3147,113,19013,19013
Iowa,Williamsburg,3348,3348,3355.0,-0.000298596,City,3349,993,3.37,41.6689,-92.0133,114,19103,19103
Iowa,Milford,3291,3291,3335.0,-0.00272727,City,3300,1530,2.151,43.3417,-95.1457,115,19193,19193
Iowa,Solon,3277,3277,3039.0,0.0148653,City,3229,2051,1.598,41.8068,-91.4989,116,19103,19103
Iowa,Robins,3275,3275,3367.0,-0.00546614,City,3293,546,5.998,42.0787,-91.674,117,19113,19113
Iowa,West Burlington,3137,3137,3197.0,-0.00381073,City,3149,649,4.837,40.8216,-91.1755,118,19103,19103
Iowa,Garner,3021,3021,3055.0,-0.00231176,City,3028,1422,2.125,43.1,-93.6031,119,19169,19169
Iowa,Tama,3000,3000,3115.0,-0.00760834,City,3023,1010,2.971,41.9651,-92.5738,120,19013,19013
Iowa,Tipton,2990,2990,3149.0,-0.010589,City,3022,1478,2.023,41.7701,-91.1283,121,19103,19103
Iowa,Park View,2946,2946,3444.0,0.0127191,CDP,2909,1996,1.476,41.6943,-90.539,122,19163,19163
Iowa,Fairfax,2938,2938,2853.0,0.00581992,City,2921,874,3.36,41.9255,-91.7778,123,19113,19113
Iowa,Wilton,2937,2937,2919.0,0.00136379,City,2933,1429,2.055,41.5891,-91.0255,124,19163,19163
Iowa,Hudson,2924,2924,2543.0,0.0266854,City,2848,346,8.449,42.4349,-92.4513,125,19013,19013
Iowa,West Branch,2916,2916,2510.0,0.0285714,City,2835,1134,2.571,41.6662,-91.3442,126,19103,19103
Iowa,Bloomfield,2831,2831,2683.0,0.0107105,City,2801,1245,2.274,40.7491,-92.417,127,19103,19103
Iowa,Grundy Center,2806,2806,2805.0,0.0,City,2806,1092,2.57,42.3637,-92.774,128,19013,19013
Iowa,Kalona,2806,2806,2638.0,0.0122655,City,2772,1302,2.155,41.4874,-91.7018,129,19103,19103
Iowa,Madrid,2797,2797,2801.0,-0.000357398,City,2798,2285,1.224,41.8757,-93.8205,130,19049,19049
Iowa,Rock Rapids,2770,2770,2609.0,0.0116874,City,2738,658,4.209,43.4267,-96.1664,131,19193,19193
Iowa,Onawa,2756,2756,2906.0,-0.0107681,City,2786,523,5.268,42.0265,-96.0909,132,19193,19193
Iowa,Saylorville,2721,2721,2743.0,-0.0141304,CDP,2760,401,6.788,41.6808,-93.627,133,19153,19153
Iowa,Clarion,2705,2705,2805.0,-0.00733945,City,2725,805,3.359,42.732,-93.7298,134,19169,19169
Iowa,Mitchellville,2705,2705,2485.0,0.0165351,City,2661,1073,2.522,41.6672,-93.3659,135,19153,19153
Iowa,Sibley,2697,2697,2857.0,-0.0117259,City,2729,1510,1.786,43.4015,-95.743,136,19193,19193
Iowa,Missouri Valley,2642,2642,2677.0,-0.00264251,City,2649,795,3.322,41.5593,-95.9026,137,19155,19155
Iowa,Hawarden,2608,2608,2697.0,-0.00685453,City,2626,942,2.769,43.0013,-96.4829,138,19193,19193
Iowa,Kent Estates,2555,2555,1991.0,0.0712788,CDP,2385,562,4.547,41.4665,-91.0569,139,19163,19163
Iowa,Jesup,2553,2553,2513.0,0.00314342,City,2545,1387,1.841,42.4745,-92.0656,140,19013,19013
Iowa,Eldora,2547,2547,2651.0,-0.00817757,City,2568,595,4.281,42.3605,-93.1013,141,19169,19169
Iowa,Center Point,2525,2525,2584.0,-0.00473,City,2537,982,2.57,42.1846,-91.7799,142,19113,19113
Iowa,Hull,2468,2468,2378.0,0.00734694,City,2450,1744,1.415,43.1895,-96.1341,143,19193,19193
Iowa,West Union,2402,2402,2476.0,-0.00620604,City,2417,874,2.747,42.9589,-91.813,144,19013,19013
Iowa,Toledo,2393,2393,2368.0,0.0020938,City,2388,1043,2.295,41.9902,-92.5803,145,19013,19013
Iowa,Cascade,2381,2381,2390.0,-0.000839278,City,2383,1239,1.922,42.3018,-91.0047,146,19061,19061
Iowa,Marengo,2381,2381,2438.0,-0.00459866,City,2392,1126,2.115,41.7962,-92.0681,147,19103,19103
Iowa,Belmond,2357,2357,2461.0,-0.00883095,City,2378,832,2.833,42.8464,-93.6085,148,19169,19169
Iowa,Postville,2356,2356,2503.0,-0.0121593,City,2385,1137,2.072,43.0842,-91.5677,149,19061,19061
Iowa,Belle Plaine,2348,2348,2327.0,0.00170648,City,2344,739,3.179,41.8956,-92.2757,150,19013,19013
Iowa,Ely,2336,2336,2333.0,0.000428265,City,2335,1386,1.686,41.8803,-91.5863,151,19113,19113
Iowa,Bellevue,2295,2295,2357.0,-0.00520156,City,2307,1665,1.378,42.2627,-90.4315,152,19045,19045
Iowa,Colfax,2268,2268,2253.0,0.0013245,City,2265,886,2.561,41.6798,-93.2363,153,19153,19153
Iowa,Peosta,2250,2250,1930.0,0.0292772,City,2186,871,2.584,42.4477,-90.8443,154,19061,19061
Iowa,Granger,2247,2247,1724.0,0.0490196,City,2142,1347,1.668,41.7617,-93.8236,155,19049,19049
Iowa,La Porte City,2243,2243,2283.0,-0.00355398,City,2251,877,2.558,42.3138,-92.1909,156,19013,19013
Iowa,Atkins,2192,2192,2062.0,0.0120037,City,2166,1998,1.097,41.9942,-91.8587,157,19113,19113
Iowa,Lisbon,2192,2192,2232.0,-0.00363636,City,2200,1031,2.127,41.9205,-91.3916,158,19113,19113
Iowa,Rockwell City,2156,2156,2253.0,-0.00873563,City,2175,512,4.213,42.3981,-94.6289,159,19049,19049
Iowa,Lake Mills,2099,2099,2138.0,-0.00379687,City,2107,773,2.714,43.4171,-93.5316,160,19169,19169
Iowa,Monroe,2038,2038,1968.0,0.006917,City,2024,1200,1.698,41.5189,-93.1037,161,19181,19181
Iowa,Northwood,2033,2033,2070.0,-0.00343137,City,2040,510,3.986,43.4441,-93.216,162,19013,19013
Iowa,Sumner,2033,2033,2027.0,0.000492125,City,2032,827,2.458,42.8494,-92.0972,163,19013,19013
Iowa,Epworth,2026,2026,2020.0,0.000493827,City,2025,1141,1.776,42.4465,-90.9314,164,19061,19061
Iowa,Greenfield,2015,2015,2059.0,-0.00444664,City,2024,1119,1.801,41.3058,-94.4593,165,19049,19049
Iowa,Dallas Center,2004,2004,1909.0,0.00957179,City,1985,370,5.41,41.6855,-93.9807,166,19049,19049
Iowa,Sac City,1994,1994,2056.0,-0.00598205,City,2006,407,4.896,42.422,-94.9974,167,19155,19155
Iowa,Lamoni,1985,1985,1957.0,0.00303183,City,1979,502,3.952,40.6196,-93.9305,168,19181,19181
Iowa,Britt,1982,1982,2036.0,-0.00551932,City,1993,1479,1.34,43.0984,-93.8031,169,19169,19169
Iowa,Sigourney,1975,1975,2000.0,-0.00252525,City,1980,913,2.163,41.334,-92.2044,170,19103,19103
Iowa,Alta,1972,1972,2086.0,-0.0115288,City,1995,1829,1.078,42.6717,-95.3045,171,19193,19193
Iowa,Wapello,1966,1966,2083.0,-0.0115636,City,1989,1513,1.299,41.1772,-91.189,172,19103,19103
Iowa,Denver,1962,1962,1921.0,0.00409416,City,1954,1154,1.7,42.6682,-92.3339,173,19013,19013
Iowa,Parkersburg,1962,1962,2014.0,-0.00507099,City,1972,1356,1.447,42.5739,-92.7785,174,19013,19013
Iowa,Audubon,1959,1959,2059.0,-0.0101061,City,1979,1013,1.934,41.718,-94.9284,175,19155,19155
Iowa,Ida Grove,1944,1944,2058.0,-0.0116929,City,1967,885,2.196,42.3432,-95.4734,176,19155,19155
Iowa,Ogden,1933,1933,2008.0,-0.0077002,City,1948,1413,1.368,42.0395,-94.0283,177,19049,19049
Iowa,Stuart,1895,1895,1795.0,0.0106667,City,1875,673,2.816,41.5005,-94.3181,178,19049,19049
Iowa,Van Meter,1880,1880,1492.0,0.0432852,City,1802,430,4.376,41.5246,-93.9442,179,19049,19049
Iowa,New London,1842,1842,1911.0,-0.0075431,City,1856,1699,1.084,40.9229,-91.4007,180,19103,19103
Iowa,Pocahontas,1824,1824,1868.0,-0.00490998,City,1833,923,1.976,42.737,-94.666,181,19049,19049
Iowa,Leon,1821,1821,1811.0,0.0010995,City,1819,581,3.132,40.7413,-93.7556,182,19181,19181
Iowa,Guttenberg,1804,1804,1814.0,-0.00110742,City,1806,822,2.194,42.7886,-91.1088,183,19061,19061
Iowa,Woodbine,1778,1778,1627.0,0.0171625,City,1748,1074,1.656,41.7363,-95.7111,184,19155,19155
Iowa,Durant,1771,1771,1880.0,-0.0122699,City,1793,1435,1.234,41.6011,-90.9138,185,19163,19163
Iowa,Columbus Junction,1731,1731,1830.0,-0.011422,City,1751,806,2.147,41.2789,-91.3639,186,19103,19103
Iowa,Prairie City,1722,1722,1696.0,0.00291206,City,1717,1386,1.242,41.5954,-93.2393,187,19153,19153
Iowa,Blue Grass,1700,1700,1665.0,0.00413467,City,1693,538,3.16,41.5102,-90.7669,188,19163,19163
Iowa,Farley,1692,1692,1767.0,-0.00878735,City,1707,1044,1.62,42.4437,-91.0092,189,19061,19061
Iowa,Pleasantville,1690,1690,1689.0,0.0,City,1690,691,2.447,41.387,-93.2728,190,19181,19181
Iowa,Moville,1688,1688,1692.0,-0.000592066,City,1689,1839,0.918,42.4902,-96.0679,191,19193,19193
Iowa,Remsen,1687,1687,1674.0,0.00178147,City,1684,1152,1.464,42.8158,-95.9726,192,19193,19193
Iowa,Avoca,1672,1672,1687.0,-0.00179104,City,1675,702,2.382,41.4828,-95.3373,193,19155,19155
Iowa,Urbana,1669,1669,1563.0,0.0127427,City,1648,924,1.806,42.2298,-91.8855,194,19113,19113
Iowa,Reinbeck,1665,1665,1665.0,0.0,City,1665,767,2.17,42.3225,-92.5943,195,19013,19013
Iowa,Mediapolis,1649,1649,1686.0,-0.00422705,City,1656,1374,1.2,41.0079,-91.1637,196,19103,19103
Iowa,Slater,1639,1639,1541.0,0.0123533,City,1619,857,1.912,41.8807,-93.6912,197,19153,19153
Iowa,Lake City,1636,1636,1720.0,-0.0102843,City,1653,339,4.821,42.2677,-94.7311,198,19049,19049
Iowa,Mount Ayr,1630,1630,1619.0,0.0012285,City,1628,604,2.7,40.7141,-94.2372,199,19181,19181
Iowa,Manson,1625,1625,1702.0,-0.00914634,City,1640,501,3.242,42.5286,-94.5401,200,19049,19049
Iowa,Guthrie Center,1576,1576,1583.0,-0.000634115,City,1577,662,2.379,41.6779,-94.4992,201,19049,19049
Iowa,Palo,1569,1569,1409.0,0.0208198,City,1537,1311,1.197,42.0642,-91.7993,202,19113,19113
Iowa,Hartley,1550,1550,1600.0,-0.00641026,City,1560,1165,1.33,43.1791,-95.4768,203,19193,19193
Iowa,Corydon,1547,1547,1522.0,0.00324254,City,1542,1132,1.367,40.7579,-93.3176,204,19181,19181
Iowa,Walcott,1544,1544,1556.0,-0.00129366,City,1546,496,3.111,41.5873,-90.7805,205,19163,19163
Iowa,Akron,1536,1536,1550.0,-0.00194932,City,1539,1247,1.232,42.8268,-96.557,206,19193,19193
Iowa,Traer,1531,1531,1576.0,-0.00584415,City,1540,1188,1.289,42.1896,-92.464,207,19013,19013
Iowa,Oakland,1515,1515,1522.0,-0.00065963,City,1516,845,1.792,41.3104,-95.3997,208,19155,19155
Iowa,Wellman,1511,1511,1523.0,-0.00132188,City,1513,1410,1.072,41.4692,-91.8352,209,19103,19103
Iowa,Bedford,1509,1509,1493.0,0.00199203,City,1506,940,1.605,40.6712,-94.7243,210,19155,19155
Iowa,Ackley,1500,1500,1595.0,-0.0125082,City,1519,611,2.457,42.5517,-93.0523,211,19169,19169
Iowa,Sanborn,1476,1476,1396.0,0.0109589,City,1460,786,1.878,43.1814,-95.6553,212,19193,19193
Iowa,Nashua,1472,1472,1549.0,-0.0100874,City,1487,504,2.922,42.9504,-92.5425,213,19013,19013
Iowa,Monona,1461,1461,1471.0,-0.00136705,City,1463,1073,1.362,43.0498,-91.3911,214,19061,19061
Iowa,Holstein,1455,1455,1504.0,-0.00682594,City,1465,923,1.577,42.4871,-95.5429,215,19193,19193
Iowa,Brooklyn,1442,1442,1496.0,-0.00757054,City,1453,1097,1.315,41.7321,-92.445,216,19013,19013
Iowa,Corning,1439,1439,1568.0,-0.0177474,City,1465,883,1.63,40.9924,-94.7388,217,19155,19155
Iowa,Montezuma,1424,1424,1444.0,-0.00280112,City,1428,577,2.47,41.583,-92.5278,218,19013,19013
Iowa,Gilbert,1413,1413,1207.0,0.0298834,City,1372,1283,1.101,42.1062,-93.646,219,19169,19169
Iowa,Earlham,1412,1412,1414.0,0.0,City,1412,1494,0.945,41.4944,-94.1223,220,19049,19049
Iowa,Lenox,1392,1392,1341.0,0.00723589,City,1382,727,1.914,40.8832,-94.5579,221,19049,19049
Iowa,Manning,1392,1392,1451.0,-0.00854701,City,1404,562,2.476,41.9096,-95.0644,222,19155,19155
Iowa,State Center,1388,1388,1397.0,-0.00143885,City,1390,1391,0.998,42.0148,-93.1653,223,19169,19169
Iowa,Kingsley,1384,1384,1401.0,-0.00216294,City,1387,857,1.614,42.5864,-95.9679,224,19193,19193
Iowa,Woodward,1371,1371,1350.0,0.00292611,City,1367,375,3.654,41.8528,-93.9207,225,19049,19049
Iowa,Roland,1350,1350,1359.0,-0.00147929,City,1352,1179,1.145,42.166,-93.503,226,19169,19169
Iowa,Walford,1349,1349,1364.0,-0.00221893,City,1352,1297,1.04,41.8798,-91.8306,227,19113,19113
Iowa,Nora Springs,1337,1337,1364.0,-0.00372578,City,1342,603,2.216,43.1441,-93.0089,228,19013,19013
Iowa,Logan,1332,1332,1386.0,-0.00819062,City,1343,1344,0.991,41.6454,-95.7913,229,19155,19155
Iowa,Lone Tree,1326,1326,1350.0,-0.00375657,City,1331,1243,1.067,41.4859,-91.4267,230,19103,19103
Iowa,Dike,1296,1296,1300.0,-0.00077101,City,1297,933,1.389,42.4641,-92.6256,231,19013,19013
Iowa,Shell Rock,1274,1274,1268.0,0.000785545,City,1273,795,1.602,42.7123,-92.5817,232,19013,19013
Iowa,Dysart,1250,1250,1277.0,-0.00398406,City,1255,999,1.251,42.1721,-92.3091,233,19013,19013
Iowa,Coon Rapids,1244,1244,1303.0,-0.00955414,City,1256,698,1.783,41.8747,-94.6785,234,19049,19049
Iowa,Alton,1242,1242,1244.0,0.0,City,1242,653,1.902,42.9877,-96.0094,235,19193,19193
Iowa,Laurens,1240,1240,1262.0,-0.00321543,City,1244,1638,0.757,42.8475,-94.8479,236,19049,19049
Iowa,New Sharon,1239,1239,1258.0,-0.00321802,City,1243,1319,0.939,41.4701,-92.651,237,19181,19181
Iowa,Arnolds Park,1231,1231,1115.0,0.0190397,City,1208,772,1.595,43.3604,-95.1292,238,19193,19193
Iowa,Clarksville,1231,1231,1261.0,-0.00485044,City,1237,940,1.309,42.7792,-92.6684,239,19013,19013
Iowa,Fayette,1231,1231,1253.0,-0.00323887,City,1235,822,1.497,42.8418,-91.8038,240,19013,19013
Iowa,Central City,1223,1223,1267.0,-0.00730519,City,1232,1139,1.074,42.2014,-91.523,241,19113,19113
Iowa,Manly,1214,1214,1256.0,-0.00654664,City,1222,859,1.414,43.2883,-93.2008,242,19013,19013
Iowa,Tripoli,1208,1208,1192.0,0.00248963,City,1205,868,1.392,42.8084,-92.2578,243,19013,19013
Iowa,Elkader,1186,1186,1213.0,-0.00419815,City,1191,868,1.367,42.8574,-91.4028,244,19061,19061
Iowa,Melcher-Dallas,1176,1176,1196.0,-0.00338983,City,1180,1131,1.04,41.227,-93.2416,245,19181,19181
Iowa,Jewell Junction,1166,1166,1208.0,-0.00681431,City,1174,301,3.871,42.3116,-93.6387,246,19169,19169
Iowa,University Heights,1163,1163,1223.0,-0.0102128,City,1175,4473,0.26,41.655,-91.5589,247,19103,19103
Iowa,Buffalo,1154,1154,1179.0,-0.00431406,City,1159,170,6.771,41.4613,-90.7689,248,19163,19163
Iowa,St. Ansgar,1153,1153,1170.0,-0.00259516,City,1156,1059,1.089,43.3799,-92.9178,249,19013,19013
Iowa,Glidden,1148,1148,1152.0,-0.000870322,City,1149,1031,1.113,42.0578,-94.7266,250,19049,19049
Iowa,Lake Park,1148,1148,1172.0,-0.00433651,City,1153,728,1.578,43.4469,-95.3249,251,19193,19193
Iowa,Lake View,1148,1148,1123.0,0.00437445,City,1143,548,2.095,42.302,-95.0358,252,19155,19155
Iowa,Fairbank,1141,1141,1108.0,0.00617284,City,1134,1552,0.735,42.6401,-92.0478,253,19013,19013
Iowa,Elkhart,1140,1140,892.0,0.0458716,City,1090,604,1.886,41.7942,-93.5232,254,19153,19153
Iowa,Strawberry Point,1140,1140,1157.0,-0.00262467,City,1143,546,2.088,42.6805,-91.5348,255,19113,19113
Iowa,Springville,1138,1138,1162.0,-0.00437445,City,1143,704,1.616,42.0405,-91.4612,256,19113,19113
Iowa,Treynor,1136,1136,1033.0,0.0188341,City,1115,1748,0.65,41.232,-95.6065,257,19155,19155
Iowa,George,1117,1117,1081.0,0.00630631,City,1110,487,2.294,43.3419,-96.0033,258,19193,19193
Iowa,Villisca,1102,1102,1129.0,-0.00451671,City,1107,617,1.785,40.9299,-94.9811,259,19155,19155
Iowa,Mapleton,1099,1099,1161.0,-0.0108011,City,1111,699,1.572,42.1673,-95.7909,260,19193,19193
Iowa,Conrad,1097,1097,1092.0,0.000912408,City,1096,893,1.229,42.2234,-92.8741,261,19013,19013
Iowa,Sheffield,1095,1095,1124.0,-0.00544959,City,1101,197,5.568,42.8888,-93.2071,262,19169,19169
Iowa,Panora,1081,1081,1086.0,-0.000924214,City,1082,597,1.811,41.6911,-94.3639,263,19049,19049
Iowa,Aplington,1074,1074,1111.0,-0.00647548,City,1081,1461,0.735,42.5819,-92.8835,264,19013,19013
Iowa,Calmar,1073,1073,1132.0,-0.0110599,City,1085,955,1.123,43.1811,-91.868,265,19013,19013
Iowa,Sloan,1064,1064,1049.0,0.00282752,City,1061,1841,0.578,42.2331,-96.2248,266,19193,19193
Iowa,Malvern,1062,1062,1034.0,0.00568182,City,1056,666,1.594,41.0037,-95.5841,267,19155,19155
Iowa,Janesville,1057,1057,1041.0,0.0028463,City,1054,760,1.39,42.6458,-92.4624,268,19013,19013
Iowa,Marcus,1050,1050,1074.0,-0.00473934,City,1055,687,1.529,42.8224,-95.8068,269,19193,19193
Iowa,Elk Run Heights,1047,1047,1067.0,-0.0038059,City,1051,966,1.084,42.4688,-92.2561,270,19013,19013
Iowa,Riverside,1036,1036,1060.0,-0.00480307,City,1041,561,1.846,41.4832,-91.5722,271,19103,19103
Iowa,Dunlap,1031,1031,1041.0,-0.00193611,City,1033,826,1.248,41.8519,-95.6019,272,19155,19155
Iowa,Rockwell,1027,1027,1069.0,-0.00772947,City,1035,345,2.974,42.98,-93.1872,273,19169,19169
Iowa,Sidney,1025,1025,1060.0,-0.00678294,City,1032,748,1.371,40.7459,-95.6447,274,19155,19155
Iowa,North English,1014,1014,1066.0,-0.00976562,City,1024,1671,0.607,41.5168,-92.0777,275,19103,19103
Iowa,Shellsburg,1007,1007,962.0,0.00901804,City,998,1275,0.79,42.0929,-91.8713,276,19113,19113
Iowa,Winfield,1004,1004,1029.0,-0.0049554,City,1009,964,1.041,41.1259,-91.4381,277,19103,19103
Iowa,Griswold,989,989,993.0,-0.0010101,City,990,1624,0.609,41.2343,-95.1394,278,19155,19155
Iowa,Clarence,982,982,1037.0,-0.0110775,City,993,1290,0.761,41.8857,-91.0579,279,19045,19045
Iowa,Baxter,980,980,970.0,0.00204499,City,978,1498,0.654,41.8252,-93.1525,280,19169,19169
Iowa,Odebolt,978,978,995.0,-0.0030581,City,981,948,1.032,42.3118,-95.2544,281,19155,19155
Iowa,Inwood,977,977,927.0,0.0103413,City,967,689,1.417,43.3092,-96.4344,282,19193,19193
Iowa,Mechanicsville,974,974,1018.0,-0.00915565,City,983,1182,0.824,41.9056,-91.2533,283,19113,19113
Iowa,Aurelia,971,971,968.0,0.00103093,City,970,958,1.014,42.7131,-95.4369,284,19193,19193
Iowa,Fredericksburg,969,969,986.0,-0.00308642,City,972,1077,0.9,42.9648,-92.1965,285,19013,19013
Iowa,Hinton,969,969,934.0,0.00727651,City,962,1083,0.895,42.6228,-96.2981,286,19193,19193
Iowa,Tabor,967,967,1009.0,-0.00820513,City,975,748,1.292,40.8949,-95.6736,287,19155,19155
Iowa,Greene,966,966,993.0,-0.00514933,City,971,847,1.141,42.8965,-92.8035,288,19013,19013
Iowa,Larchwood,966,966,926.0,0.00835073,City,958,932,1.037,43.4546,-96.4363,289,19193,19193
Iowa,Anita,965,965,964.0,0.0,City,965,544,1.775,41.4437,-94.766,290,19049,19049
Iowa,Paullina,962,962,976.0,-0.00310881,City,965,1030,0.934,42.9799,-95.6834,291,19193,19193
Iowa,Underwood,961,961,955.0,0.00104167,City,960,882,1.089,41.3802,-95.6825,292,19155,19155
Iowa,Eddyville,951,951,968.0,-0.00314465,City,954,828,1.148,41.1593,-92.6303,293,19181,19181
Iowa,Keosauqua,951,951,935.0,0.00316456,City,948,652,1.459,40.7346,-91.9603,294,19103,19103
Iowa,Lansing,948,948,962.0,-0.00315457,City,951,879,1.078,43.3598,-91.2229,295,19061,19061
Iowa,De Soto,940,940,922.0,0.0042735,City,936,499,1.884,41.5378,-94.01,296,19049,19049
Iowa,Hills,939,939,866.0,0.0162338,City,924,1142,0.822,41.5566,-91.5363,297,19103,19103
Iowa,Wayland,938,938,960.0,-0.00424628,City,942,882,1.064,41.1483,-91.6575,298,19103,19103
Iowa,Lawton,934,934,944.0,-0.00213675,City,936,1297,0.72,42.477,-96.1851,299,19193,19193
Iowa,Preston,932,932,947.0,-0.00320856,City,935,1082,0.861,42.0492,-90.397,300,19045,19045
Iowa,Allison,925,925,967.0,-0.00857449,City,933,316,2.931,42.752,-92.7957,301,19013,19013
Iowa,Gowrie,921,921,955.0,-0.0075431,City,928,640,1.439,42.2779,-94.2897,302,19049,19049
Iowa,Edgewood,911,911,908.0,0.0010989,City,910,949,0.96,42.6442,-91.4022,303,19061,19061
Iowa,Fruitland,910,910,959.0,-0.0108696,City,920,506,1.797,41.3475,-91.1288,304,19103,19103
Iowa,Princeton,910,910,925.0,-0.00328587,City,913,279,3.261,41.6695,-90.3576,305,19163,19163
Iowa,Neola,900,900,914.0,-0.00332226,City,903,1126,0.799,41.4519,-95.6189,306,19155,19155
Iowa,Danville,899,899,921.0,-0.00442968,City,903,1200,0.749,40.86,-91.3145,307,19103,19103
Iowa,West Point,899,899,924.0,-0.00553097,City,904,1414,0.636,40.7145,-91.4528,308,19103,19103
Iowa,Swisher,896,896,916.0,-0.00444444,City,900,959,0.934,41.8446,-91.6946,309,19103,19103
Iowa,Newhall,894,894,879.0,0.003367,City,891,2960,0.302,41.9932,-91.9672,310,19113,19113
Iowa,Keota,892,892,894.0,0.0,City,892,1154,0.773,41.3651,-91.9533,311,19103,19103
Iowa,Sully,888,888,880.0,0.00225734,City,886,1526,0.582,41.578,-92.8468,312,19181,19181
Iowa,Le Grand,884,884,909.0,-0.0056243,City,889,851,1.039,42.0072,-92.7751,313,19013,19013
Iowa,Primghar,872,872,902.0,-0.00683371,City,878,642,1.359,43.0863,-95.6206,314,19193,19193
Iowa,Readlyn,866,866,850.0,0.00347625,City,863,2632,0.329,42.7037,-92.225,315,19013,19013
Iowa,Afton,858,858,870.0,-0.00232558,City,860,853,1.006,41.0276,-94.1953,316,19049,19049
Iowa,Hamburg,854,854,888.0,-0.00813008,City,861,761,1.122,40.6062,-95.6547,317,19155,19155
Iowa,Donnellson,852,852,887.0,-0.00814901,City,859,669,1.273,40.6453,-91.5641,318,19103,19103
Iowa,Maxwell,850,850,859.0,-0.00234742,City,852,778,1.092,41.8914,-93.3961,319,19169,19169
Iowa,Long Grove,848,848,838.0,0.00236407,City,846,737,1.151,41.6922,-90.5803,320,19163,19163
Iowa,Armstrong,847,847,869.0,-0.00470035,City,851,958,0.884,43.3944,-94.4834,321,19169,19169
Iowa,Colo,838,838,847.0,-0.00238095,City,840,787,1.065,42.0145,-93.3186,322,19169,19169
Iowa,Victor,838,838,873.0,-0.00828402,City,845,1742,0.481,41.7306,-92.2948,323,19103,19103
Iowa,Buffalo Center,837,837,861.0,-0.00593824,City,842,782,1.071,43.3894,-93.9428,324,19169,19169
Iowa,Cambridge,828,828,828.0,0.0,City,828,619,1.338,41.9017,-93.5366,325,19169,19169
Iowa,Dunkerton,827,827,839.0,-0.00241255,City,829,691,1.197,42.5685,-92.16,326,19013,19013
Iowa,Hubbard,822,822,859.0,-0.00844391,City,829,463,1.775,42.3058,-93.3017,327,19169,19169
Iowa,Winthrop,814,814,823.0,-0.00245098,City,816,1029,0.791,42.4708,-91.7374,328,19113,19113
Iowa,Newell,809,809,904.0,-0.0229469,City,828,641,1.263,42.6097,-95.004,329,19049,19049
Iowa,Graettinger,801,801,831.0,-0.00743494,City,807,1062,0.754,43.237,-94.7505,330,19049,19049
Iowa,Riceville,800,800,809.0,-0.00249376,City,802,755,1.059,43.3616,-92.5533,331,19013,19013
Iowa,Gilbertville,793,793,788.0,0.00126263,City,792,2215,0.358,42.4183,-92.2141,332,19013,19013
Iowa,Schleswig,785,785,830.0,-0.011335,City,794,634,1.239,42.161,-95.4346,333,19155,19155
Iowa,Adair,773,773,793.0,-0.00514801,City,777,349,2.215,41.5002,-94.6441,334,19049,19049
Iowa,Eldon,771,771,785.0,-0.00387597,City,774,705,1.094,40.918,-92.2182,335,19103,19103
Iowa,Gladbrook,769,769,799.0,-0.00774194,City,775,1103,0.697,42.1861,-92.7151,336,19013,19013
Iowa,Ossian,769,769,803.0,-0.00902062,City,776,720,1.068,43.147,-91.7646,337,19013,19013
Iowa,Van Horne,767,767,771.0,-0.00130208,City,768,825,0.93,42.0083,-92.0897,338,19113,19113
Iowa,Carson,764,764,768.0,-0.00130719,City,765,1170,0.653,41.2357,-95.4198,339,19155,19155
Iowa,West Bend,764,764,791.0,-0.00650195,City,769,871,0.877,42.96,-94.4457,340,19169,19169
Iowa,Lowden,763,763,800.0,-0.00909091,City,770,711,1.073,41.8589,-90.9229,341,19045,19045
Iowa,Lake Panorama,755,755,805.0,-0.0467172,CDP,792,114,6.612,41.7215,-94.404,342,19049,19049
Iowa,Wheatland,755,755,774.0,-0.00527009,City,759,1315,0.574,41.8331,-90.838,343,19045,19045
Iowa,Dakota City,754,754,759.0,-0.0013245,City,755,1033,0.73,42.7238,-94.1971,344,19169,19169
Iowa,Melbourne,754,754,788.0,-0.00919842,City,761,1428,0.528,41.9416,-93.1023,345,19169,19169
Iowa,Milo,750,750,777.0,-0.00662252,City,755,1234,0.608,41.2893,-93.4404,346,19181,19181
Iowa,Dayton,749,749,774.0,-0.0066313,City,754,879,0.852,42.2622,-94.0711,347,19049,19049
Iowa,Garnavillo,747,747,756.0,-0.00267023,City,749,791,0.944,42.8667,-91.2362,348,19061,19061
Iowa,Wall Lake,746,746,751.0,-0.00133869,City,747,652,1.145,42.2673,-95.0932,349,19155,19155
Iowa,Exira,745,745,790.0,-0.0119363,City,754,785,0.949,41.5914,-94.8813,350,19155,19155
Iowa,Raymond,741,741,758.0,-0.00403226,City,744,453,1.635,42.4694,-92.2297,351,19013,19013
Iowa,Correctionville,736,736,760.0,-0.00674764,City,741,1225,0.601,42.4776,-95.7832,352,19193,19193
Iowa,Shelby,732,732,722.0,0.00273973,City,730,354,2.065,41.5056,-95.4494,353,19155,19155
Iowa,Rockford,727,727,762.0,-0.00953678,City,734,1167,0.623,43.0524,-92.9477,354,19013,19013
Iowa,Manilla,724,724,769.0,-0.0122783,City,733,681,1.063,41.8926,-95.2345,355,19155,19155
Iowa,Alden,722,722,761.0,-0.0109589,City,730,469,1.541,42.5116,-93.3803,356,19169,19169
Iowa,Hartford,719,719,733.0,-0.00415512,City,722,661,1.088,41.4577,-93.4038,357,19181,19181
Iowa,McGregor,718,718,735.0,-0.00416089,City,721,555,1.294,43.0283,-91.1857,358,19061,19061
Iowa,Earlville,717,717,717.0,0.0,City,717,1301,0.551,42.4827,-91.2701,359,19061,19061
Iowa,Okoboji,717,717,766.0,-0.0137552,City,727,408,1.757,43.3881,-95.1332,360,19193,19193
Iowa,Shueyville,717,717,732.0,-0.00416667,City,720,385,1.864,41.8463,-91.6512,361,19103,19103
Iowa,Hedrick,716,716,731.0,-0.00417246,City,719,460,1.558,41.1713,-92.3079,362,19103,19103
Iowa,Montrose,715,715,745.0,-0.00832178,City,721,591,1.209,40.5253,-91.4184,363,19103,19103
Iowa,Whiting,715,715,744.0,-0.00832178,City,721,703,1.017,42.1272,-96.1507,364,19193,19193
Iowa,Walnut,714,714,741.0,-0.0069541,City,719,325,2.198,41.4895,-95.2197,365,19155,19155
Iowa,Essex,712,712,724.0,-0.00280112,City,714,435,1.635,40.8328,-95.3053,366,19155,19155
Iowa,Wellsburg,712,712,722.0,-0.00280112,City,714,648,1.098,42.4339,-92.9266,367,19013,19013
Iowa,Redfield,711,711,731.0,-0.0055944,City,715,522,1.363,41.5904,-94.1962,368,19049,19049
Iowa,Schaller,710,710,727.0,-0.00420757,City,713,564,1.259,42.4965,-95.2963,369,19155,19155
Iowa,Hazleton,709,709,711.0,0.0,City,709,887,0.799,42.6185,-91.9061,370,19013,19013
Iowa,Oxford,706,706,716.0,-0.00282486,City,708,763,0.925,41.7228,-91.7911,371,19103,19103
Iowa,Merrill,705,705,717.0,-0.00282885,City,707,1358,0.519,42.7205,-96.2519,372,19193,19193
Iowa,Denmark,704,704,504.0,0.0262391,CDP,686,424,1.661,40.7343,-91.3384,373,19103,19103
Iowa,Blairstown,702,702,706.0,-0.00142247,City,703,1415,0.496,41.906,-92.0822,374,19113,19113
Iowa,Ruthven,701,701,728.0,-0.00708215,City,706,1718,0.408,43.1301,-94.8987,375,19049,19049
Iowa,Grand Junction,698,698,723.0,-0.00711237,City,703,720,0.969,42.033,-94.237,376,19049,19049
Iowa,Sioux Rapids,698,698,747.0,-0.0141243,City,708,851,0.82,42.8917,-95.1485,377,19193,19193
Iowa,Hospers,697,697,719.0,-0.00570613,City,701,1320,0.528,43.0719,-95.9037,378,19193,19193
Iowa,Boyden,694,694,701.0,-0.00143885,City,695,1015,0.684,43.1891,-96.0032,379,19193,19193
Iowa,Ventura,687,687,712.0,-0.00722543,City,692,387,1.776,43.1289,-93.4659,380,19169,19169
Iowa,Fremont,677,677,697.0,-0.00587372,City,681,637,1.063,41.2125,-92.4337,381,19103,19103
Iowa,Lakeside,676,676,701.0,-0.00734214,City,681,2991,0.226,42.6174,-95.1774,382,19155,19155
Iowa,Stanton,675,675,677.0,0.0,City,675,712,0.948,40.9812,-95.1028,383,19155,19155
Iowa,Coggon,674,674,703.0,-0.00882353,City,680,949,0.71,42.2778,-91.5299,384,19113,19113
Iowa,Battle Creek,673,673,703.0,-0.00883652,City,679,1177,0.572,42.317,-95.6,385,19193,19193
Iowa,Stratford,670,670,700.0,-0.00887574,City,676,369,1.815,42.2696,-93.9274,386,19169,19169
Iowa,Bancroft,667,667,699.0,-0.0089153,City,673,1181,0.565,43.2928,-94.2176,387,19169,19169
Iowa,Elgin,666,666,686.0,-0.00597015,City,670,982,0.678,42.9554,-91.6354,388,19013,19013
Iowa,Alburnett,661,661,675.0,-0.00451807,City,664,874,0.756,42.1489,-91.6201,389,19113,19113
Iowa,Fontanelle,661,661,683.0,-0.00601504,City,665,771,0.857,41.29,-94.5602,390,19049,19049
Iowa,Doon,658,658,618.0,0.0123077,City,650,840,0.783,43.2793,-96.2331,391,19193,19193
Iowa,Morning Sun,657,657,746.0,-0.0266667,City,675,846,0.777,41.0941,-91.2506,392,19103,19103
Iowa,Walker,657,657,684.0,-0.00755287,City,662,877,0.749,42.2875,-91.7815,393,19113,19113
Iowa,Beaverdale,654,654,886.0,-0.0296736,CDP,674,207,3.156,40.8486,-91.2022,394,19103,19103
Iowa,Olin,654,654,656.0,0.0,City,654,640,1.022,41.9975,-91.1412,395,19113,19113
Iowa,Elk Horn,651,651,601.0,0.0156006,City,641,888,0.733,41.5931,-95.0612,396,19155,19155
Iowa,St. Charles,641,641,646.0,-0.00155763,City,642,1032,0.621,41.2872,-93.8074,397,19181,19181
Iowa,Seymour,641,641,636.0,0.0015625,City,640,268,2.392,40.6821,-93.1211,398,19181,19181
Iowa,Keystone,633,633,602.0,0.00956938,City,627,1413,0.448,41.9995,-92.1982,399,19013,19013
Iowa,Fonda,631,631,636.0,-0.00158228,City,632,628,1.004,42.5817,-94.8455,400,19049,19049
Iowa,Kanawha,630,630,652.0,-0.00630915,City,634,318,1.983,42.9342,-93.7932,401,19169,19169
Iowa,Hopkinton,625,625,622.0,0.00160256,City,624,974,0.642,42.3429,-91.249,402,19061,19061
Iowa,Crescent,622,622,626.0,-0.00160514,City,623,643,0.967,41.3653,-95.8589,403,19155,19155
Iowa,Dexter,621,621,641.0,-0.0064,City,625,496,1.252,41.5154,-94.2276,404,19049,19049
Iowa,Sutherland,621,621,630.0,-0.00321027,City,623,731,0.85,42.9729,-95.4952,405,19193,19193
Iowa,Moravia,618,618,637.0,-0.00643087,City,622,526,1.176,40.8917,-92.82,406,19181,19181
Iowa,Agency,613,613,615.0,0.0,City,613,1083,0.566,40.997,-92.3073,407,19103,19103
Iowa,Arcadia,610,610,529.0,0.026936,City,594,617,0.989,42.0862,-95.0432,408,19155,19155
Iowa,Stanwood,607,607,639.0,-0.00978793,City,613,763,0.796,41.8927,-91.1488,409,19113,19113
Iowa,Dumont,606,606,636.0,-0.00980392,City,612,346,1.749,42.7522,-92.9737,410,19013,19013
Iowa,Grand Mound,604,604,618.0,-0.00494234,City,607,323,1.871,41.8237,-90.6507,411,19045,19045
Iowa,Goldfield,602,602,632.0,-0.00986842,City,608,512,1.175,42.7356,-93.9179,412,19169,19169
Iowa,Quasqueton,601,601,576.0,0.00838926,City,596,532,1.13,42.3948,-91.7577,413,19113,19113
Iowa,Albert City,593,593,675.0,-0.0262726,City,609,1088,0.545,42.7816,-94.9491,414,19049,19049
Iowa,Moulton,593,593,608.0,-0.00503356,City,596,595,0.997,40.6855,-92.6763,415,19181,19181
Iowa,Farmington,592,592,584.0,0.00338983,City,590,1281,0.462,40.6388,-91.739,416,19103,19103
Iowa,Kellogg,592,592,601.0,-0.003367,City,594,1596,0.371,41.718,-92.9072,417,19169,19169
Iowa,What Cheer,591,591,605.0,-0.00505051,City,594,478,1.237,41.4003,-92.3571,418,19103,19103
Iowa,Murray,588,588,677.0,-0.029703,City,606,735,0.8,41.0413,-93.9488,419,19181,19181
Iowa,Amana,584,584,472.0,0.0156522,CDP,575,589,0.992,41.8036,-91.8752,420,19103,19103
Iowa,Brighton,583,583,598.0,-0.00511945,City,586,746,0.782,41.1747,-91.8212,421,19103,19103
Iowa,Minden,583,583,602.0,-0.00681431,City,587,1028,0.567,41.4694,-95.5432,422,19155,19155
Iowa,Middle Amana,577,577,783.0,-0.0017301,CDP,578,594,0.972,41.7948,-91.9015,423,19103,19103
Iowa,Early,575,575,590.0,-0.00519031,City,578,1478,0.389,42.4611,-95.1524,424,19155,19155
Iowa,Coalville,572,572,645.0,-0.00521739,CDP,575,262,2.183,42.4401,-94.1158,425,19169,19169
Iowa,Ireton,572,572,587.0,-0.00521739,City,575,561,1.02,42.9749,-96.3216,426,19193,19193
Iowa,Everly,571,571,573.0,0.0,City,571,545,1.047,43.1651,-95.3175,427,19193,19193
Iowa,Clermont,567,567,577.0,-0.00351494,City,569,450,1.26,42.9996,-91.6523,428,19013,19013
Iowa,Cumming,547,547,432.0,0.0438931,City,524,159,3.449,41.4847,-93.7619,429,19181,19181
Iowa,New Hartford,546,546,571.0,-0.00907441,City,551,881,0.62,42.5682,-92.6214,430,19013,19013
Iowa,Delmar,540,540,544.0,-0.00184843,City,541,707,0.764,41.9989,-90.6079,431,19045,19045
Iowa,Richland,540,540,539.0,0.0,City,540,522,1.034,41.1855,-91.9936,432,19103,19103
Iowa,Badger,537,537,524.0,0.00561798,City,534,477,1.125,42.6141,-94.1446,433,19169,19169
Iowa,Swea City,535,535,565.0,-0.0110906,City,541,698,0.767,43.3835,-94.3103,434,19169,19169
Iowa,Radcliffe,530,530,555.0,-0.00934579,City,535,532,0.997,42.3177,-93.4343,435,19169,19169
Iowa,Wyoming,529,529,524.0,0.00189394,City,528,1091,0.485,42.0595,-91.0052,436,19061,19061
Iowa,Truro,528,528,512.0,0.00571429,City,525,536,0.985,41.2098,-93.8467,437,19181,19181
Iowa,Anthon,524,524,541.0,-0.0056926,City,527,743,0.705,42.3881,-95.8655,438,19193,19193
Iowa,Gilman,524,524,544.0,-0.00757576,City,528,978,0.536,41.8789,-92.7881,439,19169,19169
Iowa,Washburn,524,524,524.0,-0.0420475,CDP,547,424,1.236,42.4103,-92.2669,440,19013,19013
Iowa,Ainsworth,516,516,508.0,0.00389105,City,514,1398,0.369,41.2901,-91.5543,441,19103,19103
Iowa,Pomeroy,514,514,528.0,-0.00580271,City,517,251,2.051,42.5519,-94.6779,442,19049,19049
Iowa,Twin Lakes,510,510,308.0,0.0240964,CDP,498,386,1.322,42.481,-94.6298,443,19049,19049
Iowa,Orleans,500,500,520.0,-0.00793651,City,504,444,1.127,43.4527,-95.0859,444,19193,19193
Iowa,Dows,498,498,525.0,-0.00994036,City,503,648,0.769,42.6584,-93.502,445,19169,19169
Iowa,Charter Oak,497,497,532.0,-0.0138889,City,504,969,0.513,42.0678,-95.5895,446,19155,19155
Iowa,Rolfe,497,497,511.0,-0.006,City,500,472,1.053,42.8132,-94.5319,447,19049,19049
Iowa,Collins,494,494,498.0,-0.0020202,City,495,1012,0.488,41.9024,-93.3081,448,19169,19169
Iowa,Breda,492,492,497.0,-0.0020284,City,493,666,0.739,42.184,-94.975,449,19155,19155
Iowa,New Virginia,489,489,499.0,-0.00407332,City,491,1087,0.45,41.1818,-93.7311,450,19181,19181
Iowa,Sabula,487,487,501.0,-0.00612245,City,490,986,0.494,42.0702,-90.1825,451,19045,19045
Iowa,Thompson,483,483,498.0,-0.00617284,City,486,564,0.857,43.3699,-93.7747,452,19169,19169
Iowa,Ellsworth,482,482,506.0,-0.0102669,City,487,546,0.883,42.3102,-93.5819,453,19169,19169
Iowa,Scranton,482,482,507.0,-0.0102669,City,487,259,1.861,42.0192,-94.5492,454,19049,19049
Iowa,Zearing,481,481,535.0,-0.0223577,City,492,642,0.749,42.1589,-93.2972,455,19169,19169
Iowa,Elma,479,479,506.0,-0.0103306,City,484,390,1.227,43.2457,-92.4387,456,19013,19013
Iowa,Russell,475,475,472.0,0.0021097,City,474,463,1.025,40.9804,-93.2011,457,19181,19181
Iowa,Titonka,475,475,505.0,-0.012474,City,481,1684,0.282,43.2372,-94.0414,458,19169,19169
Iowa,Gilmore City,474,474,484.0,-0.00420168,City,476,383,1.239,42.7268,-94.4368,459,19049,19049
Iowa,Farragut,472,472,486.0,-0.00631579,City,475,1177,0.401,40.7201,-95.4808,460,19155,19155
Iowa,Humeston,472,472,466.0,0.00212314,City,471,756,0.624,40.8607,-93.4973,461,19181,19181
Iowa,Latimer,467,467,477.0,-0.00426439,City,469,194,2.404,42.7629,-93.3655,462,19169,19169
Iowa,University Park,467,467,486.0,-0.00849257,City,471,600,0.778,41.2855,-92.615,463,19181,19181
Iowa,Whittemore,467,467,496.0,-0.012685,City,473,1150,0.406,43.0633,-94.4252,464,19169,19169
Iowa,Norway,466,466,463.0,0.00215054,City,465,1069,0.436,41.9022,-91.9228,465,19113,19113
Iowa,Garwin,464,464,483.0,-0.00854701,City,468,461,1.007,42.0935,-92.6791,466,19013,19013
Iowa,Maynard,464,464,473.0,-0.00429185,City,466,479,0.969,42.7733,-91.878,467,19013,19013
Iowa,Lime Springs,461,461,476.0,-0.00646552,City,464,454,1.015,43.4499,-92.2841,468,19013,19013
Iowa,Dow City,455,455,484.0,-0.0130152,City,461,1362,0.334,41.9275,-95.4944,469,19155,19155
Iowa,Sandusky,455,455,312.0,0.0705882,CDP,425,319,1.425,40.448,-91.389,470,19103,19103
Iowa,Lovilia,452,452,471.0,-0.00877193,City,456,876,0.516,41.1347,-92.9079,471,19181,19181
Iowa,Little Rock,448,448,438.0,0.0044843,City,446,441,1.015,43.4471,-95.8804,472,19193,19193
Iowa,Runnells,448,448,455.0,-0.00222717,City,449,1082,0.414,41.514,-93.3601,473,19181,19181
Iowa,Delhi,444,444,414.0,0.0136986,City,438,468,0.948,42.4337,-91.3259,474,19061,19061
Iowa,Albion,435,435,449.0,-0.00684932,City,438,721,0.603,42.1125,-92.9886,475,19169,19169
Iowa,Alleman,434,434,433.0,0.0,City,434,148,2.937,41.8152,-93.6126,476,19153,19153
Iowa,Marquette,434,434,428.0,0.00230947,City,433,234,1.857,43.0431,-91.1925,477,19061,19061
Iowa,Allerton,432,432,431.0,0.0,City,432,364,1.187,40.7083,-93.3686,478,19181,19181
Iowa,Lamont,432,432,432.0,0.0,City,432,738,0.585,42.5986,-91.6404,479,19113,19113
Iowa,Beacon,429,429,434.0,-0.00232558,City,430,552,0.777,41.2761,-92.681,480,19181,19181
Iowa,New Albin,429,429,434.0,-0.00232558,City,430,1702,0.252,43.497,-91.2879,481,19061,19061
Iowa,Klemme,424,424,438.0,-0.00702576,City,427,848,0.5,43.0096,-93.6013,482,19169,19169
Iowa,Stacyville,424,424,456.0,-0.0139535,City,430,823,0.515,43.4392,-92.7839,483,19013,19013
Iowa,Hawkeye,423,423,437.0,-0.00704225,City,426,629,0.672,42.9378,-91.9504,484,19013,19013
Iowa,Oxford Junction,422,422,427.0,-0.00236407,City,423,651,0.648,41.9837,-90.9543,485,19045,19045
Iowa,Grandview,420,420,442.0,-0.00943396,City,424,1842,0.228,41.2771,-91.1881,486,19103,19103
Iowa,Ashton,418,418,452.0,-0.0164706,City,425,374,1.119,43.3094,-95.7908,487,19193,19193
Iowa,Batavia,418,418,433.0,-0.00712589,City,421,679,0.616,40.995,-92.1673,488,19103,19103
Iowa,Lost Nation,417,417,431.0,-0.00714286,City,420,552,0.756,41.9675,-90.8181,489,19045,19045
Iowa,Arlington,416,416,421.0,-0.00239808,City,417,415,1.003,42.7488,-91.671,490,19113,19113
Iowa,Ocheyedan,409,409,438.0,-0.0144578,City,415,361,1.132,43.4182,-95.5367,491,19193,19193
Iowa,Galva,405,405,434.0,-0.0145985,City,411,537,0.754,42.5057,-95.418,492,19193,19193
Iowa,Martensdale,403,403,422.0,-0.00982801,City,407,1061,0.38,41.3737,-93.7388,493,19181,19181
Iowa,Bayard,402,402,406.0,-0.00248139,City,403,907,0.443,41.8521,-94.5586,494,19049,19049
Iowa,Emerson,401,401,396.0,0.0025,City,400,1573,0.255,41.018,-95.4027,495,19155,19155
Iowa,Otho,401,401,425.0,-0.0123153,City,406,905,0.443,42.4222,-94.1494,496,19049,19049
Iowa,Milton,400,400,392.0,0.00502513,City,398,149,2.692,40.6715,-92.1619,497,19103,19103
Iowa,Burt,397,397,417.0,-0.00997506,City,401,934,0.425,43.1991,-94.2213,498,19169,19169
Iowa,Miles,397,397,409.0,-0.00501253,City,399,314,1.264,42.0481,-90.3133,499,19045,19045
Iowa,Plainfield,394,394,394.0,0.0,City,394,1173,0.336,42.8445,-92.5357,500,19013,19013
Iowa,Earling,392,392,394.0,0.0,City,392,624,0.628,41.7763,-95.419,501,19155,19155
Iowa,New Market,389,389,384.0,0.00257732,City,388,898,0.433,40.7326,-94.9,502,19155,19155
Iowa,Charlotte,388,388,390.0,0.0,City,388,680,0.571,41.9622,-90.4683,503,19045,19045
Iowa,Casey,386,386,383.0,0.0025974,City,385,522,0.739,41.5075,-94.5214,504,19049,19049
Iowa,Lehigh,385,385,399.0,-0.00773196,City,388,182,2.111,42.3582,-94.0534,505,19169,19169
Iowa,Thornton,385,385,404.0,-0.0102828,City,389,309,1.244,42.9442,-93.387,506,19169,19169
Iowa,Lawler,384,384,408.0,-0.0128535,City,389,402,0.955,43.0719,-92.1528,507,19013,19013
Iowa,Lynnville,384,384,381.0,0.00261097,City,383,349,1.099,41.5729,-92.7869,508,19181,19181
Iowa,Colesburg,381,381,386.0,-0.0026178,City,382,1296,0.294,42.6388,-91.2011,509,19061,19061
Iowa,Royal,380,380,380.0,0.0,City,380,1288,0.295,43.0644,-95.2837,510,19193,19193
Iowa,New Vienna,378,378,383.0,-0.00263852,City,379,811,0.466,42.5477,-91.1139,511,19061,19061
Iowa,Salem,378,378,397.0,-0.0104712,City,382,604,0.626,40.8522,-91.6207,512,19103,19103
Iowa,Riverdale,377,377,376.0,0.0,City,377,205,1.839,41.5373,-90.4636,513,19163,19163
Iowa,Andrew,373,373,377.0,-0.0026738,City,374,1504,0.248,42.1532,-90.5923,514,19045,19045
Iowa,Birmingham,373,373,370.0,0.00268817,City,372,368,1.014,40.8785,-91.9479,515,19103,19103
Iowa,Union,373,373,393.0,-0.0106101,City,377,653,0.571,42.2435,-93.0625,516,19169,19169
Iowa,Columbus City,372,372,386.0,-0.008,City,375,1550,0.24,41.2592,-91.3747,517,19103,19103
Iowa,Wesley,372,372,392.0,-0.0106383,City,376,559,0.666,43.0891,-93.9929,518,19169,19169
Iowa,Livermore,371,371,381.0,-0.00536193,City,373,570,0.651,42.8678,-94.1838,519,19169,19169
Iowa,Bussey,370,370,379.0,-0.00537634,City,372,1190,0.311,41.2054,-92.8843,520,19181,19181
Iowa,Lorimor,370,370,385.0,-0.0080429,City,373,858,0.431,41.1267,-94.0569,521,19181,19181
Iowa,Worthington,368,368,378.0,-0.00540541,City,370,814,0.452,42.3979,-91.1207,522,19061,19061
Iowa,Vail,366,366,390.0,-0.0134771,City,371,642,0.57,42.0597,-95.2005,523,19155,19155
Iowa,Duncombe,364,364,379.0,-0.00817439,City,367,185,1.963,42.4698,-93.9968,524,19169,19169
Iowa,Lewis,364,364,359.0,0.00275482,City,363,721,0.505,41.3064,-95.0843,525,19155,19155
Iowa,Lohrville,364,364,378.0,-0.00817439,City,367,162,2.253,42.2669,-94.5515,526,19049,19049
Iowa,Middletown,364,364,363.0,0.0,City,364,663,0.549,40.8279,-91.2622,527,19103,19103
Iowa,Farnhamville,363,363,380.0,-0.00819672,City,366,551,0.659,42.2765,-94.4077,528,19049,19049
Iowa,Spillville,363,363,385.0,-0.0108992,City,367,827,0.439,43.2028,-91.9522,529,19013,19013
Iowa,Bonaparte,361,361,360.0,0.0,City,361,965,0.374,40.7012,-91.8007,530,19103,19103
Iowa,Plymouth,361,361,381.0,-0.0109589,City,365,819,0.441,43.2464,-93.1233,531,19013,19013
Iowa,McCallsburg,356,356,351.0,0.0028169,City,355,781,0.456,42.1649,-93.3908,532,19169,19169
Iowa,Holiday Lake,355,355,330.0,-0.0166205,CDP,361,133,2.675,41.818,-92.4535,533,19013,19013
Iowa,Massena,354,354,356.0,0.0,City,354,517,0.685,41.2506,-94.7699,534,19155,19155
Iowa,Callender,351,351,371.0,-0.0112676,City,355,667,0.526,42.3616,-94.2955,535,19049,19049
Iowa,Churdan,351,351,365.0,-0.00847458,City,354,170,2.07,42.1541,-94.4779,536,19049,19049
Iowa,Orient,350,350,364.0,-0.00849858,City,353,805,0.435,41.2032,-94.4173,537,19049,19049
Iowa,Letts,349,349,361.0,-0.00569801,City,351,616,0.567,41.33,-91.2354,538,19103,19103
Iowa,Calamus,347,347,354.0,-0.00287356,City,348,704,0.493,41.8264,-90.7597,539,19045,19045
Iowa,Ringsted,347,347,364.0,-0.00857143,City,350,348,0.996,43.2951,-94.5074,540,19169,19169
Iowa,Stanhope,346,346,363.0,-0.00859599,City,349,353,0.98,42.2889,-93.796,541,19169,19169
Iowa,Ryan,345,345,347.0,0.0,City,345,788,0.438,42.3523,-91.4849,542,19113,19113
Iowa,Garrison,344,344,344.0,0.0,City,344,1117,0.308,42.145,-92.1442,543,19013,19013
Iowa,Conesville,343,343,350.0,-0.00290698,City,344,955,0.359,41.3796,-91.3486,544,19103,19103
Iowa,Menlo,343,343,343.0,0.0,City,343,692,0.496,41.5221,-94.4038,545,19049,19049
Iowa,Moscow,342,342,235.0,0.06875,CDP,320,287,1.19,41.5707,-91.0743,546,19163,19163
Iowa,Rudd,342,342,357.0,-0.00869565,City,345,314,1.088,43.1263,-92.9047,547,19013,19013
Iowa,Holy Cross,340,340,360.0,-0.0116279,City,344,1037,0.328,42.6011,-90.9962,548,19061,19061
Iowa,Diagonal,338,338,338.0,0.0,City,338,370,0.913,40.8109,-94.3419,549,19049,19049
Iowa,Donahue,338,338,333.0,0.00296736,City,337,952,0.355,41.6915,-90.6746,550,19163,19163
Iowa,Mondamin,337,337,337.0,0.0,City,337,746,0.452,41.71,-96.0215,551,19155,19155
Iowa,Wahpeton,337,337,347.0,-0.0058997,City,339,281,1.198,43.3695,-95.1759,552,19193,19193
Iowa,Mooar,335,335,388.0,0.0702875,CDP,313,127,2.646,40.4319,-91.4446,553,19103,19103
Iowa,Templeton,335,335,349.0,-0.00887574,City,338,684,0.49,41.9181,-94.9407,554,19155,19155
Iowa,Brandon,330,330,337.0,-0.00302115,City,331,1019,0.324,42.315,-92.0031,555,19013,19013
Iowa,Lacona,328,328,343.0,-0.00906344,City,331,991,0.331,41.1901,-93.3851,556,19181,19181
Iowa,Bennett,326,326,348.0,-0.0121212,City,330,1575,0.207,41.7398,-90.9736,557,19163,19163
Iowa,Elliott,325,325,339.0,-0.00914634,City,328,767,0.424,41.1494,-95.163,558,19155,19155
Iowa,Pierson,325,325,339.0,-0.00914634,City,328,684,0.475,42.5436,-95.8665,559,19193,19193
Iowa,Ute,322,322,342.0,-0.0122699,City,326,866,0.372,42.0503,-95.7058,560,19155,19155
Iowa,Nichols,321,321,338.0,-0.00925926,City,324,1408,0.228,41.4797,-91.308,561,19103,19103
Iowa,Mingo,319,319,303.0,0.00949367,City,316,518,0.616,41.7662,-93.2825,562,19153,19153
Iowa,Peterson,319,319,319.0,0.0,City,319,615,0.519,42.9173,-95.3431,563,19193,19193
Iowa,Sheldahl,319,319,299.0,0.0126984,City,315,395,0.807,41.8645,-93.6967,564,19153,19153
Iowa,Irwin,318,318,322.0,-0.0031348,City,319,543,0.586,41.7901,-95.2068,565,19155,19155
Iowa,Mystic,318,318,325.0,-0.0031348,City,319,108,2.944,40.7792,-92.9444,566,19181,19181
Iowa,Lester,317,317,296.0,0.0127796,City,313,174,1.825,43.4403,-96.3314,567,19193,19193
Iowa,Maharishi Vedic City,312,312,272.0,0.0263158,City,304,93,3.341,41.0545,-92.0146,568,19103,19103
Iowa,McCausland,311,311,310.0,0.0,City,311,561,0.554,41.7434,-90.4459,569,19045,19045
Iowa,Minburn,311,311,326.0,-0.00955414,City,314,1220,0.255,41.7576,-94.0285,570,19049,19049
Iowa,Kelley,310,310,305.0,0.00323624,City,309,418,0.741,41.9509,-93.665,571,19169,19169
Iowa,West Okoboji,308,308,307.0,0.0,City,308,246,1.254,43.3477,-95.1664,572,19193,19193
Iowa,Danbury,306,306,318.0,-0.00649351,City,308,756,0.405,42.2364,-95.7216,573,19193,19193
Iowa,Luana,306,306,301.0,0.00327869,City,305,278,1.102,43.0594,-91.4557,574,19061,19061
Iowa,Terril,304,304,334.0,-0.0193548,City,310,560,0.543,43.3058,-94.9689,575,19193,19193
Iowa,Bradford,303,303,61.0,0.0744681,CDP,282,326,0.929,42.6367,-93.2524,576,19169,19169
Iowa,Floyd,301,301,311.0,-0.00660066,City,303,545,0.552,43.1282,-92.7399,577,19013,19013
Iowa,Salix,298,298,300.0,0.0,City,298,176,1.698,42.3119,-96.2922,578,19193,19193
Iowa,Bode,297,297,306.0,-0.00668896,City,299,735,0.404,42.868,-94.2862,579,19169,19169
Iowa,Granville,297,297,311.0,-0.01,City,300,1021,0.291,42.9853,-95.875,580,19193,19193
Iowa,Fort Atkinson,295,295,310.0,-0.0100671,City,298,928,0.318,43.1443,-91.9345,581,19013,19013
Iowa,Fertile,294,294,306.0,-0.00675676,City,296,312,0.941,43.2623,-93.4232,582,19169,19169
Iowa,Williams,292,292,306.0,-0.0101695,City,295,344,0.849,42.4892,-93.5412,583,19169,19169
Iowa,Persia,291,291,296.0,-0.00342466,City,292,581,0.501,41.5786,-95.5701,584,19155,19155
Iowa,Bronson,290,290,299.0,-0.00684932,City,292,838,0.346,42.409,-96.2105,585,19193,19193
Iowa,Liscomb,290,290,292.0,0.0,City,290,287,1.01,42.1913,-93.0063,586,19169,19169
Iowa,Fairport,285,285,268.0,0.0714286,CDP,266,153,1.86,41.4397,-90.9241,587,19163,19163
Iowa,Clearfield,284,284,278.0,0.00353357,City,283,239,1.19,40.8006,-94.483,588,19049,19049
Iowa,Modale,284,284,274.0,0.0070922,City,282,273,1.041,41.6182,-96.0121,589,19155,19155
Iowa,Atalissa,281,281,296.0,-0.0105634,City,284,2022,0.139,41.5717,-91.1665,590,19103,19103
Iowa,Cincinnati,279,279,288.0,-0.00711744,City,281,159,1.756,40.631,-92.9222,591,19181,19181
Iowa,Crawfordsville,278,278,277.0,0.0,City,278,757,0.367,41.2139,-91.5366,592,19103,19103
Iowa,Harpers Ferry,276,276,261.0,0.010989,City,273,434,0.636,43.2008,-91.1522,593,19061,19061
Iowa,Kimballton,276,276,291.0,-0.0107527,City,279,362,0.762,41.6272,-95.0747,594,19155,19155
Iowa,Maurice,274,274,268.0,0.003663,City,273,455,0.602,42.9661,-96.182,595,19193,19193
Iowa,Stockport,274,274,276.0,0.0,City,274,267,1.027,40.8573,-91.8334,596,19103,19103
Iowa,Lytton,270,270,280.0,-0.00735294,City,272,1174,0.23,42.4233,-94.8609,597,19049,19049
Iowa,Westside,270,270,287.0,-0.010989,City,273,184,1.471,42.0757,-95.1014,598,19155,19155
Iowa,Rhodes,269,269,271.0,0.0,City,269,265,1.014,41.9278,-93.1837,599,19169,19169
Iowa,Blakesburg,267,267,272.0,-0.00373134,City,268,985,0.271,40.962,-92.6347,600,19181,19181
Iowa,Libertyville,267,267,277.0,-0.00743494,City,269,528,0.506,40.9582,-92.0496,601,19103,19103
Iowa,Bertram,265,265,270.0,-0.0037594,City,266,173,1.534,41.9517,-91.5378,602,19113,19113
Iowa,Halbur,264,264,273.0,-0.0075188,City,266,1245,0.212,42.0053,-94.9719,603,19155,19155
Iowa,Holland,264,264,269.0,-0.00377358,City,265,1048,0.252,42.4001,-92.7988,604,19013,19013
Iowa,Rowley,264,264,269.0,-0.00377358,City,265,680,0.388,42.3685,-91.8443,605,19113,19113
Iowa,Farmersburg,262,262,272.0,-0.00757576,City,264,644,0.407,42.9593,-91.3667,606,19061,19061
Iowa,Yale,262,262,267.0,-0.00380228,City,263,907,0.289,41.7751,-94.3578,607,19049,19049
Iowa,Macedonia,260,260,267.0,-0.00383142,City,261,1102,0.236,41.1923,-95.4265,608,19155,19155
Iowa,Pulaski,260,260,262.0,0.0,City,260,594,0.438,40.6944,-92.2742,609,19103,19103
Iowa,Marble Rock,258,258,268.0,-0.00769231,City,260,310,0.832,42.9646,-92.8678,610,19013,19013
Iowa,Steamboat Rock,258,258,265.0,-0.003861,City,259,478,0.54,42.4081,-93.0662,611,19169,19169
Iowa,Lakota,257,257,267.0,-0.00772201,City,259,353,0.729,43.3786,-94.0963,612,19169,19169
Iowa,Malcom,257,257,267.0,-0.00772201,City,259,311,0.826,41.7061,-92.5553,613,19013,19013
Iowa,Ridgeway,257,257,276.0,-0.0153257,City,261,340,0.755,43.2971,-91.9924,614,19013,19013
Iowa,Corwith,256,256,266.0,-0.00775194,City,258,177,1.448,42.9889,-93.9582,615,19169,19169
Iowa,Delta,256,256,261.0,-0.00389105,City,257,267,0.958,41.3228,-92.3306,616,19103,19103
Iowa,Protivin,256,256,265.0,-0.00775194,City,258,582,0.44,43.2167,-92.0889,617,19013,19013
Iowa,Auburn,254,254,263.0,-0.0078125,City,256,511,0.497,42.2495,-94.8777,618,19049,19049
Iowa,Kensett,253,253,258.0,-0.00393701,City,254,250,1.013,43.3534,-93.2108,619,19013,19013
Iowa,Goose Lake,252,252,249.0,0.00398406,City,251,761,0.331,41.9676,-90.3818,620,19045,19045
Iowa,Burr Oak,251,251,200.0,0.0244898,CDP,245,364,0.69,43.458,-91.8619,621,19013,19013
Iowa,Cumberland,251,251,248.0,0.004,City,250,405,0.62,41.2732,-94.8705,622,19155,19155
Iowa,Kiron,250,250,267.0,-0.0118577,City,253,1238,0.202,42.1942,-95.3271,623,19155,19155
Iowa,Harcourt,249,249,264.0,-0.0119048,City,252,246,1.011,42.2606,-94.1745,624,19049,19049
Iowa,Mallard,249,249,263.0,-0.0119048,City,252,635,0.392,42.9394,-94.6834,625,19049,19049
Iowa,Silver City,249,249,241.0,0.00809717,City,247,1191,0.209,41.1115,-95.6379,626,19155,19155
Iowa,Hornick,248,248,255.0,-0.00401606,City,249,808,0.307,42.229,-96.0965,627,19193,19193
Iowa,Deep River,247,247,251.0,-0.00403226,City,248,565,0.437,41.5816,-92.3729,628,19103,19103
Iowa,Pisgah,247,247,242.0,0.00406504,City,246,494,0.5,41.8299,-95.9262,629,19155,19155
Iowa,Martelle,245,245,249.0,-0.00406504,City,246,788,0.311,42.0204,-91.3578,630,19113,19113
Iowa,Quimby,245,245,247.0,0.0,City,245,602,0.407,42.6291,-95.6441,631,19193,19193
Iowa,Lu Verne,244,244,254.0,-0.00813008,City,246,115,2.124,42.9095,-94.0836,632,19169,19169
Iowa,Defiance,243,243,247.0,-0.00409836,City,244,651,0.373,41.825,-95.3401,633,19155,19155
Iowa,Fenton,243,243,267.0,-0.0201613,City,248,736,0.33,43.2184,-94.4279,634,19169,19169
Iowa,Harvey,241,241,236.0,0.00416667,City,240,356,0.677,41.3179,-92.9227,635,19181,19181
Iowa,Leland,241,241,250.0,-0.00823045,City,243,180,1.336,43.334,-93.6318,636,19169,19169
Iowa,Kellerton,239,239,239.0,0.0,City,239,370,0.646,40.7104,-94.0499,637,19181,19181
Iowa,Crystal Lake,238,238,253.0,-0.0124481,City,241,960,0.248,43.223,-93.7927,638,19169,19169
Iowa,Lockridge,238,238,243.0,-0.0041841,City,239,381,0.624,40.9936,-91.7507,639,19103,19103
Iowa,Low Moor,237,237,246.0,-0.0083682,City,239,435,0.545,41.8029,-90.355,640,19045,19045
Iowa,Panama,237,237,237.0,0.0,City,237,817,0.29,41.7262,-95.4754,641,19155,19155
Iowa,Riverton,237,237,247.0,-0.0083682,City,239,393,0.603,40.6869,-95.5686,642,19155,19155
Iowa,Deloit,236,236,250.0,-0.0125523,City,239,580,0.407,42.0972,-95.3173,643,19155,19155
Iowa,Keswick,236,236,241.0,-0.00421941,City,237,529,0.446,41.4546,-92.2383,644,19103,19103
Iowa,Luxemburg,235,235,242.0,-0.00423729,City,236,498,0.472,42.604,-91.0726,645,19061,19061
Iowa,Cleghorn,234,234,239.0,-0.00425532,City,235,1026,0.228,42.8125,-95.7127,646,19193,19193
Iowa,Fostoria,229,229,231.0,0.0,City,229,564,0.406,43.243,-95.1549,647,19193,19193
Iowa,La Motte,229,229,238.0,-0.00865801,City,231,506,0.453,42.2956,-90.6233,648,19061,19061
Iowa,Bagley,228,228,232.0,-0.00436681,City,229,728,0.313,41.8464,-94.4303,649,19049,19049
Iowa,Cantril,226,226,223.0,0.00444444,City,225,437,0.517,40.6429,-92.0684,650,19103,19103
Iowa,New Providence,226,226,235.0,-0.00877193,City,228,226,0.999,42.2813,-93.1716,651,19169,19169
Iowa,Renwick,225,225,232.0,-0.00442478,City,226,225,1.002,42.8269,-93.9813,652,19169,19169
Iowa,Waucoma,225,225,229.0,-0.00442478,City,226,481,0.468,43.0556,-92.0345,653,19013,19013
Iowa,Diamondhead Lake,224,224,258.0,-0.0386266,CDP,233,230,0.973,41.5546,-94.26,654,19049,19049
Iowa,Blencoe,223,223,233.0,-0.00888889,City,225,293,0.76,41.9303,-96.0821,655,19193,19193
Iowa,Wever,223,223,112.0,0.0721154,CDP,208,151,1.476,40.7057,-91.2281,656,19103,19103
Iowa,Ladora,220,220,229.0,-0.00900901,City,222,746,0.295,41.7557,-92.1859,657,19103,19103
Iowa,Alvord,219,219,209.0,0.00921659,City,217,380,0.577,43.3417,-96.3037,658,19193,19193
Iowa,Dedham,219,219,223.0,-0.00454545,City,220,397,0.552,41.9084,-94.8233,659,19049,19049
Iowa,Laurel,219,219,219.0,0.0,City,219,890,0.246,41.884,-92.9223,660,19169,19169
Iowa,Cushing,218,218,230.0,-0.00909091,City,220,686,0.318,42.4651,-95.6757,661,19193,19193
Iowa,Chelsea,216,216,226.0,-0.00917431,City,218,213,1.013,41.9205,-92.3944,662,19013,19013
Iowa,Greeley,216,216,216.0,0.0,City,216,576,0.375,42.5849,-91.3417,663,19061,19061
Iowa,Paton,216,216,221.0,-0.00460829,City,217,384,0.562,42.1644,-94.255,664,19049,19049
Iowa,Coulter,215,215,219.0,-0.00462963,City,216,87,2.47,42.733,-93.3701,665,19169,19169
Iowa,Montpelier,215,215,157.0,0.0696517,CDP,201,439,0.49,41.4614,-90.8114,666,19163,19163
Iowa,Ionia,213,213,228.0,-0.0138889,City,216,378,0.564,43.0359,-92.4584,667,19013,19013
Iowa,Marathon,213,213,232.0,-0.0184332,City,217,284,0.749,42.8602,-94.9829,668,19049,19049
Iowa,Arthur,212,212,222.0,-0.00934579,City,214,1442,0.147,42.3354,-95.3469,669,19155,19155
Iowa,Alta Vista,211,211,226.0,-0.0140187,City,214,281,0.752,43.1967,-92.4169,670,19013,19013
Iowa,Rippey,209,209,221.0,-0.00947867,City,211,241,0.866,41.9339,-94.2007,671,19049,19049
Iowa,Grafton,208,208,217.0,-0.00952381,City,210,648,0.321,43.3307,-93.0687,672,19013,19013
Iowa,Frederika,207,207,204.0,0.00485437,City,206,564,0.367,42.8834,-92.306,673,19013,19013
Iowa,Meservey,207,207,219.0,-0.00956938,City,209,138,1.496,42.9156,-93.4733,674,19169,19169
Iowa,Clutier,206,206,211.0,-0.00483092,City,207,275,0.75,42.0793,-92.4036,675,19013,19013
Iowa,Green Mountain,206,206,182.0,0.0248756,CDP,201,300,0.686,42.1019,-92.8196,676,19013,19013
Iowa,Fredonia,205,205,219.0,-0.0144231,City,208,1358,0.151,41.2843,-91.3392,677,19103,19103
Iowa,Linden,205,205,200.0,0.00490196,City,204,262,0.783,41.6427,-94.27,678,19049,19049
Iowa,Dixon,204,204,203.0,0.0,City,204,1632,0.125,41.7421,-90.7824,679,19163,19163
Iowa,Washta,203,203,208.0,-0.00490196,City,204,201,1.01,42.5756,-95.7201,680,19193,19193
Iowa,Wadena,202,202,207.0,-0.00492611,City,203,269,0.752,42.8397,-91.6594,681,19013,19013
Iowa,Rickardsville,201,201,206.0,-0.00495049,City,202,218,0.92,42.5816,-90.8763,682,19061,19061
Iowa,Joice,200,200,210.0,-0.00990099,City,202,187,1.068,43.3641,-93.4573,683,19169,19169
Iowa,Volga,199,199,203.0,-0.005,City,200,265,0.752,42.8029,-91.5423,684,19113,19113
Iowa,Bentley,198,198,158.0,0.0259067,CDP,193,193,1.027,41.3755,-95.6225,685,19155,19155
Iowa,Hanlontown,198,198,208.0,-0.01,City,200,204,0.969,43.2809,-93.3789,686,19169,19169
Iowa,Grand River,197,197,197.0,0.0,City,197,1042,0.189,40.819,-93.9631,687,19181,19181
Iowa,Hancock,197,197,199.0,0.0,City,197,272,0.723,41.3946,-95.3597,688,19155,19155
Iowa,Jamaica,197,197,194.0,0.00510204,City,196,530,0.372,41.8454,-94.307,689,19049,19049
Iowa,Montour,196,196,201.0,-0.00507614,City,197,429,0.457,41.9803,-92.7151,690,19013,19013
Iowa,Ollie,196,196,200.0,-0.00507614,City,197,197,0.994,41.1992,-92.0923,691,19103,19103
Iowa,South English,196,196,203.0,-0.00507614,City,197,624,0.314,41.4522,-92.0903,692,19103,19103
Iowa,Dundee,194,194,194.0,0.0,City,194,616,0.315,42.5793,-91.5465,693,19113,19113
Iowa,Onslow,194,194,198.0,-0.0051282,City,195,1000,0.194,42.1068,-91.0151,694,19061,19061
Iowa,Rembrandt,194,194,211.0,-0.0152284,City,197,826,0.235,42.8257,-95.1656,695,19193,19193
Iowa,Stout,193,193,190.0,0.00520833,City,192,661,0.292,42.527,-92.7115,696,19013,19013
Iowa,Lineville,192,192,192.0,0.0,City,192,213,0.901,40.587,-93.5232,697,19181,19181
Iowa,Melvin,192,192,202.0,-0.0103093,City,194,1185,0.162,43.2865,-95.6086,698,19193,19193
Iowa,Portsmouth,191,191,186.0,0.00526316,City,190,622,0.307,41.6503,-95.5195,699,19155,19155
Iowa,Westgate,189,189,191.0,0.0,City,189,519,0.364,42.7683,-91.9957,700,19013,19013
Iowa,Magnolia,188,188,187.0,0.0,City,188,308,0.61,41.6927,-95.8741,701,19155,19155
Iowa,Oakville,187,187,199.0,-0.010582,City,189,448,0.417,41.098,-91.0438,702,19163,19163
Iowa,Parnell,186,186,193.0,-0.00534759,City,187,1051,0.177,41.5837,-92.0044,703,19103,19103
Iowa,Olds,184,184,191.0,-0.00540541,City,185,540,0.341,41.1343,-91.544,704,19103,19103
Iowa,Moorhead,183,183,197.0,-0.016129,City,186,779,0.235,41.9233,-95.8514,705,19155,19155
Iowa,Davis City,180,180,177.0,0.00558659,City,179,310,0.581,40.64,-93.8126,706,19181,19181
Iowa,Smithland,180,180,187.0,-0.00552486,City,181,561,0.321,42.2289,-95.9316,707,19193,19193
Iowa,Van Wert,180,180,177.0,0.00558659,City,179,506,0.356,40.8707,-93.7922,708,19181,19181
Iowa,Barnum,179,179,176.0,0.00561798,City,178,479,0.374,42.5062,-94.3657,709,19049,19049
Iowa,Decatur,179,179,176.0,0.00561798,City,178,474,0.378,40.7427,-93.8328,710,19181,19181
Iowa,Rake,179,179,186.0,-0.00555556,City,180,237,0.756,43.4806,-93.9197,711,19169,19169
Iowa,Oakland Acres,178,178,175.0,0.00564972,City,177,625,0.285,41.7209,-92.8199,712,19169,19169
Iowa,Prescott,178,178,190.0,-0.0111111,City,180,411,0.433,41.0236,-94.6128,713,19049,19049
Iowa,Woden,178,178,185.0,-0.00558659,City,179,361,0.493,43.2308,-93.9114,714,19169,19169
Iowa,Elberon,177,177,182.0,-0.00561798,City,178,270,0.655,42.0055,-92.3161,715,19013,19013
Iowa,Packwood,177,177,184.0,-0.00561798,City,178,236,0.749,41.1327,-92.0825,716,19103,19103
Iowa,Randolph,177,177,187.0,-0.0111732,City,179,590,0.3,40.8731,-95.5647,717,19155,19155
Iowa,Blairsburg,176,176,176.0,0.0,City,176,274,0.642,42.4784,-93.6428,718,19169,19169
Iowa,Soldier,176,176,185.0,-0.011236,City,178,568,0.31,41.9843,-95.7804,719,19155,19155
Iowa,Garden Grove,175,175,172.0,0.00574713,City,174,259,0.676,40.8267,-93.6069,720,19181,19181
Iowa,Lucas,175,175,172.0,0.00574713,City,174,178,0.982,41.0324,-93.4616,721,19181,19181
Iowa,Patterson,175,175,175.0,0.0,City,175,388,0.451,41.3484,-93.8776,722,19181,19181
Iowa,Thor,175,175,179.0,-0.00568182,City,176,176,0.995,42.6881,-94.0496,723,19169,19169
Iowa,Drakesville,174,174,164.0,0.0116279,City,172,713,0.244,40.7986,-92.4813,724,19181,19181
Iowa,Kamrar,172,172,181.0,-0.0114943,City,174,201,0.854,42.3896,-93.7279,725,19169,19169
Iowa,Little Sioux,172,172,167.0,0.00584795,City,171,459,0.375,41.8082,-96.0274,726,19155,19155
Iowa,Chapin,171,171,162.0,0.06875,CDP,160,1727,0.099,42.8353,-93.222,727,19169,19169
Iowa,Sherrill,171,171,183.0,-0.0115607,City,173,1295,0.132,42.6046,-90.7842,728,19061,19061
Iowa,Boxholm,169,169,178.0,-0.0116959,City,171,168,1.003,42.1736,-94.1061,729,19049,19049
Iowa,Center Junction,169,169,102.0,0.0696203,CDP,158,230,0.734,42.1141,-91.0903,730,19061,19061
Iowa,Coin,169,169,176.0,-0.00588235,City,170,189,0.894,40.6558,-95.2349,731,19155,19155
Iowa,Lambs Grove,168,168,170.0,0.0,City,168,1647,0.102,41.7008,-93.0793,732,19169,19169
Iowa,Stockton,168,168,177.0,-0.0117647,City,170,1541,0.109,41.5908,-90.8564,733,19163,19163
Iowa,College Springs,167,167,172.0,-0.00595238,City,168,149,1.121,40.6214,-95.121,734,19155,19155
Iowa,St. Lucas,167,167,167.0,0.0,City,167,657,0.254,43.0665,-91.9341,735,19013,19013
Iowa,Aurora,166,166,166.0,0.0,City,166,314,0.529,42.6194,-91.7295,736,19113,19113
Iowa,Moorland,165,165,170.0,-0.0060241,City,166,111,1.489,42.4415,-94.2954,737,19049,19049
Iowa,Mount Auburn,163,163,163.0,0.0,City,163,663,0.246,42.2573,-92.0939,738,19013,19013
Iowa,Thurman,162,162,164.0,0.0,City,162,287,0.565,40.8201,-95.7488,739,19155,19155
Iowa,Haverhill,161,161,166.0,-0.00617284,City,162,1158,0.139,41.9441,-92.9607,740,19169,19169
Iowa,Lidderdale,161,161,166.0,-0.00617284,City,162,67,2.414,42.1224,-94.7836,741,19049,19049
Iowa,Meriden,161,161,163.0,0.0,City,161,1425,0.113,42.7945,-95.6341,742,19193,19193
Iowa,Alexander,160,160,167.0,-0.00621118,City,161,37,4.268,42.8044,-93.4786,743,19169,19169
Iowa,Shambaugh,160,160,162.0,0.0,City,160,441,0.363,40.6575,-95.0353,744,19155,19155
Iowa,Garden City,159,159,150.0,0.0743243,CDP,148,159,0.997,42.2455,-93.3954,745,19169,19169
Iowa,Beaman,158,158,160.0,0.0,City,158,845,0.187,42.2201,-92.8216,746,19013,19013
Iowa,Hastings,158,158,155.0,0.00636943,City,157,385,0.41,41.0252,-95.4947,747,19155,19155
Iowa,Kirkville,157,157,156.0,0.0,City,157,279,0.563,41.1423,-92.5036,748,19103,19103
Iowa,Exline,156,156,161.0,-0.00636943,City,157,157,0.993,40.6491,-92.8432,749,19181,19181
Iowa,Gravity,156,156,153.0,0.00645161,City,155,464,0.336,40.7635,-94.7444,750,19155,19155
Iowa,Pilot Mound,156,156,161.0,-0.00636943,City,157,159,0.984,42.1592,-94.0183,751,19049,19049
Iowa,Reasnor,156,156,155.0,0.0,City,156,281,0.555,41.5789,-93.0229,752,19153,19153
Iowa,Rose Hill,155,155,160.0,-0.00641026,City,156,1092,0.142,41.3204,-92.4636,753,19103,19103
Iowa,Hillsboro,154,154,161.0,-0.00645161,City,155,266,0.579,40.8372,-91.7113,754,19103,19103
Iowa,Prairieburg,153,153,157.0,-0.00649351,City,154,342,0.448,42.2375,-91.4257,755,19113,19113
Iowa,Maysville,152,152,157.0,-0.00653595,City,153,555,0.274,41.6495,-90.7185,756,19163,19163
Iowa,Mount Union,152,152,135.0,0.0704225,CDP,142,899,0.169,41.0577,-91.3914,757,19103,19103
Iowa,Randall,152,152,156.0,-0.00653595,City,153,375,0.405,42.237,-93.6026,758,19169,19169
Iowa,Wallingford,151,151,163.0,-0.0130719,City,153,153,0.988,43.3203,-94.7922,759,19049,19049
Iowa,Barnes City,149,149,154.0,-0.00666667,City,150,253,0.588,41.507,-92.4695,760,19103,19103
Iowa,South Amana,149,149,111.0,-0.00666667,CDP,150,108,1.385,41.7704,-91.9599,761,19103,19103
Iowa,Linn Grove,148,148,162.0,-0.0198675,City,151,265,0.558,42.8939,-95.2436,762,19193,19193
Iowa,West Chester,148,148,145.0,0.00680272,City,147,585,0.253,41.34,-91.8169,763,19103,19103
Iowa,Dickens,147,147,146.0,0.0,City,147,176,0.835,43.1338,-95.0222,764,19193,19193
Iowa,Leighton,146,146,155.0,-0.0135135,City,148,1570,0.093,41.3388,-92.7863,765,19181,19181
Iowa,Springbrook,146,146,143.0,0.00689655,City,145,241,0.605,42.1657,-90.4791,766,19045,19045
Iowa,Oak Hills,145,145,129.0,0.0740741,CDP,135,128,1.13,40.7555,-91.1497,767,19103,19103
Iowa,Bridgewater,143,143,148.0,-0.00694444,City,144,497,0.288,41.2471,-94.6689,768,19049,19049
Iowa,Luther,143,143,148.0,-0.00694444,City,144,243,0.588,41.9669,-93.8176,769,19169,19169
Iowa,McClelland,143,143,147.0,-0.00694444,City,144,524,0.273,41.3316,-95.6814,770,19155,19155
Iowa,Rock Falls,142,142,149.0,-0.00699301,City,143,686,0.207,43.2071,-93.0868,771,19013,19013
Iowa,Panorama Park,141,141,141.0,0.0,City,141,2350,0.06,41.5557,-90.4538,772,19163,19163
Iowa,Henderson,140,140,140.0,0.0,City,140,1053,0.133,41.1399,-95.4303,773,19155,19155
Iowa,Lone Rock,140,140,147.0,-0.0070922,City,141,1207,0.116,43.2209,-94.3253,774,19169,19169
Iowa,Harris,139,139,151.0,-0.0141844,City,141,139,1.002,43.4451,-95.4372,775,19193,19193
Iowa,Weldon,139,139,136.0,0.00724638,City,138,716,0.194,40.8973,-93.735,776,19181,19181
Iowa,Calumet,138,138,145.0,-0.00719424,City,139,519,0.266,42.945,-95.5514,777,19193,19193
Iowa,Delaware,138,138,140.0,0.0,City,138,189,0.73,42.4721,-91.3383,778,19061,19061
Iowa,Goodell,138,138,142.0,-0.00719424,City,139,319,0.432,42.9238,-93.6141,779,19169,19169
Iowa,Webb,138,138,140.0,0.0,City,138,274,0.503,42.9498,-95.0129,780,19049,19049
Iowa,Woolstock,138,138,142.0,-0.00719424,City,139,132,1.047,42.5648,-93.8431,781,19169,19169
Iowa,Braddyville,137,137,142.0,-0.00724638,City,138,246,0.558,40.5806,-95.0312,782,19155,19155
Iowa,Millersburg,137,137,136.0,0.0,City,137,1123,0.122,41.5733,-92.1594,783,19103,19103
Iowa,Swaledale,136,136,143.0,-0.00729927,City,137,546,0.249,42.9765,-93.3155,784,19169,19169
Iowa,Westphalia,136,136,131.0,0.00740741,City,135,1388,0.098,41.7194,-95.3938,785,19155,19155
Iowa,Bristow,135,135,144.0,-0.0145985,City,137,144,0.939,42.7738,-92.9079,786,19013,19013
Iowa,Castalia,135,135,144.0,-0.0145985,City,137,234,0.578,43.1126,-91.6769,787,19013,19013
Iowa,Swedesburg,135,135,175.0,0.0714286,CDP,126,59,2.304,41.106,-91.5532,788,19103,19103
Iowa,Tingley,135,135,135.0,0.0,City,135,197,0.685,40.8528,-94.1957,789,19181,19181
Iowa,Woodburn,135,135,150.0,-0.0217391,City,138,214,0.631,41.0109,-93.5963,790,19181,19181
Iowa,Geneva,134,134,136.0,0.0,City,134,328,0.409,42.6748,-93.1298,791,19169,19169
Iowa,Houghton,134,134,139.0,-0.00740741,City,135,453,0.296,40.7837,-91.61,792,19103,19103
Iowa,Palmer,134,134,139.0,-0.00740741,City,135,317,0.423,42.6301,-94.5985,793,19049,19049
Iowa,Brayton,133,133,143.0,-0.0148148,City,135,306,0.435,41.5447,-94.9303,794,19155,19155
Iowa,Clare,133,133,140.0,-0.00746269,City,134,268,0.496,42.5874,-94.3444,795,19049,19049
Iowa,New Liberty,133,133,133.0,0.0,City,133,1400,0.095,41.716,-90.8778,796,19163,19163
Iowa,Chester,131,131,136.0,-0.00757576,City,132,95,1.383,43.4916,-92.364,797,19013,19013
Iowa,Clemons,131,131,136.0,-0.00757576,City,132,524,0.25,42.1139,-93.1587,798,19169,19169
Iowa,Percival,130,130,73.0,0.0743802,CDP,121,295,0.44,40.7513,-95.8133,799,19155,19155
Iowa,Brunsville,129,129,128.0,0.0,City,129,554,0.233,42.811,-96.2664,800,19193,19193
Iowa,Lowell,129,129,131.0,0.075,CDP,120,129,0.998,40.8343,-91.4386,801,19103,19103
Iowa,Monmouth,129,129,129.0,0.0,City,129,227,0.569,42.0751,-90.8822,802,19061,19061
Iowa,Williamson,129,129,118.0,0.015748,City,127,339,0.381,41.0882,-93.257,803,19181,19181
Iowa,Hamilton,128,128,125.0,0.00787401,City,127,253,0.506,41.1705,-92.9041,804,19181,19181
Iowa,Ayrshire,126,126,133.0,-0.00787401,City,127,583,0.216,43.0396,-94.834,805,19049,19049
Iowa,Blockton,126,126,123.0,0.008,City,125,197,0.638,40.6169,-94.4778,806,19049,19049
Iowa,Franklin,126,126,128.0,0.0,City,126,808,0.156,40.6668,-91.5118,807,19103,19103
Iowa,Sperry,126,126,225.0,0.0677966,CDP,118,56,2.237,40.962,-91.1641,808,19103,19103
Iowa,Welton,126,126,128.0,0.0,City,126,455,0.277,41.9079,-90.5969,809,19045,19045
Iowa,Searsboro,125,125,129.0,-0.00793651,City,126,277,0.451,41.5791,-92.7041,810,19181,19181
Iowa,Sun Valley Lake,124,124,188.0,-0.015873,CDP,126,60,2.052,40.8492,-94.0675,811,19181,19181
Iowa,Bouton,123,123,130.0,-0.00806452,City,124,1150,0.107,41.8512,-94.0106,812,19049,19049
Iowa,Havelock,123,123,128.0,-0.00806452,City,124,220,0.559,42.833,-94.701,813,19049,19049
Iowa,Larrabee,123,123,123.0,0.0,City,123,946,0.13,42.8615,-95.5447,814,19193,19193
Iowa,Superior,123,123,133.0,-0.016,City,125,287,0.429,43.4336,-94.9466,815,19193,19193
Iowa,Homestead,121,121,62.0,-0.00819672,CDP,122,93,1.302,41.7612,-91.8711,816,19103,19103
Iowa,East Peru,120,120,114.0,0.00840336,City,119,128,0.936,41.227,-93.9295,817,19181,19181
Iowa,Somers,120,120,127.0,-0.00826446,City,121,352,0.341,42.3787,-94.431,818,19049,19049
Iowa,Vincent,120,120,129.0,-0.0163934,City,122,462,0.26,42.5919,-94.0189,819,19169,19169
Iowa,Westfield,119,119,121.0,0.0,City,119,902,0.132,42.7562,-96.6055,820,19193,19193
Iowa,Yarmouth,119,119,73.0,0.0720721,CDP,111,70,1.711,41.0245,-91.3221,821,19103,19103
Iowa,McIntire,118,118,113.0,0.00854701,City,117,117,1.009,43.4359,-92.5936,822,19013,19013
Iowa,Ackworth,117,117,117.0,0.0,City,117,213,0.55,41.3642,-93.4723,823,19181,19181
Iowa,Centralia,117,117,116.0,0.0,City,117,188,0.621,42.4723,-90.8362,824,19061,19061
Iowa,Ledyard,117,117,122.0,-0.00847458,City,118,225,0.52,43.4192,-94.1593,825,19169,19169
Iowa,Lincoln,117,117,122.0,-0.00847458,City,118,209,0.561,42.2627,-92.6923,826,19013,19013
Iowa,Rowan,117,117,122.0,-0.00847458,City,118,225,0.521,42.7399,-93.5503,827,19169,19169
Iowa,St. Donatus,117,117,121.0,-0.00847458,City,118,313,0.374,42.3624,-90.5422,828,19061,19061
Iowa,Bernard,116,116,115.0,0.0,City,116,1247,0.093,42.3132,-90.8317,829,19061,19061
Iowa,Harper,115,115,117.0,0.0,City,115,1307,0.088,41.3637,-92.0509,830,19103,19103
Iowa,Rutland,115,115,117.0,0.0,City,115,128,0.899,42.7614,-94.2952,831,19169,19169
Iowa,Mitchell,114,114,123.0,-0.0172414,City,116,202,0.564,43.3202,-92.8711,832,19013,19013
Iowa,Weston,114,114,138.0,0.0754717,CDP,106,267,0.427,41.3423,-95.7448,833,19155,19155
Iowa,Floris,113,113,115.0,0.0,City,113,193,0.586,40.8645,-92.3326,834,19103,19103
Iowa,Archer,112,112,116.0,-0.00884956,City,113,1318,0.085,43.115,-95.7442,835,19193,19193
Iowa,Marne,112,112,109.0,0.00900901,City,111,200,0.561,41.4489,-95.1109,836,19155,19155
Iowa,St. Marys,112,112,117.0,-0.00884956,City,113,794,0.141,41.3077,-93.7338,837,19181,19181
Iowa,Waterville,112,112,109.0,0.00900901,City,111,316,0.354,43.2077,-91.2966,838,19061,19061
Iowa,Lanesboro,111,111,118.0,-0.00892857,City,112,149,0.743,42.1825,-94.6898,839,19049,19049
Iowa,Luzerne,111,111,111.0,0.0,City,111,841,0.132,41.9054,-92.1804,840,19013,19013
Iowa,Melrose,110,110,112.0,0.0,City,110,108,1.019,40.9791,-93.0508,841,19181,19181
Iowa,Rome,110,110,114.0,-0.00900901,City,111,887,0.124,40.9822,-91.6812,842,19103,19103
Iowa,North Buena Vista,109,109,106.0,0.00925926,City,108,117,0.928,42.6727,-90.9613,843,19061,19061
Iowa,Dawson,108,108,112.0,-0.00917431,City,109,218,0.495,41.8431,-94.2203,844,19049,19049
Iowa,Martinsburg,108,108,110.0,0.0,City,108,289,0.374,41.1788,-92.2519,845,19103,19103
Iowa,Keomah Village,107,107,111.0,-0.00925926,City,108,1698,0.063,41.2868,-92.5369,846,19103,19103
Iowa,Andover,106,106,108.0,0.0,City,106,592,0.179,41.9801,-90.2528,847,19045,19045
Iowa,North Washington,105,105,112.0,-0.00943396,City,106,517,0.203,43.1171,-92.4151,848,19013,19013
Iowa,Macksburg,103,103,97.0,0.00980392,City,102,52,1.983,41.2147,-94.1851,849,19049,19049
Iowa,St. Paul,103,103,108.0,-0.00961538,City,104,271,0.38,40.7678,-91.5164,850,19103,19103
Iowa,Douds,102,102,84.0,-0.0285714,CDP,105,46,2.212,40.8446,-92.0732,851,19103,19103
Iowa,Fraser,102,102,102.0,0.0,City,102,90,1.136,42.1272,-93.9742,852,19049,19049
Iowa,Pacific Junction,102,102,99.0,0.00990099,City,101,135,0.757,41.018,-95.7995,853,19155,19155
Iowa,Ricketts,102,102,109.0,-0.00970874,City,103,411,0.248,42.128,-95.5749,854,19155,19155
Iowa,Castana,101,101,105.0,-0.00980392,City,102,111,0.907,42.0734,-95.9104,855,19193,19193
Iowa,Cromwell,101,101,105.0,-0.00980392,City,102,338,0.299,41.0405,-94.4618,856,19049,19049
Iowa,Downey,101,101,87.0,0.0744681,CDP,94,150,0.675,41.6119,-91.3473,857,19103,19103
Iowa,St. Olaf,101,101,103.0,0.0,City,101,419,0.241,42.9268,-91.3877,858,19061,19061
Iowa,Toronto,100,100,102.0,0.0,City,100,549,0.182,41.9031,-90.8628,859,19045,19045
Iowa,Baldwin,99,99,101.0,0.0,City,99,261,0.38,42.0731,-90.8386,860,19045,19045
Iowa,Masonville,99,99,99.0,0.0,City,99,303,0.327,42.4798,-91.5915,861,19113,19113
Iowa,California Junction,98,98,40.0,0.0769231,CDP,91,213,0.461,41.5602,-95.9948,862,19155,19155
Iowa,Ferguson,98,98,98.0,0.0,City,98,383,0.256,41.9386,-92.8629,863,19169,19169
Iowa,Morrison,98,98,95.0,0.0103093,City,97,1032,0.095,42.343,-92.6733,864,19013,19013
Iowa,Westwood,97,97,104.0,-0.0102041,City,98,890,0.109,40.965,-91.6268,865,19103,19103
Iowa,Whitten,96,96,101.0,-0.0103093,City,97,193,0.497,42.2645,-93.0106,866,19169,19169
Iowa,Morley,94,94,94.0,0.0,City,94,1093,0.086,42.0061,-91.2459,867,19113,19113
Iowa,Webster,94,94,96.0,0.0,City,94,344,0.273,41.4385,-92.1717,868,19103,19103
Iowa,Arion,93,93,98.0,-0.0106383,City,94,188,0.496,41.9478,-95.4624,869,19155,19155
Iowa,Oyens,93,93,95.0,0.0,City,93,823,0.113,42.8198,-96.058,870,19193,19193
Iowa,Arispe,92,92,96.0,-0.0107527,City,93,183,0.502,40.949,-94.219,871,19049,19049
Iowa,Promise City,91,91,90.0,0.0,City,91,495,0.184,40.7476,-93.1483,872,19181,19181
Iowa,Sageville,91,91,96.0,-0.0108696,City,92,108,0.842,42.5495,-90.7064,873,19061,19061
Iowa,Wiota,91,91,91.0,0.0,City,91,304,0.299,41.4008,-94.8873,874,19155,19155
Iowa,Carpenter,90,90,89.0,0.0,City,90,256,0.351,43.4151,-93.0172,875,19013,19013
Iowa,Climbing Hill,89,89,86.0,0.0722892,CDP,83,69,1.281,42.3394,-96.0811,876,19193,19193
Iowa,Derby,89,89,88.0,0.0,City,89,349,0.255,40.9303,-93.4565,877,19181,19181
Iowa,Spragueville,89,89,91.0,0.0,City,89,120,0.744,42.0715,-90.4327,878,19045,19045
Iowa,Hartwick,88,88,92.0,-0.011236,City,89,557,0.158,41.7856,-92.3452,879,19013,19013
Iowa,Trenton,87,87,94.0,0.0609756,CDP,82,189,0.461,41.066,-91.6395,880,19103,19103
Iowa,High Amana,86,86,73.0,-0.0227273,CDP,88,225,0.383,41.8011,-91.9419,881,19103,19103
Iowa,Zwingle,86,86,86.0,0.0,City,86,528,0.163,42.2972,-90.6874,882,19061,19061
Iowa,Stanley,85,85,85.0,0.0,City,85,419,0.203,42.642,-91.8119,883,19013,19013
Iowa,Tennant,85,85,79.0,0.0119048,City,84,118,0.718,41.5941,-95.445,884,19155,19155
Iowa,Conroy,84,84,221.0,-0.125,CDP,96,110,0.762,41.7266,-91.9985,885,19103,19103
Iowa,St. Joseph,84,84,122.0,0.0769231,CDP,78,97,0.862,42.9123,-94.2309,886,19169,19169
Iowa,Stone City,84,84,60.0,-0.0869565,CDP,92,48,1.758,42.1054,-91.3502,887,19113,19113
Iowa,Cylinder,83,83,87.0,-0.0119048,City,84,883,0.094,43.0902,-94.5512,888,19049,19049
Iowa,Grant,82,82,86.0,-0.0120482,City,83,112,0.734,41.1433,-94.9842,889,19155,19155
Iowa,Hansell,81,81,83.0,0.0,City,81,360,0.225,42.7578,-93.1041,890,19169,19169
Iowa,Buckeye,80,80,84.0,-0.0123457,City,81,81,0.988,42.4195,-93.3758,891,19169,19169
Iowa,Balltown,79,79,79.0,0.0,City,79,1097,0.072,42.6372,-90.8698,892,19061,19061
Iowa,Chillicothe,79,79,76.0,0.0128205,City,78,350,0.226,41.0859,-92.5297,893,19181,19181
Iowa,Garber,78,78,80.0,0.0,City,78,347,0.225,42.7442,-91.2607,894,19061,19061
Iowa,Pleasant Plain,78,78,82.0,-0.0126582,City,79,77,1.013,41.1472,-91.8596,895,19103,19103
Iowa,Matlock,77,77,76.0,0.0,City,77,204,0.378,43.2443,-95.9344,896,19193,19193
Iowa,Scarville,77,77,79.0,0.0,City,77,316,0.244,43.471,-93.6184,897,19169,19169
Iowa,Swan,77,77,76.0,0.0,City,77,125,0.617,41.4676,-93.3095,898,19181,19181
Iowa,Kinross,76,76,78.0,0.0,City,76,402,0.189,41.4591,-91.9873,899,19103,19103
Iowa,Popejoy,76,76,78.0,0.0,City,76,101,0.752,42.5938,-93.4278,900,19169,19169
Iowa,St. Anthony,76,76,76.0,0.0,City,76,124,0.613,42.1235,-93.1975,901,19169,19169
Iowa,Craig,75,75,77.0,0.0,City,75,852,0.088,42.8955,-96.3096,902,19193,19193
Iowa,Graf,75,75,74.0,0.0,City,75,564,0.133,42.4939,-90.8732,903,19061,19061
Iowa,Ralston,75,75,79.0,-0.0131579,City,76,38,1.971,42.0419,-94.6293,904,19049,19049
Iowa,Chatsworth,74,74,74.0,0.0,City,74,149,0.497,42.9163,-96.5145,905,19193,19193
Iowa,Bradgate,73,73,75.0,0.0,City,73,140,0.523,42.803,-94.4206,906,19049,19049
Iowa,Unionville,73,73,75.0,0.0,City,73,97,0.752,40.8181,-92.6958,907,19181,19181
Iowa,New Haven,72,72,103.0,0.0588235,CDP,68,37,1.927,43.2839,-92.6422,908,19013,19013
Iowa,Augusta,71,71,47.0,0.0757576,CDP,66,95,0.749,40.7618,-91.2772,909,19103,19103
Iowa,Shannon City,71,71,73.0,0.0,City,71,172,0.412,40.8988,-94.2636,910,19049,19049
Iowa,Nodaway,70,70,77.0,-0.0140845,City,71,105,0.669,40.9361,-94.8974,911,19155,19155
Iowa,Sharpsburg,70,70,70.0,0.0,City,70,197,0.356,40.8045,-94.6381,912,19155,19155
Iowa,Willey,70,70,72.0,0.0,City,70,281,0.249,41.9788,-94.8224,913,19049,19049
Iowa,Numa,69,69,71.0,0.0,City,69,156,0.441,40.6856,-92.9801,914,19181,19181
Iowa,Greenville,68,68,68.0,0.0,City,68,410,0.166,43.017,-95.1461,915,19193,19193
Iowa,Irvington,68,68,41.0,0.0793651,CDP,63,67,1.012,43.0129,-94.1957,916,19169,19169
Iowa,Spring Hill,68,68,67.0,0.0,City,68,544,0.125,41.4122,-93.6501,917,19181,19181
Iowa,Turin,68,68,72.0,-0.0144928,City,69,756,0.09,42.0209,-95.9662,918,19193,19193
Iowa,Clio,67,67,66.0,0.0,City,67,90,0.747,40.636,-93.4514,919,19181,19181
Iowa,Duncan,67,67,102.0,-0.0694444,CDP,72,85,0.785,43.1082,-93.7021,920,19169,19169
Iowa,Orchard,67,67,66.0,0.0,City,67,663,0.101,43.2275,-92.7759,921,19013,19013
Iowa,Oto,67,67,71.0,-0.0147059,City,68,249,0.269,42.2822,-95.8946,922,19193,19193
Iowa,Struble,66,66,68.0,0.0,City,66,423,0.156,42.8944,-96.1945,923,19193,19193
Iowa,Varina,66,66,68.0,0.0,City,66,299,0.221,42.6586,-94.898,924,19049,19049
Iowa,Miller,65,65,30.0,0.0655738,CDP,61,31,2.065,43.1864,-93.6076,925,19169,19169
Iowa,Nemaha,65,65,67.0,0.0,City,65,774,0.084,42.5147,-95.0885,926,19155,19155
Iowa,Redding,64,64,63.0,0.0,City,64,65,0.989,40.6054,-94.382,927,19181,19181
Iowa,Dolliver,62,62,66.0,-0.015873,City,63,182,0.341,43.4636,-94.6143,928,19169,19169
Iowa,Bevington,61,61,55.0,0.0166667,City,60,135,0.451,41.3599,-93.7842,929,19181,19181
Iowa,Gray,61,61,61.0,0.0,City,61,61,0.996,41.8417,-94.9859,930,19155,19155
Iowa,Kirkman,61,61,58.0,0.0166667,City,60,237,0.257,41.7286,-95.2671,931,19155,19155
Iowa,Truesdale,61,61,66.0,-0.016129,City,62,418,0.146,42.7293,-95.1834,932,19193,19193
Iowa,Yorktown,61,61,63.0,0.0,City,61,225,0.271,40.7353,-95.1543,933,19155,19155
Iowa,Gruver,60,60,64.0,-0.0163934,City,61,472,0.127,43.3931,-94.7036,934,19169,19169
Iowa,Dougherty,59,59,63.0,-0.0166667,City,60,105,0.561,42.922,-93.0361,935,19013,19013
Iowa,Guernsey,59,59,63.0,-0.0166667,City,60,105,0.562,41.6506,-92.346,936,19103,19103
Iowa,Sandyville,59,59,58.0,0.0,City,59,119,0.495,41.3709,-93.3862,937,19181,19181
Iowa,West Amana,59,59,122.0,-0.078125,CDP,64,217,0.272,41.8085,-91.9655,938,19103,19103
Iowa,Aredale,58,58,60.0,0.0,City,58,58,1.002,42.8332,-93.0054,939,19013,19013
Iowa,Gibson,57,57,59.0,0.0,City,57,905,0.063,41.4803,-92.3922,940,19103,19103
Iowa,Plano,57,57,59.0,0.0,City,57,101,0.562,40.7556,-93.0469,941,19181,19181
Iowa,Colwell,56,56,58.0,0.0,City,56,339,0.165,43.1572,-92.5916,942,19013,19013
Iowa,St. Benedict,55,55,24.0,0.0784314,CDP,51,72,0.767,43.044,-94.061,943,19169,19169
Iowa,Anderson,54,54,45.0,0.08,CDP,50,164,0.329,40.7983,-95.6085,944,19155,19155
Iowa,Loveland,54,54,,0.08,CDP,50,1385,0.039,41.497,-95.8902,945,19155,19155
Iowa,Plover,53,53,53.0,0.0,City,53,95,0.56,42.8766,-94.6223,946,19049,19049
Iowa,Argyle,52,52,37.0,0.0612245,CDP,49,86,0.603,40.5358,-91.5677,947,19103,19103
Iowa,Hardy,52,52,54.0,0.0,City,52,116,0.45,42.8102,-94.0512,948,19169,19169
Iowa,Knierim,52,52,54.0,0.0,City,52,52,0.995,42.4563,-94.4559,949,19049,19049
Iowa,Northboro,51,51,53.0,0.0,City,51,201,0.254,40.6073,-95.2925,950,19155,19155
Iowa,Vining,51,51,53.0,0.0,City,51,92,0.553,41.991,-92.3873,951,19013,19013
Iowa,Little Cedar,49,49,27.0,0.0652174,CDP,46,92,0.533,43.3801,-92.7257,952,19013,19013
Iowa,Randalia,49,49,51.0,0.0,City,49,262,0.187,42.8634,-91.8867,953,19013,19013
Iowa,Watkins,49,49,84.0,-0.0925926,CDP,54,118,0.414,41.8931,-91.985,954,19113,19113
Iowa,Marysville,47,47,46.0,0.0,City,47,87,0.539,41.1808,-92.9538,955,19181,19181
Iowa,Rossie,47,47,47.0,0.0,City,47,326,0.144,43.0137,-95.1886,956,19193,19193
Iowa,Thayer,47,47,49.0,0.0,City,47,329,0.143,41.0287,-94.0499,957,19181,19181
Iowa,Thornburg,47,47,47.0,0.0,City,47,236,0.199,41.4558,-92.3323,958,19103,19103
Iowa,Clayton,46,46,46.0,0.0,City,46,89,0.514,42.9023,-91.1493,959,19061,19061
Iowa,East Amana,44,44,38.0,0.0731707,CDP,41,118,0.374,41.8086,-91.8527,960,19103,19103
Iowa,Hayesville,44,44,44.0,0.0,City,44,176,0.25,41.2648,-92.2478,961,19103,19103
Iowa,Kingston,44,44,13.0,0.0731707,CDP,41,25,1.772,40.9792,-91.0458,962,19163,19163
Iowa,Beaver,43,43,45.0,0.0,City,43,172,0.25,42.0383,-94.14,963,19049,19049
Iowa,Millerton,43,43,43.0,0.0,City,43,147,0.292,40.8499,-93.3066,964,19181,19181
Iowa,Osterdock,42,42,44.0,0.0,City,42,106,0.395,42.7313,-91.1587,965,19061,19061
Iowa,Bassett,41,41,43.0,0.0,City,41,105,0.392,43.0616,-92.5153,966,19013,19013
Iowa,Ottosen,41,41,41.0,0.0,City,41,84,0.486,42.8977,-94.376,967,19169,19169
Iowa,Rodney,41,41,45.0,-0.0238095,City,42,270,0.152,42.2045,-95.9507,968,19193,19193
Iowa,Benton,40,40,40.0,0.0,City,40,53,0.757,40.7043,-94.3599,969,19181,19181
Iowa,Jackson Junction,40,40,37.0,0.025641,City,39,7,5.957,43.1013,-92.0462,970,19013,19013
Iowa,Valeria,40,40,37.0,0.025641,City,39,816,0.049,41.7298,-93.3255,971,19153,19153
Iowa,Delphos,39,39,44.0,0.0833333,CDP,36,175,0.223,40.6632,-94.3396,972,19181,19181
Iowa,Curlew,38,38,40.0,0.0,City,38,51,0.75,42.9797,-94.7378,973,19049,19049
Iowa,Rathbun,38,38,40.0,0.0,City,38,178,0.214,40.8018,-92.8879,974,19181,19181
Iowa,Imogene,37,37,39.0,0.0,City,37,75,0.493,40.8777,-95.4292,975,19155,19155
Iowa,Cotter,36,36,38.0,0.0,City,36,367,0.098,41.2925,-91.462,976,19103,19103
Iowa,Coppock,35,35,37.0,0.0,City,35,152,0.231,41.1643,-91.7148,977,19103,19103
Iowa,Portland,35,35,27.0,0.0606061,CDP,33,35,0.992,43.1226,-93.1375,978,19013,19013
Iowa,Rinard,34,34,36.0,0.0,City,34,34,1.001,42.3396,-94.4849,979,19049,19049
Iowa,Aspinwall,33,33,35.0,0.0,City,33,188,0.176,41.9105,-95.135,980,19155,19155
Iowa,Buck Grove,33,33,35.0,0.0,City,33,89,0.369,41.9177,-95.3952,981,19155,19155
Iowa,Dana,33,33,35.0,0.0,City,33,117,0.281,42.1072,-94.2383,982,19049,19049
Iowa,Gillett Grove,32,32,32.0,0.0,City,32,144,0.222,43.0163,-95.0368,983,19193,19193
Iowa,Mona,32,32,39.0,0.0666667,CDP,30,14,2.275,43.486,-92.9534,984,19013,19013
Iowa,Pleasanton,30,30,30.0,0.0,City,30,85,0.351,40.5824,-93.7429,985,19181,19181
Iowa,Jolley,29,29,29.0,0.0,City,29,333,0.087,42.4794,-94.7191,986,19049,19049
Iowa,Otranto,29,29,,0.0740741,CDP,27,71,0.41,43.4609,-92.9863,987,19013,19013
Iowa,Owasa,29,29,31.0,0.0,City,29,52,0.563,42.4319,-93.2047,988,19169,19169
Iowa,Udell,29,29,31.0,0.0,City,29,103,0.281,40.7801,-92.7432,989,19181,19181
Iowa,Blanchard,28,28,30.0,0.0,City,28,139,0.201,40.5803,-95.2212,990,19155,19155
Iowa,Carbon,28,28,32.0,-0.0344828,City,29,37,0.75,41.0498,-94.8246,991,19155,19155
Iowa,Elkport,28,28,28.0,0.0,City,28,112,0.249,42.7418,-91.2748,992,19061,19061
Iowa,Rodman,28,28,30.0,0.0,City,28,192,0.146,43.0266,-94.5274,993,19049,19049
Iowa,Coburg,27,27,27.0,0.0,City,27,94,0.288,40.9186,-95.2655,994,19155,19155
Iowa,Rochester,27,27,97.0,-0.205882,CDP,34,28,0.952,41.6741,-91.1443,995,19103,19103
Iowa,Burchinal,26,26,20.0,0.0833333,CDP,24,338,0.077,43.0648,-93.2785,996,19169,19169
Iowa,Maloy,26,26,26.0,0.0,City,26,42,0.621,40.6706,-94.4096,997,19049,19049
Iowa,Toeterville,26,26,50.0,0.0833333,CDP,24,29,0.887,43.4401,-92.8879,998,19013,19013
Iowa,Hayfield,25,25,56.0,0.0869565,CDP,23,26,0.974,43.1786,-93.6948,999,19169,19169
Iowa,Bankston,22,22,24.0,0.0,City,22,81,0.271,42.5076,-90.9613,1000,19061,19061
Iowa,Ellston,21,21,21.0,0.0,City,21,84,0.249,40.8401,-94.1084,1001,19181,19181
Iowa,Galt,21,21,23.0,0.0,City,21,38,0.555,42.6935,-93.6046,1002,19169,19169
Iowa,Berkley,20,20,22.0,0.0,City,20,100,0.201,41.9465,-94.1136,1003,19049,19049
Iowa,Durango,20,20,22.0,0.0,City,20,263,0.076,42.562,-90.7754,1004,19061,19061
Iowa,Yetter,19,19,19.0,0.0,City,19,148,0.128,42.3161,-94.8432,1005,19049,19049
Iowa,Conway,16,16,16.0,0.0,City,16,72,0.221,40.749,-94.6193,1006,19155,19155
Iowa,Argo,15,15,,0.0714286,CDP,14,33,0.456,41.6258,-90.4341,1007,19163,19163
Iowa,Bartlett,15,15,8.0,0.0714286,CDP,14,38,0.4,40.8853,-95.7947,1008,19155,19155
Iowa,Beaconsfield,15,15,15.0,0.0,City,15,21,0.729,40.8072,-94.0508,1009,19181,19181
Iowa,Big Rock,15,15,34.0,0.0714286,CDP,14,45,0.33,41.7691,-90.8265,1010,19163,19163
Iowa,Roseville,15,15,,0.0714286,CDP,14,4,3.692,43.0253,-92.8082,1011,19013,19013
Iowa,Plainview,13,13,11.0,0.0833333,CDP,12,24,0.552,41.6672,-90.7801,1012,19163,19163
Iowa,Le Roy,12,12,12.0,0.0,City,12,32,0.38,40.8779,-93.5926,1013,19181,19181
Iowa,Bolan,10,10,10.0,0.111111,CDP,9,32,0.309,43.371,-93.119,1014,19013,19013
Iowa,Corley,8,8,7.0,0.142857,CDP,7,133,0.06,41.5777,-95.3306,1015,19155,19155
Iowa,River Sioux,6,6,40.0,0.0,CDP,6,16,0.381,41.8024,-96.048,1016,19155,19155
Iowa,Jacksonville,5,5,10.0,0.0,CDP,5,51,0.098,41.6451,-95.1517,1017,19155,19155
Iowa,Athelstan,4,4,4.0,0.0,CDP,4,31,0.13,40.5727,-94.5426,1018,19049,19049
Iowa,Frytown,2,2,47.0,-0.846154,CDP,13,2,0.81,41.5719,-91.7321,1019,19103,19103
