state,city,population,pop2025,pop2020,growth,type,pop2024,densityMi,areaMi,lat,lng,rank,fips_code,geo_id
Kansas,Wichita,394849,394849,398024.0,-0.00160563,City,395484,2423,162.941,37.6906,-97.3458,1,20173,20173
Kansas,Overland Park,196659,196659,197734.0,-0.00109207,City,196874,2615,75.218,38.889,-94.6906,2,20091,20091
Kansas,Olathe,151377,151377,141586.0,0.0131041,City,149419,2424,62.453,38.882,-94.8201,3,20091,20091
Kansas,Kansas City,150689,150689,156298.0,-0.00739077,City,151811,1208,124.737,39.1225,-94.7418,4,20209,20209
Kansas,Topeka,124833,124833,126437.0,-0.00256484,City,125154,2025,61.661,39.0347,-95.6948,5,20177,20177
Kansas,Lawrence,97057,97057,94931.0,0.00439813,City,96632,2834,34.252,38.96,-95.2629,6,20045,20045
Kansas,Shawnee,70731,70731,67446.0,0.0093758,City,70074,1685,41.975,39.0175,-94.8058,7,20209,20209
Kansas,Lenexa,59194,59194,57548.0,0.00558906,City,58865,1737,34.072,38.9653,-94.8039,8,20091,20091
Kansas,Manhattan,53364,53364,54158.0,-0.00297069,City,53523,2659,20.069,39.1883,-96.6059,9,20161,20161
Kansas,Salina,45090,45090,46844.0,-0.0077243,City,45441,1723,26.169,38.8131,-97.6145,10,20169,20169
Kansas,Hutchinson,39431,39431,40008.0,-0.002908,City,39546,1604,24.579,38.0673,-97.9095,11,20155,20155
Kansas,Leavenworth,36842,36842,37322.0,-0.00259895,City,36938,1513,24.355,39.3227,-94.925,12,20103,20103
Kansas,Leawood,34040,34040,33890.0,0.000882093,City,34010,2253,15.106,38.9073,-94.6252,13,20091,20091
Kansas,Dodge City,27366,27366,27735.0,-0.00269679,City,27440,1856,14.741,37.7607,-100.018,14,20057,20057
Kansas,Garden City,26934,26934,28026.0,-0.00802887,City,27152,2447,11.009,37.975,-100.851,15,20055,20055
Kansas,Gardner,26685,26685,23417.0,0.0251239,City,26031,2184,12.216,38.8115,-94.9292,16,20091,20091
Kansas,Derby,26580,26580,25712.0,0.00658941,City,26406,2553,10.412,37.5596,-97.2558,17,20173,20173
Kansas,Emporia,24113,24113,24093.0,0.000165913,City,24109,1958,12.315,38.4029,-96.1929,18,20111,20111
Kansas,Prairie Village,22856,22856,22966.0,-0.000961622,City,22878,3680,6.211,38.9868,-94.6362,19,20209,20209
Kansas,Junction City,21128,21128,22947.0,-0.0169365,City,21492,1830,11.545,39.0272,-96.8523,20,20061,20061
Kansas,Hays,20982,20982,21126.0,-0.00138023,City,21011,2428,8.643,38.8822,-99.3222,21,20051,20051
Kansas,Pittsburg,20424,20424,20623.0,-0.00195465,City,20464,1556,13.128,37.4126,-94.6983,22,20037,20037
Kansas,Liberal,18507,18507,19737.0,-0.0131179,City,18753,1540,12.019,37.0461,-100.928,23,20175,20175
Kansas,Newton,18040,18040,18567.0,-0.00578672,City,18145,1218,14.806,38.0377,-97.345,24,20079,20079
Kansas,Andover,16380,16380,14965.0,0.0175809,City,16097,1573,10.415,37.6872,-97.1308,25,20015,20015
Kansas,Great Bend,14154,14154,14699.0,-0.00764215,City,14263,1344,10.53,38.3598,-98.7995,26,20009,20009
Kansas,McPherson,13802,13802,14061.0,-0.00375343,City,13854,1686,8.188,38.3699,-97.6645,27,20113,20113
Kansas,El Dorado,12962,12962,12854.0,0.00170015,City,12940,1354,9.576,37.8216,-96.8622,28,20015,20015
Kansas,Ottawa,12718,12718,12638.0,0.00125964,City,12702,1232,10.321,38.6001,-95.2628,29,20059,20059
Kansas,Arkansas City,11632,11632,11964.0,-0.00564199,City,11698,1248,9.317,37.0725,-97.0384,30,20035,20035
Kansas,Winfield,11601,11601,11770.0,-0.00292222,City,11635,1041,11.144,37.2428,-96.9797,31,20035,20035
Kansas,Haysville,11262,11262,11277.0,-0.000266311,City,11265,2401,4.69,37.5661,-97.3535,32,20173,20173
Kansas,Lansing,11211,11211,11236.0,-0.000445791,City,11216,912,12.298,39.2426,-94.8963,33,20103,20103
Kansas,Spring Hill,10744,10744,8106.0,0.0516836,City,10216,1149,9.35,38.7567,-94.821,34,20091,20091
Kansas,Merriam,10709,10709,11123.0,-0.00769088,City,10792,2481,4.317,39.0176,-94.694,35,20209,20209
Kansas,Atchison,10535,10535,10872.0,-0.00631956,City,10602,1314,8.016,39.5626,-95.1366,36,20005,20005
Kansas,Bel Aire,10356,10356,8308.0,0.0412226,City,9946,1531,6.764,37.7759,-97.2466,37,20173,20173
Kansas,Mission,10058,10058,9948.0,0.00219211,City,10036,3770,2.668,39.0268,-94.657,38,20209,20209
Kansas,Augusta,9249,9249,9239.0,0.000216286,City,9247,2180,4.242,37.698,-96.9732,39,20015,20015
Kansas,Parsons,9206,9206,9595.0,-0.00840155,City,9284,866,10.631,37.334,-95.265,40,20099,20099
Kansas,Park City,9083,9083,8395.0,0.0154276,City,8945,904,10.045,37.8084,-97.3253,41,20173,20173
Kansas,Fort Riley,8839,8839,8720.0,0.00821261,CDP,8767,1379,6.411,39.1063,-96.8125,42,20061,20061
Kansas,Coffeyville,8414,8414,8803.0,-0.00918511,City,8492,889,9.469,37.0327,-95.6516,43,20125,20125
Kansas,Chanute,8284,8284,8744.0,-0.0109838,City,8376,1167,7.101,37.6697,-95.4642,44,20133,20133
Kansas,Basehor,8241,8241,6935.0,0.0327068,City,7980,1154,7.144,39.1353,-94.929,45,20209,20209
Kansas,Independence,8155,8155,8555.0,-0.00971463,City,8235,1063,7.669,37.2329,-95.7136,46,20125,20125
Kansas,Fort Scott,7581,7581,7540.0,0.00105638,City,7573,1358,5.583,37.828,-94.7041,47,20011,20011
Kansas,Wellington,7492,7492,7682.0,-0.00504648,City,7530,983,7.618,37.2781,-97.4067,48,20191,20191
Kansas,Bonner Springs,7487,7487,7822.0,-0.00886947,City,7554,479,15.629,39.0754,-94.8717,49,20209,20209
Kansas,Maize,7460,7460,5814.0,0.0461366,City,7131,761,9.799,37.7749,-97.4591,50,20173,20173
Kansas,Mulvane,7358,7358,6302.0,0.0295229,City,7147,1744,4.22,37.4765,-97.2354,51,20173,20173
Kansas,Valley Center,7336,7336,7363.0,-0.000681106,City,7341,1032,7.106,37.8336,-97.365,52,20173,20173
Kansas,De Soto,6798,6798,6150.0,0.0194961,City,6668,604,11.255,38.9723,-94.9511,53,20091,20091
Kansas,Roeland Park,6609,6609,6866.0,-0.00765766,City,6660,4080,1.62,39.0359,-94.6374,54,20209,20209
Kansas,Pratt,6516,6516,6590.0,-0.00229674,City,6531,845,7.712,37.6986,-98.7659,55,20151,20151
Kansas,Eudora,6503,6503,6410.0,0.00293029,City,6484,2149,3.026,38.9347,-95.0941,56,20045,20045
Kansas,Tonganoxie,6442,6442,5592.0,0.0271046,City,6272,1587,4.058,39.1079,-95.0791,57,20103,20103
Kansas,Abilene,6437,6437,6452.0,-0.000465838,City,6440,1333,4.83,38.9245,-97.228,58,20041,20041
Kansas,Goddard,6094,6094,5129.0,0.0327063,City,5901,1204,5.061,37.6718,-97.5597,59,20173,20173
Kansas,Paola,5795,5795,5757.0,0.00138241,City,5787,1094,5.299,38.5789,-94.8604,60,20121,20121
Kansas,Colby,5566,5566,5623.0,-0.00197239,City,5577,1520,3.661,39.3847,-101.045,61,20193,20193
Kansas,Ulysses,5512,5512,5771.0,-0.00934579,City,5564,1708,3.228,37.5773,-101.355,62,20067,20067
Kansas,Louisburg,5298,5298,4978.0,0.0122277,City,5234,1086,4.879,38.6205,-94.6771,63,20121,20121
Kansas,Iola,5264,5264,5398.0,-0.00510301,City,5291,1179,4.465,37.9274,-95.4007,64,20001,20001
Kansas,Baldwin City,5001,5001,4820.0,0.00725076,City,4965,1761,2.84,38.7775,-95.1875,65,20045,20045
Kansas,Concordia,4948,4948,5087.0,-0.00562701,City,4976,1099,4.504,39.5669,-97.6468,66,20029,20029
Kansas,Wamego,4847,4847,4844.0,0.000206355,City,4846,1838,2.637,39.2053,-96.3101,67,20149,20149
Kansas,Edwardsville,4596,4596,4708.0,-0.00476397,City,4618,509,9.038,39.0782,-94.8188,68,20209,20209
Kansas,Rose Hill,4427,4427,4189.0,0.0109614,City,4379,1962,2.256,37.5703,-97.136,69,20173,20173
Kansas,Russell,4407,4407,4389.0,0.000908471,City,4403,907,4.857,38.8875,-98.8514,70,20167,20167
Kansas,Goodland,4377,4377,4442.0,-0.00296127,City,4390,972,4.501,39.3485,-101.714,71,20181,20181
Kansas,Osawatomie,4235,4235,4250.0,-0.000707881,City,4238,806,5.252,38.4999,-94.9459,72,20121,20121
Kansas,Fairway,4150,4150,4169.0,-0.000962927,City,4154,3676,1.129,39.0245,-94.6287,73,20209,20209
Kansas,Clay Center,4026,4026,4196.0,-0.00837438,City,4060,1262,3.191,39.3812,-97.1274,74,20027,20027
Kansas,Lindsborg,3833,3833,3777.0,0.00287807,City,3822,2091,1.833,38.5771,-97.674,75,20113,20113
Kansas,Scott City,3815,3815,4105.0,-0.0149755,City,3873,1406,2.713,38.4789,-100.903,76,20171,20171
Kansas,Baxter Springs,3796,3796,3881.0,-0.00445843,City,3813,1205,3.149,37.02,-94.735,77,20021,20021
Kansas,Larned,3612,3612,3769.0,-0.00850947,City,3643,1499,2.41,38.1834,-99.1013,78,20145,20145
Kansas,Hugoton,3524,3524,3746.0,-0.0123318,City,3568,1694,2.08,37.1745,-101.345,79,20189,20189
Kansas,Mission Hills,3482,3482,3589.0,-0.00599486,City,3503,1709,2.037,39.014,-94.6176,80,20209,20209
Kansas,Hesston,3457,3457,3497.0,-0.0023088,City,3465,970,3.565,38.1401,-97.427,81,20079,20079
Kansas,Lyons,3432,3432,3596.0,-0.00952381,City,3465,1293,2.654,38.3461,-98.2047,82,20159,20159
Kansas,Marysville,3383,3383,3437.0,-0.00324101,City,3394,742,4.562,39.8437,-96.6389,83,20117,20117
Kansas,Holton,3370,3370,3400.0,-0.00177725,City,3376,1259,2.676,39.4699,-95.7326,84,20085,20085
Kansas,Frontenac,3364,3364,3383.0,-0.00118765,City,3368,632,5.32,37.4588,-94.7008,85,20037,20037
Kansas,Beloit,3334,3334,3394.0,-0.00358637,City,3346,851,3.917,39.4647,-98.1083,86,20123,20123
Kansas,Ellsworth,3176,3176,3068.0,0.00697527,City,3154,1327,2.393,38.7326,-98.2286,87,20053,20053
Kansas,Garnett,3168,3168,3240.0,-0.00439975,City,3182,1028,3.082,38.2859,-95.2412,88,20003,20003
Kansas,Hiawatha,3141,3141,3263.0,-0.00758294,City,3165,1212,2.591,39.8517,-95.538,89,20013,20013
Kansas,Oaklawn-Sunview,2911,2911,3354.0,-0.00817717,CDP,2935,5421,0.537,37.6084,-97.2985,90,20173,20173
Kansas,Columbus,2840,2840,2914.0,-0.00525394,City,2855,1167,2.433,37.1716,-94.8441,91,20021,20021
Kansas,Osage City,2787,2787,2854.0,-0.00464286,City,2800,885,3.149,38.6341,-95.821,92,20139,20139
Kansas,Kingman,2759,2759,3086.0,-0.023017,City,2824,768,3.591,37.6477,-98.116,93,20095,20095
Kansas,Galena,2748,2748,2758.0,-0.000727272,City,2750,597,4.603,37.0752,-94.6355,94,20021,20021
Kansas,St. Marys,2747,2747,2749.0,0.0,City,2747,2332,1.178,39.1942,-96.0642,95,20149,20149
Kansas,Hillsboro,2660,2660,2730.0,-0.0052356,City,2674,1090,2.44,38.3527,-97.1996,96,20115,20115
Kansas,Clearwater,2629,2629,2661.0,-0.00227704,City,2635,1341,1.961,37.51,-97.4975,97,20173,20173
Kansas,Norton,2626,2626,2751.0,-0.0094304,City,2651,1376,1.908,39.8362,-99.8916,98,20137,20137
Kansas,Hoisington,2568,2568,2690.0,-0.00925926,City,2592,2214,1.16,38.5181,-98.7774,99,20009,20009
Kansas,Burlington,2563,2563,2637.0,-0.00581846,City,2578,1139,2.251,38.1933,-95.7454,100,20031,20031
Kansas,South Hutchinson,2497,2497,2519.0,-0.00159936,City,2501,878,2.843,38.0231,-97.9448,101,20155,20155
Kansas,Kechi,2470,2470,2245.0,0.0185567,City,2425,410,6.026,37.7948,-97.2665,102,20173,20173
Kansas,Sabetha,2463,2463,2538.0,-0.00605327,City,2478,739,3.331,39.9102,-95.7928,103,20013,20013
Kansas,Girard,2451,2451,2486.0,-0.00284784,City,2458,1050,2.334,37.5089,-94.8455,104,20037,20037
Kansas,Sterling,2295,2295,2245.0,0.00437637,City,2285,1231,1.865,38.2093,-98.2065,105,20159,20159
Kansas,Eureka,2231,2231,2313.0,-0.00712061,City,2247,974,2.29,37.826,-96.289,106,20073,20073
Kansas,Phillipsburg,2182,2182,2337.0,-0.0140081,City,2213,1282,1.702,39.7512,-99.321,107,20147,20147
Kansas,Holcomb,2156,2156,2240.0,-0.00782328,City,2173,1743,1.237,37.986,-100.994,108,20055,20055
Kansas,Neodesha,2154,2154,2259.0,-0.00965517,City,2175,1533,1.405,37.4242,-95.6846,109,20205,20205
Kansas,Cheney,2146,2146,2181.0,-0.00325128,City,2153,926,2.318,37.6353,-97.7797,110,20173,20173
Kansas,Seneca,2143,2143,2140.0,0.000466853,City,2142,1199,1.788,39.838,-96.0696,111,20131,20131
Kansas,Council Grove,2120,2120,2132.0,-0.000942507,City,2122,993,2.135,38.6632,-96.4918,112,20127,20127
Kansas,Halstead,2114,2114,2174.0,-0.0056444,City,2126,1434,1.474,38.0018,-97.5085,113,20079,20079
Kansas,McConnell AFB,2096,2096,1898.0,0.0106075,CDP,2074,505,4.148,37.6344,-97.2585,114,20173,20173
Kansas,Cherryvale,2092,2092,2182.0,-0.0085308,City,2110,1044,2.004,37.2691,-95.5534,115,20125,20125
Kansas,Herington,2092,2092,2107.0,-0.00143198,City,2095,429,4.878,38.6969,-96.8072,116,20127,20127
Kansas,Lakin,2068,2068,2200.0,-0.0124164,City,2094,2186,0.946,37.94,-101.258,117,20093,20093
Kansas,Anthony,2052,2052,2094.0,-0.00388349,City,2060,637,3.222,37.1585,-98.0428,118,20077,20077
Kansas,Fredonia,2028,2028,2140.0,-0.0107317,City,2050,831,2.439,37.5331,-95.8223,119,20205,20205
Kansas,Cimarron,2006,2006,1976.0,0.003,City,2000,1741,1.152,37.8097,-100.345,120,20069,20069
Kansas,Belleville,1979,1979,1999.0,-0.00201715,City,1983,963,2.056,39.8243,-97.6339,121,20157,20157
Kansas,Oakley,1946,1946,2035.0,-0.00916497,City,1964,1012,1.923,39.1235,-100.845,122,20109,20109
Kansas,Moundridge,1945,1945,1970.0,-0.0025641,City,1950,1240,1.569,38.2019,-97.5148,123,20113,20113
Kansas,Minneapolis,1933,1933,1940.0,-0.000517063,City,1934,1055,1.833,39.1243,-97.6997,124,20143,20143
Kansas,Ellinwood,1926,1926,2010.0,-0.00874936,City,1943,1427,1.35,38.3573,-98.5838,125,20009,20009
Kansas,Wellsville,1918,1918,1947.0,-0.0031185,City,1924,1116,1.719,38.7177,-95.0779,126,20121,20121
Kansas,Ellis,1895,1895,1960.0,-0.00681342,City,1908,1144,1.657,38.9347,-99.5568,127,20051,20051
Kansas,Marion,1883,1883,1920.0,-0.0037037,City,1890,683,2.758,38.3533,-97.0078,128,20115,20115
Kansas,Humboldt,1796,1796,1846.0,-0.0055371,City,1806,1176,1.527,37.8124,-95.4361,129,20001,20001
Kansas,North Newton,1771,1771,1810.0,-0.00449691,City,1779,1942,0.912,38.0776,-97.3463,130,20079,20079
Kansas,Elkhart,1743,1743,1885.0,-0.0158103,City,1771,849,2.054,37.0038,-101.894,131,20129,20129
Kansas,Syracuse,1740,1740,1807.0,-0.00741586,City,1753,424,4.1,37.9536,-101.797,132,20075,20075
Kansas,WaKeeney,1714,1714,1791.0,-0.00867553,City,1729,961,1.783,39.0234,-99.8815,133,20195,20195
Kansas,Westwood,1703,1703,1748.0,-0.00525701,City,1712,4144,0.411,39.0394,-94.6156,134,20209,20209
Kansas,Caney,1698,1698,1783.0,-0.00991254,City,1715,1256,1.352,37.0136,-95.9319,135,20125,20125
Kansas,Edgerton,1693,1693,1755.0,-0.00703812,City,1705,199,8.508,38.7908,-94.9436,136,20091,20091
Kansas,Plainville,1672,1672,1737.0,-0.00771513,City,1685,1398,1.196,39.2341,-99.3008,137,20163,20163
Kansas,Medicine Lodge,1670,1670,1762.0,-0.0106635,City,1688,1394,1.198,37.2851,-98.5812,138,20007,20007
Kansas,Oswego,1616,1616,1668.0,-0.00615006,City,1626,672,2.405,37.1676,-95.1121,139,20099,20099
Kansas,Ogden,1601,1601,1668.0,-0.00805452,City,1614,957,1.673,39.1109,-96.7024,140,20061,20061
Kansas,Smith Center,1594,1594,1571.0,0.00314663,City,1589,1297,1.229,39.7739,-98.7835,141,20183,20183
Kansas,Oberlin,1585,1585,1634.0,-0.00626959,City,1595,830,1.91,39.823,-100.531,142,20039,20039
Kansas,Grandview Plaza,1582,1582,1701.0,-0.014944,City,1606,1868,0.847,39.0328,-96.7928,143,20061,20061
Kansas,Sedgwick,1568,1568,1600.0,-0.00381194,City,1574,960,1.634,37.9181,-97.4202,144,20079,20079
Kansas,Douglass,1537,1537,1549.0,-0.00129955,City,1539,1447,1.062,37.5169,-97.0105,145,20015,20015
Kansas,Horton,1453,1453,1520.0,-0.00886767,City,1466,820,1.773,39.6638,-95.5325,146,20013,20013
Kansas,Colwich,1445,1445,1464.0,-0.00276052,City,1449,1082,1.335,37.7818,-97.5363,147,20173,20173
Kansas,Belle Plaine,1441,1441,1468.0,-0.00345781,City,1446,1736,0.83,37.3934,-97.2795,148,20191,20191
Kansas,Towanda,1435,1435,1445.0,-0.00139179,City,1437,1570,0.914,37.7925,-96.9931,149,20015,20015
Kansas,Stockton,1415,1415,1472.0,-0.00771388,City,1426,855,1.655,39.4251,-99.2764,150,20163,20163
Kansas,Leoti,1403,1403,1475.0,-0.00988003,City,1417,1066,1.316,38.4834,-101.358,151,20203,20203
Kansas,Meade,1400,1400,1504.0,-0.0147783,City,1421,956,1.464,37.2836,-100.343,152,20119,20119
Kansas,Hill City,1374,1374,1401.0,-0.00362582,City,1379,817,1.681,39.3687,-99.8405,153,20065,20065
Kansas,Chapman,1369,1369,1376.0,-0.000729927,City,1370,1467,0.933,38.9744,-97.0233,154,20041,20041
Kansas,Arma,1368,1368,1408.0,-0.00581395,City,1376,1206,1.134,37.5428,-94.7018,155,20037,20037
Kansas,Kinsley,1319,1319,1446.0,-0.0186012,City,1344,1018,1.296,37.9224,-99.4114,156,20047,20047
Kansas,Sublette,1317,1317,1404.0,-0.0127436,City,1334,1254,1.05,37.4822,-100.846,157,20081,20081
Kansas,Yates Center,1315,1315,1344.0,-0.00454201,City,1321,520,2.528,37.8675,-95.7548,158,20207,20207
Kansas,Buhler,1311,1311,1320.0,-0.00152323,City,1313,1831,0.716,38.1384,-97.7706,159,20113,20113
Kansas,Inman,1307,1307,1339.0,-0.00456969,City,1313,1632,0.801,38.2324,-97.7722,160,20113,20113
Kansas,Harper,1300,1300,1310.0,-0.0015361,City,1302,801,1.623,37.2851,-98.0276,161,20077,20077
Kansas,Carbondale,1298,1298,1348.0,-0.00764526,City,1308,1776,0.731,38.8218,-95.6932,162,20139,20139
Kansas,Silver Lake,1296,1296,1343.0,-0.00689655,City,1305,2302,0.563,39.0998,-95.8567,163,20177,20177
Kansas,Ness City,1291,1291,1340.0,-0.0076864,City,1301,887,1.455,38.4541,-99.9047,164,20135,20135
Kansas,Osborne,1289,1289,1324.0,-0.00540123,City,1296,838,1.539,39.4405,-98.6995,165,20141,20141
Kansas,St. Francis,1280,1280,1270.0,0.00156494,City,1278,1494,0.857,39.7715,-101.801,166,20023,20023
Kansas,Auburn,1257,1257,1267.0,-0.00158856,City,1259,1806,0.696,38.9078,-95.8156,167,20177,20177
Kansas,Wathena,1252,1252,1244.0,0.0016,City,1250,535,2.342,39.7611,-94.9275,168,20043,20043
Kansas,Johnson City,1248,1248,1462.0,-0.0333075,City,1291,583,2.142,37.5704,-101.745,169,20187,20187
Kansas,Atwood,1207,1207,1294.0,-0.0138889,City,1224,1135,1.063,39.8099,-101.042,170,20153,20153
Kansas,Pleasanton,1190,1190,1212.0,-0.00335008,City,1194,549,2.168,38.1779,-94.7053,171,20107,20107
Kansas,Hoxie,1188,1188,1212.0,-0.00419111,City,1193,1381,0.86,39.3558,-100.44,172,20179,20179
Kansas,Linn Valley,1188,1188,962.0,0.0393701,City,1143,402,2.958,38.3754,-94.7109,173,20107,20107
Kansas,La Crosse,1180,1180,1252.0,-0.0117253,City,1194,1139,1.036,38.5318,-99.3095,174,20165,20165
Kansas,Haven,1169,1169,1166.0,0.000856164,City,1168,1505,0.777,37.9016,-97.7831,175,20155,20155
Kansas,St. George,1162,1162,1062.0,0.0175131,City,1142,1802,0.645,39.1926,-96.4183,176,20149,20149
Kansas,Lincoln Center,1146,1146,1168.0,-0.00347826,City,1150,915,1.252,39.043,-98.1467,177,20105,20105
Kansas,St. John,1137,1137,1221.0,-0.0147314,City,1154,585,1.944,38.0,-98.7611,178,20185,20185
Kansas,Conway Springs,1133,1133,1093.0,0.00711111,City,1125,1148,0.987,37.3899,-97.6429,179,20191,20191
Kansas,Elwood,1126,1126,1115.0,0.00177936,City,1124,387,2.91,39.7515,-94.8934,180,20043,20043
Kansas,Victoria,1100,1100,1129.0,-0.00542495,City,1106,1836,0.599,38.8538,-99.1474,181,20051,20051
Kansas,Rossville,1076,1076,1110.0,-0.00646353,City,1083,1942,0.554,39.1358,-95.9496,182,20177,20177
Kansas,Oskaloosa,1068,1068,1097.0,-0.00558659,City,1074,1074,0.994,39.216,-95.3147,183,20087,20087
Kansas,Valley Falls,1064,1064,1091.0,-0.00467727,City,1069,1511,0.704,39.3393,-95.4612,184,20087,20087
Kansas,Washington,1060,1060,1072.0,-0.00188324,City,1062,1091,0.972,39.8158,-97.0484,185,20201,20201
Kansas,Nickerson,1045,1045,1064.0,-0.00381315,City,1049,807,1.295,38.1489,-98.0883,186,20155,20155
Kansas,Oxford,1040,1040,1044.0,-0.000960614,City,1041,1148,0.906,37.2737,-97.1693,187,20191,20191
Kansas,Lyndon,1039,1039,1039.0,0.0,City,1039,1165,0.892,38.6119,-95.6844,188,20139,20139
Kansas,Altamont,1032,1032,1069.0,-0.00673725,City,1039,524,1.97,37.1854,-95.2918,189,20099,20099
Kansas,La Cygne,1030,1030,1042.0,-0.00193798,City,1032,674,1.528,38.3478,-94.7618,190,20107,20107
Kansas,Satanta,1027,1027,1096.0,-0.0134486,City,1041,1667,0.616,37.4378,-100.988,191,20081,20081
Kansas,Lake Quivira,1014,1014,1014.0,0.0,City,1014,687,1.476,39.0402,-94.7685,192,20209,20209
Kansas,Solomon,1006,1006,991.0,0.00299103,City,1003,1168,0.861,38.9215,-97.3692,193,20041,20041
Kansas,Plains,1001,1001,1040.0,-0.00792864,City,1009,1002,0.999,37.2642,-100.59,194,20119,20119
Kansas,Erie,998,998,1050.0,-0.00992063,City,1008,788,1.267,37.5717,-95.2418,195,20133,20133
Kansas,Caldwell,996,996,1026.0,-0.00598802,City,1002,921,1.081,37.0349,-97.6088,196,20191,20191
Kansas,Sedan,979,979,1004.0,-0.0050813,City,984,1191,0.822,37.1285,-96.1848,197,20019,20019
Kansas,Montezuma,978,978,972.0,0.00102354,City,977,964,1.015,37.5924,-100.45,198,20069,20069
Kansas,Overbrook,970,970,1004.0,-0.00716479,City,977,1783,0.544,38.7794,-95.557,199,20139,20139
Kansas,Troy,970,970,959.0,0.00206611,City,968,995,0.975,39.7852,-95.0941,200,20043,20043
Kansas,Vassar,970,970,865.0,0.0308183,CDP,941,200,4.862,38.6486,-95.61,201,20139,20139
Kansas,Wilroads Gardens,969,969,703.0,0.0253968,CDP,945,430,2.253,37.7153,-99.9268,202,20057,20057
Kansas,Quinter,956,956,935.0,0.00420168,City,952,951,1.005,39.0666,-100.235,203,20063,20063
Kansas,Garden Plain,954,954,948.0,0.00104932,City,953,846,1.127,37.6623,-97.6773,204,20173,20173
Kansas,Benton,945,945,944.0,0.0,City,945,676,1.398,37.7881,-97.1077,205,20015,20015
Kansas,Burlingame,945,945,969.0,-0.00526316,City,950,1069,0.884,38.7519,-95.8358,206,20139,20139
Kansas,Highland,926,926,916.0,0.0021645,City,924,1734,0.534,39.8604,-95.2653,207,20043,20043
Kansas,Andale,922,922,937.0,-0.00324324,City,925,1550,0.595,37.7913,-97.6274,208,20173,20173
Kansas,Blue Rapids,921,921,928.0,-0.0010846,City,922,464,1.985,39.6784,-96.6589,209,20117,20117
Kansas,Dighton,921,921,963.0,-0.00861141,City,929,1062,0.867,38.481,-100.466,210,20101,20101
Kansas,Riley,919,919,943.0,-0.00541126,City,924,1809,0.508,39.2992,-96.8278,211,20161,20161
Kansas,Peabody,908,908,938.0,-0.00656455,City,914,717,1.266,38.1683,-97.1043,212,20115,20115
Kansas,Stafford,903,903,957.0,-0.012035,City,914,987,0.915,37.9624,-98.5993,213,20185,20185
Kansas,Chetopa,896,896,933.0,-0.00775194,City,903,657,1.364,37.0374,-95.0922,214,20099,20099
Kansas,Pomona,892,892,887.0,0.00112233,City,891,945,0.944,38.6112,-95.4544,215,20059,20059
Kansas,Franklin,874,874,617.0,0.0404762,CDP,840,511,1.709,37.52,-94.6964,216,20037,20037
Kansas,Lebo,867,867,887.0,-0.00459242,City,871,906,0.957,38.4162,-95.8625,217,20031,20031
Kansas,Cottonwood Falls,858,858,848.0,0.00233645,City,856,1332,0.644,38.3682,-96.5428,218,20017,20017
Kansas,Kiowa,850,850,897.0,-0.0104773,City,859,767,1.108,37.0174,-98.4848,219,20007,20007
Kansas,Perry,849,849,853.0,-0.00117647,City,850,1134,0.749,39.0739,-95.3875,220,20087,20087
Kansas,Alma,832,832,807.0,0.00604595,City,827,1422,0.585,39.0157,-96.2871,221,20197,20197
Kansas,Wakefield,831,831,861.0,-0.00716846,City,837,1672,0.497,39.2164,-97.0188,222,20027,20027
Kansas,Burrton,829,829,863.0,-0.0083732,City,836,935,0.887,38.0237,-97.6715,223,20079,20079
Kansas,Wilson,826,826,853.0,-0.00601685,City,831,1381,0.598,38.8253,-98.4749,224,20167,20167
Kansas,McLouth,821,821,855.0,-0.00845411,City,828,1425,0.576,39.1964,-95.2086,225,20087,20087
Kansas,Galva,820,820,842.0,-0.00485437,City,824,1643,0.499,38.3836,-97.5381,226,20113,20113
Kansas,Mount Hope,798,798,803.0,-0.00125156,City,799,544,1.467,37.8726,-97.6552,227,20173,20173
Kansas,Mankato,797,797,836.0,-0.00993789,City,805,817,0.975,39.7873,-98.2083,228,20089,20089
Kansas,Spearville,781,781,791.0,-0.00255428,City,783,1244,0.628,37.8481,-99.7547,229,20057,20057
Kansas,Downs,780,780,804.0,-0.00636943,City,785,696,1.12,39.5046,-98.5473,230,20141,20141
Kansas,Americus,769,769,776.0,-0.0012987,City,770,710,1.083,38.5064,-96.2613,231,20111,20111
Kansas,Sharon Springs,750,750,752.0,0.0,City,750,831,0.903,38.8943,-101.751,232,20199,20199
Kansas,Eastborough,733,733,757.0,-0.00677507,City,738,1904,0.385,37.6846,-97.2586,233,20173,20173
Kansas,Westmoreland,721,721,725.0,-0.00138504,City,722,1465,0.492,39.3942,-96.4137,234,20149,20149
Kansas,Jetmore,715,715,777.0,-0.0165062,City,727,170,4.21,37.9866,-99.8847,235,20083,20083
Kansas,Frankfort,712,712,724.0,-0.00280112,City,714,707,1.007,39.7041,-96.4178,236,20117,20117
Kansas,Meriden,712,712,744.0,-0.00835655,City,718,926,0.769,39.1895,-95.5681,237,20087,20087
Kansas,Enterprise,707,707,714.0,-0.00141243,City,708,1055,0.67,38.9034,-97.1164,238,20041,20041
Kansas,Bucklin,693,693,725.0,-0.00858369,City,699,1205,0.575,37.5486,-99.6344,239,20057,20057
Kansas,Greensburg,688,688,727.0,-0.0114943,City,696,385,1.789,37.6049,-99.2896,240,20097,20097
Kansas,Ashland,686,686,780.0,-0.0269504,City,705,406,1.691,37.1867,-99.7697,241,20025,20025
Kansas,Hanover,686,686,691.0,-0.0014556,City,687,1145,0.599,39.8932,-96.8751,242,20201,20201
Kansas,Riverton,679,679,893.0,-0.0244253,CDP,696,302,2.245,37.0732,-94.707,243,20021,20021
Kansas,Tribune,677,677,767.0,-0.0258993,City,695,912,0.742,38.472,-101.755,244,20071,20071
Kansas,Clyde,673,673,693.0,-0.00590842,City,677,1000,0.673,39.5918,-97.4002,245,20029,20029
Kansas,Onaga,671,671,680.0,-0.00297177,City,673,1023,0.656,39.4893,-96.1702,246,20149,20149
Kansas,Deerfield,668,668,705.0,-0.0103704,City,675,1389,0.481,37.9819,-101.133,247,20093,20093
Kansas,Coldwater,667,667,681.0,-0.00447761,City,670,260,2.562,37.2675,-99.3234,248,20033,20033
Kansas,Leon,666,666,656.0,0.00301205,City,664,921,0.723,37.6897,-96.7838,249,20015,20015
Kansas,Whitewater,666,666,660.0,0.00150376,City,665,1620,0.411,37.9636,-97.146,250,20079,20079
Kansas,Minneola,661,661,736.0,-0.0221893,City,676,1440,0.459,37.442,-100.013,251,20057,20057
Kansas,Madison,656,656,686.0,-0.00906344,City,662,1123,0.584,38.1336,-96.1372,252,20073,20073
Kansas,Bennington,655,655,620.0,0.0108025,City,648,1560,0.42,39.0331,-97.5932,253,20143,20143
Kansas,Canton,652,652,684.0,-0.00911854,City,658,1312,0.497,38.3859,-97.4301,254,20113,20113
Kansas,Pretty Prairie,649,649,658.0,-0.0030722,City,651,1127,0.576,37.7801,-98.0225,255,20155,20155
Kansas,Haviland,647,647,681.0,-0.0107034,City,654,1315,0.492,37.6174,-99.1058,256,20097,20097
Kansas,Waterville,646,646,660.0,-0.0046225,City,649,1313,0.492,39.6917,-96.7468,257,20117,20117
Kansas,Mound City,643,643,647.0,-0.00155279,City,644,556,1.156,38.1395,-94.8212,258,20107,20107
Kansas,Scranton,642,642,649.0,-0.00155521,City,643,596,1.077,38.778,-95.7411,259,20139,20139
Kansas,Maple Hill,636,636,631.0,0.0015748,City,635,2617,0.243,39.0854,-96.028,260,20177,20177
Kansas,Udall,632,632,661.0,-0.00940439,City,638,1160,0.545,37.389,-97.1177,261,20035,20035
Kansas,Ozawkie,621,621,635.0,-0.00480769,City,624,2091,0.297,39.2353,-95.4658,262,20087,20087
Kansas,Lecompton,597,597,592.0,0.00167785,City,596,340,1.756,39.0259,-95.395,263,20045,20045
Kansas,St. Paul,595,595,614.0,-0.0066778,City,599,527,1.128,37.5184,-95.1741,264,20133,20133
Kansas,Hoyt,594,594,596.0,0.0,City,594,1267,0.469,39.2494,-95.7079,265,20085,20085
Kansas,Cherokee,589,589,589.0,0.0,City,589,823,0.716,37.345,-94.8213,266,20037,20037
Kansas,Marquette,585,585,602.0,-0.00510204,City,588,1214,0.482,38.5558,-97.8344,267,20113,20113
Kansas,Nortonville,585,585,600.0,-0.00510204,City,588,1354,0.432,39.4154,-95.33,268,20005,20005
Kansas,Bentley,580,580,560.0,0.00694444,City,576,1908,0.304,37.8868,-97.5147,269,20173,20173
Kansas,Howard,567,567,572.0,-0.00176056,City,568,803,0.706,37.4694,-96.263,270,20049,20049
Kansas,Weir,557,557,569.0,-0.00357782,City,559,489,1.138,37.3096,-94.7745,271,20021,20021
Kansas,Goessel,551,551,556.0,-0.00181159,City,552,1454,0.379,38.2471,-97.3457,272,20079,20079
Kansas,Waverly,551,551,570.0,-0.00720721,City,555,753,0.732,38.3958,-95.6051,273,20031,20031
Kansas,Claflin,533,533,557.0,-0.00929368,City,538,1582,0.337,38.5246,-98.5369,274,20009,20009
Kansas,Olpe,518,518,517.0,0.0,City,518,738,0.702,38.2647,-96.1651,275,20111,20111
Kansas,Burden,506,506,511.0,-0.00197239,City,507,979,0.517,37.3156,-96.7554,276,20035,20035
Kansas,Attica,504,504,513.0,-0.00395257,City,506,795,0.634,37.2426,-98.2276,277,20077,20077
Kansas,Centralia,498,498,483.0,0.00606061,City,495,1097,0.454,39.7244,-96.131,278,20131,20131
Kansas,Fowler,498,498,537.0,-0.0158103,City,506,1051,0.474,37.3833,-100.196,279,20119,20119
Kansas,La Harpe,490,490,485.0,0.00204499,City,489,615,0.797,37.9164,-95.303,280,20001,20001
Kansas,Protection,481,481,495.0,-0.00619835,City,484,519,0.927,37.2004,-99.4808,281,20033,20033
Kansas,Effingham,476,476,496.0,-0.00833333,City,480,769,0.619,39.5229,-95.3969,282,20005,20005
Kansas,Cedar Vale,464,464,476.0,-0.00429185,City,466,615,0.754,37.1051,-96.5026,283,20019,20019
Kansas,Moran,463,463,467.0,-0.00215517,City,464,1105,0.419,37.9165,-95.1714,284,20001,20001
Kansas,Gas,462,462,471.0,-0.00431034,City,464,642,0.72,37.9226,-95.345,285,20001,20001
Kansas,Little River,460,460,472.0,-0.004329,City,462,1179,0.39,38.3982,-98.0149,286,20159,20159
Kansas,Bird City,452,452,437.0,0.00668151,City,449,199,2.266,39.7495,-101.533,287,20023,20023
Kansas,Cawker City,451,451,456.0,-0.00221239,City,452,448,1.006,39.5095,-98.4331,288,20123,20123
Kansas,Clifton,449,449,454.0,-0.00222222,City,450,1100,0.408,39.5681,-97.2806,289,20027,20027
Kansas,Argonia,445,445,459.0,-0.00669643,City,448,638,0.698,37.2679,-97.7629,290,20191,20191
Kansas,White City,443,443,448.0,-0.00225225,City,444,357,1.242,38.7933,-96.735,291,20127,20127
Kansas,Macksville,442,442,469.0,-0.0111857,City,447,443,0.998,37.9572,-98.9689,292,20185,20185
Kansas,Winchester,441,441,455.0,-0.00675676,City,444,1340,0.329,39.3227,-95.2692,293,20087,20087
Kansas,LeRoy,440,440,449.0,-0.00452489,City,442,534,0.824,38.086,-95.633,294,20031,20031
Kansas,Eskridge,437,437,437.0,0.0,City,437,845,0.517,38.8595,-96.1053,295,20197,20197
Kansas,Richmond,435,435,449.0,-0.00684932,City,438,1276,0.341,38.4003,-95.2519,296,20059,20059
Kansas,Miltonvale,433,433,447.0,-0.00688073,City,436,578,0.749,39.3496,-97.4523,297,20029,20029
Kansas,Glasco,432,432,447.0,-0.00689655,City,435,1301,0.332,39.361,-97.837,298,20029,20029
Kansas,Linwood,432,432,414.0,0.00934579,City,428,732,0.59,39.002,-95.0371,299,20091,20091
Kansas,Arlington,427,427,436.0,-0.004662,City,429,346,1.233,37.8963,-98.1781,300,20155,20155
Kansas,Leonardville,425,425,434.0,-0.00468384,City,427,1389,0.306,39.3641,-96.8596,301,20161,20161
Kansas,Logan,423,423,455.0,-0.013986,City,429,282,1.5,39.6617,-99.5673,302,20147,20147
Kansas,Kanopolis,422,422,444.0,-0.00938967,City,426,358,1.178,38.7081,-98.1581,303,20053,20053
Kansas,Potwin,421,421,423.0,0.0,City,421,1791,0.235,37.9386,-97.0183,304,20015,20015
Kansas,Assaria,420,420,427.0,-0.0023753,City,421,1795,0.234,38.6802,-97.6041,305,20169,20169
Kansas,Thayer,417,417,437.0,-0.00950119,City,421,765,0.545,37.489,-95.4767,306,20133,20133
Kansas,Alta Vista,412,412,412.0,0.0,City,412,1181,0.349,38.8629,-96.4888,307,20197,20197
Kansas,Mulberry,410,410,409.0,0.0,City,410,870,0.471,37.5561,-94.6234,308,20037,20037
Kansas,Kensington,406,406,401.0,0.00246913,City,405,1212,0.335,39.7667,-99.0329,309,20183,20183
Kansas,Parkerfield,404,404,408.0,-0.00246913,City,405,442,0.913,37.0678,-96.9956,310,20035,20035
Kansas,New Strawn,402,402,414.0,-0.00495049,City,404,507,0.793,38.264,-95.7427,311,20031,20031
Kansas,Tecumseh,402,402,369.0,0.0691489,CDP,376,113,3.569,39.035,-95.5797,312,20177,20177
Kansas,Norwich,401,401,441.0,-0.0195599,City,409,998,0.402,37.4572,-97.8479,313,20095,20095
Kansas,Axtell,400,400,397.0,0.00250626,City,399,765,0.523,39.8713,-96.2569,314,20131,20131
Kansas,Healy,400,400,295.0,0.0282776,CDP,389,116,3.46,38.603,-100.618,315,20101,20101
Kansas,Cunningham,394,394,439.0,-0.0223325,City,403,860,0.458,37.6446,-98.4311,316,20151,20151
Kansas,Westwood Hills,391,391,401.0,-0.00508906,City,393,6109,0.064,39.0389,-94.6097,317,20209,20209
Kansas,Gorham,388,388,375.0,0.00779221,City,385,1623,0.239,38.8807,-99.0237,318,20167,20167
Kansas,Strong City,388,388,388.0,0.0,City,388,708,0.548,38.3954,-96.5367,319,20017,20017
Kansas,Chase,385,385,395.0,-0.00516796,City,387,1385,0.278,38.3553,-98.3487,320,20159,20159
Kansas,Gypsum,384,384,403.0,-0.0103093,City,388,1027,0.374,38.7058,-97.4266,321,20169,20169
Kansas,Williamsburg,384,384,389.0,-0.0025974,City,385,393,0.977,38.4811,-95.4675,322,20059,20059
Kansas,Chicopee,383,383,533.0,-0.00519481,CDP,385,121,3.163,37.3834,-94.7435,323,20037,20037
Kansas,Linn,382,382,387.0,-0.00261097,City,383,1127,0.339,39.6793,-97.0868,324,20201,20201
Kansas,Florence,379,379,391.0,-0.00524934,City,381,495,0.766,38.2431,-96.9292,325,20115,20115
Kansas,Holyrood,379,379,399.0,-0.0104439,City,383,790,0.48,38.5877,-98.4107,326,20053,20053
Kansas,Edna,377,377,389.0,-0.00527704,City,379,957,0.394,37.0585,-95.3592,327,20099,20099
Kansas,Milford,376,376,405.0,-0.0157068,City,382,657,0.572,39.1729,-96.9104,328,20061,20061
Kansas,Colony,374,374,381.0,-0.00266667,City,375,773,0.484,38.0728,-95.3622,329,20003,20003
Kansas,Dearing,368,368,380.0,-0.00540541,City,370,243,1.514,37.0534,-95.6954,330,20125,20125
Kansas,McCune,368,368,373.0,-0.00271003,City,369,1157,0.318,37.3538,-95.0192,331,20037,20037
Kansas,Scammon,365,365,372.0,-0.00273224,City,366,582,0.627,37.2792,-94.8236,332,20021,20021
Kansas,Hartford,362,362,356.0,0.00277008,City,361,914,0.396,38.3084,-95.9566,333,20031,20031
Kansas,Lewis,361,361,398.0,-0.0190217,City,368,1146,0.315,37.937,-99.2547,334,20047,20047
Kansas,Glen Elder,360,360,364.0,-0.00277008,City,361,826,0.436,39.5002,-98.3065,335,20123,20123
Kansas,Rolla,360,360,387.0,-0.0136986,City,365,965,0.373,37.1179,-101.632,336,20129,20129
Kansas,Mayetta,359,359,349.0,0.00560224,City,357,1951,0.184,39.3386,-95.7218,337,20085,20085
Kansas,Greeley County,354,354,408.0,-0.030137,Township,365,0,777.417,38.4804,-101.806,338,20071,20071
Kansas,Keats,350,350,210.0,0.0703364,CDP,327,759,0.461,39.2168,-96.7074,339,20161,20161
Kansas,The Highlands,346,346,348.0,0.0,City,346,338,1.025,38.166,-97.9496,340,20155,20155
Kansas,Almena,345,345,364.0,-0.0114613,City,349,570,0.605,39.8913,-99.7096,341,20137,20137
Kansas,Greenleaf,345,345,349.0,-0.00289017,City,346,763,0.452,39.7267,-96.9798,342,20201,20201
Kansas,Melvern,345,345,354.0,-0.00576369,City,347,969,0.356,38.5073,-95.6378,343,20139,20139
Kansas,Mound Valley,345,345,350.0,-0.00289017,City,346,537,0.642,37.207,-95.4048,344,20099,20099
Kansas,Jewell,344,344,366.0,-0.0114943,City,348,837,0.411,39.6716,-98.1524,345,20089,20089
Kansas,Lucas,341,341,333.0,0.0058997,City,339,561,0.608,39.0587,-98.5377,346,20167,20167
Kansas,Altoona,340,340,347.0,-0.00293255,City,341,637,0.534,37.5245,-95.6615,347,20205,20205
Kansas,Moline,338,338,343.0,-0.00294985,City,339,1009,0.335,37.3637,-96.3024,348,20049,20049
Kansas,Wetmore,336,336,346.0,-0.00591716,City,338,868,0.387,39.6356,-95.8114,349,20085,20085
Kansas,Scandia,334,334,341.0,-0.00298507,City,335,709,0.471,39.7969,-97.784,350,20157,20157
Kansas,Lowell,328,328,228.0,0.00923077,CDP,325,1045,0.314,37.0513,-94.7027,351,20021,20021
Kansas,Elyria,326,326,276.0,0.0723684,CDP,304,68,4.779,38.2896,-97.6339,352,20113,20113
Kansas,Kismet,326,326,340.0,-0.00911854,City,329,1381,0.236,37.2045,-100.702,353,20175,20175
Kansas,South Haven,326,326,326.0,0.0,City,326,326,0.999,37.0495,-97.4013,354,20191,20191
Kansas,Grainfield,319,319,318.0,0.0,City,319,690,0.462,39.1143,-100.468,355,20063,20063
Kansas,Gridley,309,309,313.0,-0.00322581,City,310,722,0.428,38.1011,-95.8815,356,20031,20031
Kansas,Bronson,308,308,305.0,0.00325733,City,307,689,0.447,37.8958,-95.0731,357,20011,20011
Kansas,Hope,308,308,310.0,0.0,City,308,792,0.389,38.6912,-97.0765,358,20041,20041
Kansas,Turon,306,306,308.0,0.0,City,306,688,0.445,37.8075,-98.4277,359,20151,20151
Kansas,Delphos,301,301,301.0,0.0,City,301,508,0.593,39.2746,-97.7649,360,20143,20143
Kansas,Uniontown,299,299,293.0,0.0033557,City,298,1417,0.211,37.8472,-94.9757,361,20011,20011
Kansas,Natoma,290,290,304.0,-0.0102389,City,293,687,0.422,39.1885,-99.0242,362,20163,20163
Kansas,Courtland,289,289,293.0,-0.00344827,City,290,1074,0.269,39.7832,-97.8962,363,20157,20157
Kansas,Quenemo,286,286,288.0,0.0,City,286,644,0.444,38.5802,-95.5266,364,20139,20139
Kansas,Sylvan Grove,286,286,290.0,-0.00348432,City,287,743,0.385,39.0123,-98.3944,365,20105,20105
Kansas,Brewster,284,284,291.0,-0.00350877,City,285,1101,0.258,39.3631,-101.377,366,20193,20193
Kansas,Longton,282,282,284.0,0.0,City,282,240,1.175,37.3775,-96.0818,367,20049,20049
Kansas,Otis,278,278,298.0,-0.0141844,City,282,888,0.313,38.5348,-99.0535,368,20165,20165
Kansas,McFarland,277,277,276.0,0.0,City,277,1556,0.178,39.0547,-96.238,369,20197,20197
Kansas,Greeley,276,276,271.0,0.00363636,City,275,802,0.344,38.3674,-95.1264,370,20003,20003
Kansas,Bremen,271,271,45.0,0.0711462,CDP,253,160,1.69,39.8978,-96.7955,371,20201,20201
Kansas,Bazine,265,265,274.0,-0.00749064,City,267,590,0.449,38.4461,-99.693,372,20135,20135
Kansas,Tescott,263,263,265.0,0.0,City,263,681,0.386,39.013,-97.8783,373,20143,20143
Kansas,Princeton,258,258,247.0,0.0078125,City,256,663,0.389,38.4862,-95.2701,374,20059,20059
Kansas,Arcadia,256,256,258.0,0.0,City,256,597,0.429,37.6412,-94.624,375,20037,20037
Kansas,Grinnell,256,256,255.0,0.0,City,256,520,0.492,39.1266,-100.631,376,20063,20063
Kansas,Moscow,253,253,270.0,-0.0117188,City,256,1480,0.171,37.3251,-101.207,377,20189,20189
Kansas,Ingalls,252,252,252.0,0.0,City,252,969,0.26,37.8286,-100.453,378,20069,20069
Kansas,Copeland,251,251,251.0,0.0,City,251,1077,0.233,37.5402,-100.629,379,20081,20081
Kansas,Elk City,251,251,258.0,-0.00396825,City,252,743,0.338,37.2891,-95.9103,380,20125,20125
Kansas,Everest,250,250,259.0,-0.00793651,City,252,1078,0.232,39.677,-95.4248,381,20005,20005
Kansas,Ransom,250,250,260.0,-0.00793651,City,252,712,0.351,38.6365,-99.9327,382,20135,20135
Kansas,Lane,248,248,243.0,0.00404858,City,247,1064,0.233,38.44,-95.0821,383,20059,20059
Kansas,Catharine,243,243,123.0,0.0384615,CDP,234,137,1.77,38.9302,-99.2144,384,20051,20051
Kansas,Hanston,242,242,262.0,-0.0162602,City,246,896,0.27,38.123,-99.7127,385,20083,20083
Kansas,Wakarusa,239,239,223.0,-0.00416667,CDP,240,48,4.965,38.8938,-95.7049,386,20177,20177
Kansas,Lancaster,235,235,245.0,-0.00843882,City,237,1181,0.199,39.5712,-95.3037,387,20005,20005
Kansas,Dexter,234,234,226.0,0.00862069,City,232,845,0.277,37.1796,-96.716,388,20035,20035
Kansas,Fairview,234,234,239.0,-0.00425532,City,235,682,0.343,39.8396,-95.7281,389,20013,20013
Kansas,Neosho Rapids,234,234,229.0,0.00429185,City,233,463,0.505,38.3685,-95.9919,390,20111,20111
Kansas,Brookville,230,230,245.0,-0.0128755,City,233,400,0.575,38.7736,-97.8645,391,20169,20169
Kansas,Burns,230,230,235.0,-0.004329,City,231,669,0.344,38.0897,-96.8877,392,20015,20015
Kansas,Grantville,230,230,206.0,0.0132159,CDP,227,375,0.613,39.0806,-95.5612,393,20177,20177
Kansas,Jamestown,230,230,239.0,-0.00862069,City,232,785,0.293,39.5995,-97.8613,394,20029,20029
Kansas,Fontana,229,229,221.0,0.00881057,City,227,264,0.869,38.4215,-94.8447,395,20121,20121
Kansas,Parker,228,228,235.0,-0.00436681,City,229,811,0.281,38.3286,-94.9892,396,20107,20107
Kansas,Geneseo,226,226,231.0,-0.00440529,City,227,386,0.586,38.517,-98.1545,397,20159,20159
Kansas,Olsburg,224,224,221.0,0.0044843,City,223,926,0.242,39.4321,-96.616,398,20161,20161
Kansas,Elbing,223,223,225.0,0.0,City,223,1297,0.172,38.0534,-97.1283,399,20079,20079
Kansas,Blue Mound,222,222,222.0,0.0,City,222,349,0.636,38.0894,-95.0099,400,20107,20107
Kansas,Belvue,221,221,178.0,0.0424528,City,212,1797,0.123,39.2163,-96.179,401,20149,20149
Kansas,Burdett,216,216,226.0,-0.00917431,City,218,831,0.26,38.1935,-99.5265,402,20145,20145
Kansas,Prescott,216,216,206.0,0.00934579,City,214,758,0.285,38.0631,-94.6925,403,20107,20107
Kansas,Walton,216,216,221.0,-0.00460829,City,217,695,0.311,38.1187,-97.2583,404,20079,20079
Kansas,Dwight,212,212,214.0,0.0,City,212,587,0.361,38.8452,-96.5922,405,20127,20127
Kansas,Easton,211,211,211.0,0.0,City,211,1249,0.169,39.3455,-95.1171,406,20103,20103
Kansas,Paxico,211,211,208.0,0.0047619,City,210,1455,0.145,39.0689,-96.167,407,20197,20197
Kansas,Dennis,210,210,222.0,0.0714286,CDP,196,139,1.507,37.3486,-95.4031,408,20099,20099
Kansas,Morrill,209,209,219.0,-0.00947867,City,211,1050,0.199,39.9292,-95.6943,409,20013,20013
Kansas,Partridge,209,209,209.0,0.0,City,209,674,0.31,37.9669,-98.0923,410,20155,20155
Kansas,Sylvia,209,209,213.0,-0.0047619,City,210,723,0.289,37.9589,-98.4087,411,20185,20185
Kansas,Buffalo,208,208,217.0,-0.00952381,City,210,654,0.318,37.7091,-95.6969,412,20205,20205
Kansas,Corning,208,208,215.0,-0.00478469,City,209,684,0.304,39.6571,-96.0288,413,20131,20131
Kansas,Toronto,206,206,203.0,0.00487805,City,205,566,0.364,37.7985,-95.9498,414,20207,20207
Kansas,Ford,204,204,204.0,0.0,City,204,482,0.423,37.6367,-99.7538,415,20057,20057
Kansas,Williamstown,200,200,129.0,0.0695187,CDP,187,1709,0.117,39.0642,-95.3323,416,20087,20087
Kansas,Palco,199,199,209.0,-0.00995025,City,201,743,0.268,39.2532,-99.5635,417,20163,20163
Kansas,Whiting,197,197,192.0,0.00510204,City,196,196,1.007,39.5879,-95.6112,418,20085,20085
Kansas,Lenora,196,196,206.0,-0.010101,City,198,407,0.482,39.6109,-100.001,419,20137,20137
Kansas,Severy,196,196,201.0,-0.00507614,City,197,400,0.49,37.622,-96.2275,420,20049,20049
Kansas,Rexford,195,195,200.0,-0.00510204,City,196,747,0.261,39.4704,-100.744,421,20179,20179
Kansas,Mission Woods,194,194,201.0,-0.0051282,City,195,2180,0.089,39.0342,-94.6106,422,20209,20209
Kansas,Beattie,193,193,200.0,-0.00515464,City,194,843,0.229,39.8624,-96.4178,423,20117,20117
Kansas,Agra,192,192,207.0,-0.0153846,City,195,771,0.249,39.7613,-99.1194,424,20147,20147
Kansas,Bushton,191,191,201.0,-0.0103627,City,193,838,0.228,38.5123,-98.396,425,20159,20159
Kansas,Walnut,190,190,189.0,0.0,City,190,129,1.474,37.6036,-95.0741,426,20133,20133
Kansas,Tipton,188,188,190.0,0.0,City,188,746,0.252,39.3395,-98.4709,427,20141,20141
Kansas,Pawnee Rock,186,186,193.0,-0.00534759,City,187,660,0.282,38.2649,-98.9824,428,20145,20145
Kansas,Morganville,183,183,182.0,0.0,City,183,540,0.339,39.4667,-97.2037,429,20027,20027
Kansas,Reading,183,183,182.0,0.0,City,183,859,0.213,38.5191,-95.9574,430,20111,20111
Kansas,Lebanon,182,182,181.0,0.0,City,182,565,0.322,39.8102,-98.5573,431,20183,20183
Kansas,Hillsdale,180,180,284.0,-0.0217391,CDP,184,118,1.526,38.6614,-94.8569,432,20121,20121
Kansas,Mullinville,180,180,192.0,-0.010989,City,182,281,0.641,37.5886,-99.4756,433,20097,20097
Kansas,Selden,180,180,187.0,-0.00552486,City,181,594,0.303,39.5414,-100.567,434,20179,20179
Kansas,Hamilton,179,179,183.0,-0.00555556,City,180,574,0.312,37.9806,-96.1638,435,20073,20073
Kansas,Falun,178,178,57.0,0.0722892,CDP,166,161,1.109,38.6744,-97.7511,436,20169,20169
Kansas,Harveyville,178,178,177.0,0.0,City,178,1319,0.135,38.7891,-95.9625,437,20139,20139
Kansas,Winona,174,174,188.0,-0.0169492,City,177,667,0.261,39.0617,-101.245,438,20109,20109
Kansas,Rantoul,173,173,167.0,0.00581395,City,172,1177,0.147,38.5484,-95.1009,439,20059,20059
Kansas,Welda,172,172,100.0,0.0177515,CDP,169,186,0.927,38.1722,-95.2916,440,20003,20003
Kansas,Emmett,171,171,168.0,0.00588235,City,170,877,0.195,39.3073,-96.0576,441,20149,20149
Kansas,Navarre,171,171,158.0,0.06875,CDP,160,104,1.647,38.8017,-97.1077,442,20041,20041
Kansas,Robinson,171,171,181.0,-0.0115607,City,173,747,0.229,39.8155,-95.4116,443,20013,20013
Kansas,Kickapoo Site 5,170,170,75.0,0.0691824,CDP,159,227,0.749,39.6735,-95.6842,444,20013,20013
Kansas,Ensign,169,169,166.0,0.00595238,City,168,581,0.291,37.6531,-100.233,445,20069,20069
Kansas,Schoenchen,168,168,170.0,0.0,City,168,1355,0.124,38.7129,-99.3323,446,20165,20165
Kansas,Tyro,168,168,177.0,-0.0117647,City,170,368,0.457,37.0386,-95.8243,447,20125,20125
Kansas,Fulton,167,167,166.0,0.0,City,167,870,0.192,38.0098,-94.7197,448,20011,20011
Kansas,Lincolnville,167,167,167.0,0.0,City,167,742,0.225,38.4943,-96.9615,449,20115,20115
Kansas,Bison,166,166,178.0,-0.0119048,City,168,626,0.265,38.5199,-99.1979,450,20165,20165
Kansas,Luray,164,164,164.0,0.0,City,164,494,0.332,39.115,-98.6922,451,20167,20167
Kansas,Mentor,164,164,74.0,0.0718954,CDP,153,424,0.387,38.7407,-97.5979,452,20169,20169
Kansas,Barnes,163,163,163.0,0.0,City,163,959,0.17,39.7116,-96.8734,453,20201,20201
Kansas,Allen,162,162,161.0,0.0,City,162,587,0.276,38.6551,-96.1696,454,20111,20111
Kansas,Atlanta,162,162,169.0,-0.00613497,City,163,338,0.479,37.4357,-96.767,455,20035,20035
Kansas,Lehigh,161,161,158.0,0.00625,City,160,500,0.322,38.3744,-97.3024,456,20115,20115
Kansas,Woodbine,161,161,158.0,0.00625,City,160,1013,0.159,38.7956,-96.9593,457,20041,20041
Kansas,Smolan,158,158,163.0,-0.00628931,City,159,1423,0.111,38.7381,-97.6843,458,20169,20169
Kansas,Bern,157,157,164.0,-0.00632911,City,158,553,0.284,39.9614,-95.9711,459,20131,20131
Kansas,Geuda Springs,157,157,154.0,0.00641026,City,156,456,0.344,37.1114,-97.1504,460,20035,20035
Kansas,Hardtner,157,157,166.0,-0.0125786,City,159,571,0.275,37.0144,-98.6492,461,20007,20007
Kansas,Offerle,157,157,176.0,-0.0248447,City,161,571,0.275,37.8907,-99.5603,462,20047,20047
Kansas,Norcatur,156,156,161.0,-0.00636943,City,157,157,0.996,39.8348,-100.189,463,20039,20039
Kansas,Louisville,154,154,134.0,0.0266667,City,150,309,0.499,39.2499,-96.3145,464,20149,20149
Kansas,Muscotah,154,154,156.0,0.0,City,154,462,0.333,39.5536,-95.5204,465,20005,20005
Kansas,Sycamore,154,154,205.0,0.0694444,CDP,144,79,1.943,37.3186,-95.7155,466,20125,20125
Kansas,Delia,153,153,150.0,0.00657895,City,152,1330,0.115,39.2394,-95.965,467,20177,20177
Kansas,Randolph,153,153,160.0,-0.00649351,City,154,556,0.275,39.4294,-96.7594,468,20161,20161
Kansas,Circleville,152,152,154.0,0.0,City,152,601,0.253,39.5094,-95.8557,469,20085,20085
Kansas,Bogue,150,150,152.0,0.0,City,150,579,0.259,39.3595,-99.6874,470,20065,20065
Kansas,Iuka,150,150,152.0,0.0,City,150,228,0.657,37.729,-98.7327,471,20151,20151
Kansas,Kanorado,149,149,151.0,0.0,City,149,571,0.261,39.3365,-102.037,472,20181,20181
Kansas,Grenola,148,148,148.0,0.0,City,148,318,0.465,37.3503,-96.4497,473,20049,20049
Kansas,Rosalia,147,147,100.0,-0.0134228,CDP,149,116,1.271,37.8158,-96.625,474,20015,20015
Kansas,West Mineral,146,146,151.0,-0.00680272,City,147,433,0.337,37.2839,-94.9268,475,20021,20021
Kansas,Detroit,145,145,151.0,0.013986,CDP,143,296,0.49,38.936,-97.1269,476,20041,20041
Kansas,Fort Dodge,145,145,179.0,-0.00684932,CDP,146,792,0.183,37.7304,-99.937,477,20057,20057
Kansas,Denison,143,143,145.0,0.0,City,143,1277,0.112,39.3938,-95.6284,478,20085,20085
Kansas,Dorrance,142,142,144.0,0.0,City,142,419,0.339,38.8469,-98.59,479,20167,20167
Kansas,Milton,142,142,299.0,-0.00699301,CDP,143,32,4.441,37.4432,-97.7694,480,20191,20191
Kansas,Garfield,141,141,150.0,-0.013986,City,143,262,0.538,38.0771,-99.2445,481,20145,20145
Kansas,McCracken,140,140,150.0,-0.0140845,City,142,140,0.997,38.5821,-99.5684,482,20165,20165
Kansas,Radley,140,140,67.0,0.0687023,CDP,131,186,0.754,37.4849,-94.762,483,20037,20037
Kansas,Netawaka,139,139,141.0,0.0,City,139,144,0.968,39.603,-95.7189,484,20085,20085
Kansas,Neosho Falls,138,138,133.0,0.00729927,City,137,272,0.507,38.006,-95.5553,485,20207,20207
Kansas,Odin,138,138,90.0,0.0147059,CDP,136,35,3.998,38.573,-98.6167,486,20009,20009
Kansas,Cuba,137,137,139.0,0.0,City,137,476,0.288,39.8023,-97.4574,487,20157,20157
Kansas,Galesburg,137,137,146.0,-0.0143885,City,139,801,0.171,37.4722,-95.3564,488,20133,20133
Kansas,Sharon,137,137,147.0,-0.0143885,City,139,488,0.281,37.2497,-98.4177,489,20007,20007
Kansas,Wilsey,137,137,141.0,-0.00724638,City,138,507,0.27,38.6357,-96.6765,490,20127,20127
Kansas,Bendena,134,134,126.0,0.0075188,CDP,133,88,1.53,39.7435,-95.1811,491,20043,20043
Kansas,St. Marks,134,134,34.0,0.072,CDP,125,137,0.977,37.7393,-97.5591,492,20173,20173
Kansas,Rush Center,133,133,140.0,-0.00746269,City,134,368,0.361,38.4649,-99.3108,493,20165,20165
Kansas,Admire,132,132,131.0,0.0,City,132,409,0.323,38.641,-96.102,494,20111,20111
Kansas,Beverly,132,132,136.0,-0.0075188,City,133,663,0.199,39.0138,-97.9755,495,20105,20105
Kansas,Burr Oak,132,132,141.0,-0.0149254,City,134,160,0.823,39.8703,-98.3057,496,20089,20089
Kansas,Lorraine,132,132,137.0,-0.0075188,City,133,522,0.253,38.569,-98.3173,497,20053,20053
Kansas,Long Island,131,131,138.0,-0.00757576,City,132,319,0.411,39.9461,-99.5339,498,20147,20147
Kansas,Westphalia,130,130,129.0,0.0,City,130,657,0.198,38.1822,-95.4903,499,20003,20003
Kansas,Denton,129,129,129.0,0.0,City,129,890,0.145,39.7319,-95.2695,500,20043,20043
Kansas,Havensville,128,128,122.0,0.00787401,City,127,883,0.145,39.5112,-96.0764,501,20149,20149
Kansas,Kirwin,128,128,135.0,-0.00775194,City,129,140,0.915,39.6698,-99.1217,502,20147,20147
Kansas,Fall River,125,125,129.0,-0.00793651,City,126,568,0.22,37.6078,-96.0286,503,20049,20049
Kansas,Albert,124,124,129.0,-0.008,City,125,528,0.235,38.454,-99.0111,504,20009,20009
Kansas,Palmer,124,124,124.0,0.0,City,124,401,0.309,39.6329,-97.1404,505,20201,20201
Kansas,Niles,121,121,48.0,0.0707965,CDP,113,265,0.457,38.9688,-97.4575,506,20169,20169
Kansas,Rock,121,121,105.0,0.0707965,CDP,113,303,0.4,37.4418,-97.0071,507,20035,20035
Kansas,Summerfield,120,120,124.0,-0.00826446,City,121,348,0.345,39.9969,-96.3493,508,20117,20117
Kansas,Talmage,120,120,129.0,0.0714286,CDP,112,1224,0.098,39.0269,-97.2597,509,20041,20041
Kansas,Croweburg,119,119,123.0,0.0720721,CDP,111,203,0.587,37.5536,-94.6723,510,20037,20037
Kansas,Alden,118,118,122.0,-0.00840336,City,119,761,0.155,38.2438,-98.3117,511,20159,20159
Kansas,Preston,118,118,117.0,0.0,City,118,271,0.435,37.7584,-98.5578,512,20151,20151
Kansas,White Cloud,117,117,117.0,0.0,City,117,162,0.724,39.9743,-95.299,513,20043,20043
Kansas,McDonald,116,116,118.0,0.0,City,116,530,0.219,39.7847,-101.37,514,20023,20023
Kansas,Centropolis,115,115,149.0,0.0747664,CDP,107,343,0.335,38.7195,-95.3494,515,20059,20059
Kansas,Park,115,115,115.0,0.0,City,115,365,0.315,39.1118,-100.361,516,20063,20063
Kansas,Herndon,114,114,123.0,-0.0172414,City,116,362,0.315,39.9092,-100.786,517,20153,20153
Kansas,Kickapoo Tribal Center,114,114,155.0,-0.0420168,CDP,119,59,1.935,39.6722,-95.6453,518,20013,20013
Kansas,Culver,113,113,113.0,0.0,City,113,635,0.178,38.9702,-97.7591,519,20143,20143
Kansas,Weskan,113,113,103.0,-0.034188,CDP,117,43,2.64,38.8653,-101.968,520,20199,20199
Kansas,Levant,112,112,49.0,0.0666667,CDP,105,111,1.009,39.3881,-101.195,521,20193,20193
Kansas,Manter,112,112,131.0,-0.0344828,City,116,450,0.249,37.5245,-101.883,522,20187,20187
Kansas,Morland,112,112,114.0,0.0,City,112,234,0.478,39.349,-100.074,523,20065,20065
Kansas,Morrowville,112,112,116.0,-0.00884956,City,113,783,0.143,39.8453,-97.1728,524,20201,20201
Kansas,Bunker Hill,111,111,108.0,0.00909091,City,110,80,1.386,38.8753,-98.6989,525,20167,20167
Kansas,Cassoday,111,111,110.0,0.0,City,111,326,0.34,38.0387,-96.6387,526,20017,20017
Kansas,Elk Falls,110,110,112.0,0.0,City,110,151,0.727,37.373,-96.1929,527,20049,20049
Kansas,Greenwich,110,110,62.0,0.0679612,CDP,103,866,0.127,37.7834,-97.2031,528,20173,20173
Kansas,Kipp,110,110,,0.0679612,CDP,103,136,0.806,38.785,-97.4568,529,20169,20169
Kansas,Viola,109,109,113.0,-0.00909091,City,110,665,0.164,37.4829,-97.6444,530,20173,20173
Kansas,Baileyville,107,107,164.0,-0.0446429,CDP,112,88,1.21,39.8501,-96.1927,531,20131,20131
Kansas,Damar,107,107,111.0,-0.00925926,City,108,560,0.191,39.3192,-99.5845,532,20163,20163
Kansas,Kincaid,107,107,106.0,0.0,City,107,214,0.5,38.0807,-95.1562,533,20003,20003
Kansas,Wheaton,107,107,99.0,0.0190476,City,105,695,0.154,39.5022,-96.3186,534,20149,20149
Kansas,Chautauqua,106,106,108.0,0.0,City,106,250,0.424,37.0239,-96.1771,535,20019,20019
Kansas,Haddam,106,106,110.0,-0.00934579,City,107,309,0.343,39.8553,-97.3043,536,20201,20201
Kansas,New Cambria,106,106,105.0,0.0,City,106,596,0.178,38.879,-97.5066,537,20169,20169
Kansas,Goff,105,105,105.0,0.0,City,105,510,0.206,39.6641,-95.9318,538,20131,20131
Kansas,Soldier,103,103,102.0,0.0,City,103,701,0.147,39.5372,-95.9656,539,20131,20131
Kansas,Tampa,103,103,107.0,-0.00961538,City,104,579,0.178,38.5481,-97.1542,540,20115,20115
Kansas,Peck,102,102,118.0,0.0625,CDP,96,288,0.354,37.4777,-97.3695,541,20173,20173
Kansas,Latham,100,100,99.0,0.0,City,100,461,0.217,37.5356,-96.6425,542,20015,20015
Kansas,Peru,100,100,102.0,0.0,City,100,309,0.324,37.0803,-96.0961,543,20019,20019
Kansas,Piedmont,100,100,38.0,0.0752688,CDP,93,27,3.704,37.6153,-96.3793,544,20049,20049
Kansas,Mapleton,98,98,97.0,0.0,City,98,198,0.496,38.0157,-94.8841,545,20011,20011
Kansas,Monument,98,98,35.0,0.0769231,CDP,91,182,0.537,39.105,-101.008,546,20109,20109
Kansas,Munden,97,97,97.0,0.0,City,97,522,0.186,39.9126,-97.5385,547,20157,20157
Kansas,Rozel,97,97,102.0,-0.0102041,City,98,503,0.193,38.1954,-99.4033,548,20145,20145
Kansas,Utica,96,96,100.0,-0.0103093,City,97,393,0.244,38.6427,-100.17,549,20135,20135
Kansas,Alton,95,95,100.0,-0.0104167,City,96,307,0.309,39.4678,-98.9486,550,20141,20141
Kansas,Prairie View,95,95,105.0,-0.0206186,City,97,646,0.147,39.832,-99.5733,551,20147,20147
Kansas,Yale,95,95,66.0,0.0674157,CDP,89,96,0.994,37.4894,-94.6474,552,20037,20037
Kansas,Gem,94,94,96.0,0.0,City,94,281,0.334,39.426,-100.897,553,20193,20193
Kansas,Kickapoo Site 1,94,94,92.0,0.0,CDP,94,188,0.501,39.7145,-95.6484,554,20013,20013
Kansas,Green,93,93,97.0,-0.0106383,City,94,477,0.195,39.4301,-96.9999,555,20027,20027
Kansas,Liberty,93,93,98.0,-0.0106383,City,94,371,0.251,37.1564,-95.5977,556,20125,20125
Kansas,Belpre,92,92,99.0,-0.0107527,City,93,224,0.411,37.9507,-99.0998,557,20047,20047
Kansas,Durham,92,92,92.0,0.0,City,92,529,0.174,38.4845,-97.2269,558,20115,20115
Kansas,Hepler,92,92,92.0,0.0,City,92,92,0.999,37.6634,-94.97,559,20037,20037
Kansas,Collyer,91,91,95.0,-0.0108696,City,92,389,0.234,39.0373,-100.118,560,20195,20195
Kansas,Redfield,91,91,91.0,0.0,City,91,628,0.145,37.8366,-94.882,561,20011,20011
Kansas,Cambridge,90,90,92.0,0.0,City,90,514,0.175,37.3178,-96.6672,562,20035,20035
Kansas,Hudson,89,89,93.0,-0.0111111,City,90,712,0.125,38.1049,-98.6607,563,20185,20185
Kansas,Sawyer,89,89,89.0,0.0,City,89,494,0.18,37.4985,-98.683,564,20151,20151
Kansas,Windom,89,89,88.0,0.0,City,89,443,0.201,38.3841,-97.9102,565,20113,20113
Kansas,Formoso,88,88,92.0,-0.011236,City,89,356,0.247,39.7785,-97.9929,566,20089,20089
Kansas,Niotaze,88,88,90.0,0.0,City,88,238,0.37,37.0673,-96.0145,567,20019,20019
Kansas,Woodston,88,88,93.0,-0.011236,City,89,411,0.214,39.4539,-99.0983,568,20163,20163
Kansas,Horace,87,87,99.0,-0.0224719,City,89,355,0.245,38.4768,-101.79,569,20071,20071
Kansas,Olmitz,87,87,91.0,-0.0113636,City,88,547,0.159,38.5164,-98.9366,570,20009,20009
Kansas,Gaylord,86,86,85.0,0.0,City,86,337,0.255,39.6463,-98.8473,571,20183,20183
Kansas,Raymond,85,85,85.0,0.0,City,85,274,0.31,38.278,-98.4143,572,20159,20159
Kansas,Liebenthal,84,84,91.0,-0.0117647,City,85,750,0.112,38.6545,-99.32,573,20165,20165
Kansas,Cullison,83,83,83.0,0.0,City,83,480,0.173,37.6303,-98.9053,574,20151,20151
Kansas,Plevna,83,83,85.0,0.0,City,83,369,0.225,37.9716,-98.3096,575,20155,20155
Kansas,Portis,82,82,87.0,-0.0120482,City,83,314,0.261,39.5637,-98.6916,576,20141,20141
Kansas,Abbyville,80,80,82.0,0.0,City,80,299,0.268,37.9706,-98.203,577,20155,20155
Kansas,Farlington,80,80,41.0,0.0666667,CDP,75,87,0.918,37.6154,-94.8227,578,20037,20037
Kansas,Gove City,80,80,79.0,0.0,City,80,329,0.243,38.9595,-100.487,579,20063,20063
Kansas,Hazelton,80,80,84.0,-0.0123457,City,81,135,0.593,37.0894,-98.4015,580,20007,20007
Kansas,Jennings,80,80,82.0,0.0,City,80,299,0.268,39.6805,-100.293,581,20039,20039
Kansas,Ringo,80,80,68.0,0.0666667,CDP,75,53,1.503,37.5063,-94.7699,582,20037,20037
Kansas,Coolidge,79,79,79.0,0.0,City,79,171,0.462,38.0414,-102.008,583,20075,20075
Kansas,Havana,79,79,83.0,-0.0125,City,80,503,0.157,37.0921,-95.9419,584,20125,20125
Kansas,Narka,79,79,83.0,-0.0125,City,80,494,0.16,39.9598,-97.4267,585,20157,20157
Kansas,Wright,79,79,115.0,-0.0705882,CDP,85,38,2.059,37.7753,-99.8905,586,20057,20057
Kansas,Kickapoo Site 7,78,78,61.0,0.0833333,CDP,72,154,0.507,39.6895,-95.6713,587,20013,20013
Kansas,Pilsen,78,78,77.0,0.0833333,CDP,72,56,1.401,38.468,-97.0344,588,20115,20115
Kansas,Ramona,78,78,78.0,0.0,City,78,268,0.291,38.5979,-97.0637,589,20115,20115
Kansas,Simpson,78,78,83.0,-0.0126582,City,79,304,0.257,39.386,-97.934,590,20123,20123
Kansas,Vermillion,78,78,80.0,0.0,City,78,375,0.208,39.7189,-96.2651,591,20131,20131
Kansas,Zurich,78,78,85.0,-0.0126582,City,79,433,0.18,39.2323,-99.4347,592,20163,20163
Kansas,Republic,77,77,81.0,-0.0128205,City,78,330,0.233,39.9239,-97.8245,593,20157,20157
Kansas,Savonburg,77,77,76.0,0.0,City,77,401,0.192,37.7491,-95.1418,594,20001,20001
Kansas,Randall,76,76,80.0,-0.012987,City,77,437,0.174,39.6416,-98.0456,595,20089,20089
Kansas,Severance,76,76,78.0,0.0,City,76,543,0.14,39.7668,-95.2492,596,20043,20043
Kansas,Crestline,75,75,34.0,0.0714286,CDP,70,42,1.781,37.1701,-94.7065,597,20021,20021
Kansas,Olivet,75,75,72.0,0.0135135,City,74,298,0.252,38.4815,-95.7513,598,20139,20139
Kansas,Willard,75,75,74.0,0.0,City,75,688,0.109,39.0941,-95.9429,599,20177,20177
Kansas,Mayfield,73,73,73.0,0.0,City,73,247,0.296,37.2631,-97.5404,600,20191,20191
Kansas,Roseland,73,73,75.0,0.0,City,73,100,0.731,37.2805,-94.8438,601,20021,20021
Kansas,Hallowell,70,70,49.0,0.0769231,CDP,65,81,0.864,37.1734,-95.0027,602,20021,20021
Kansas,Huron,70,70,74.0,-0.0140845,City,71,972,0.072,39.6382,-95.3512,603,20005,20005
Kansas,Shallow Water,70,70,57.0,0.0769231,CDP,65,141,0.495,38.3738,-100.91,604,20171,20171
Kansas,Willowbrook,70,70,72.0,0.0,City,70,237,0.295,38.1012,-97.9919,605,20155,20155
Kansas,Bartlett,69,69,71.0,0.0,City,69,519,0.133,37.0549,-95.2116,606,20099,20099
Kansas,Longford,69,69,73.0,-0.0142857,City,70,486,0.142,39.1721,-97.3291,607,20027,20027
Kansas,Stuttgart,69,69,35.0,0.078125,CDP,64,104,0.661,39.7995,-99.4547,608,20147,20147
Kansas,Benedict,68,68,72.0,-0.0144928,City,69,466,0.146,37.6269,-95.7435,609,20205,20205
Kansas,Coats,68,68,68.0,0.0,City,68,300,0.227,37.5108,-98.8253,610,20151,20151
Kansas,Bucyrus,67,67,269.0,-0.106667,CDP,75,34,1.999,38.7209,-94.7083,611,20091,20091
Kansas,Reserve,67,67,71.0,-0.0147059,City,68,583,0.115,39.977,-95.5651,612,20013,20013
Kansas,Zenda,66,66,71.0,-0.0149254,City,67,296,0.223,37.4441,-98.282,613,20095,20095
Kansas,Murdock,65,65,27.0,0.0655738,CDP,61,283,0.23,37.6111,-97.9316,614,20095,20095
Kansas,Powhattan,65,65,69.0,-0.0151515,City,66,474,0.137,39.7617,-95.634,615,20013,20013
Kansas,Esbon,64,64,69.0,-0.0153846,City,65,228,0.281,39.8218,-98.4337,616,20089,20089
Kansas,Oketo,64,64,64.0,0.0,City,64,621,0.103,39.9632,-96.599,617,20117,20117
Kansas,Somerset,64,64,128.0,0.0666667,CDP,60,145,0.441,38.6049,-94.7794,618,20121,20121
Kansas,Stark,64,64,68.0,-0.0153846,City,65,390,0.164,37.6897,-95.1441,619,20133,20133
Kansas,Codell,62,62,77.0,0.0689655,CDP,58,82,0.752,39.1954,-99.1701,620,20163,20163
Kansas,Furley,62,62,25.0,0.0689655,CDP,58,251,0.247,37.8801,-97.2119,621,20079,20079
Kansas,Isabel,62,62,66.0,-0.015873,City,63,248,0.25,37.4672,-98.5515,622,20151,20151
Kansas,Earlton,59,59,59.0,0.0,City,59,369,0.16,37.5874,-95.4698,623,20133,20133
Kansas,Munjor,59,59,76.0,-0.157143,CDP,70,26,2.305,38.8089,-99.2675,624,20051,20051
Kansas,Devon,58,58,51.0,0.0740741,CDP,54,82,0.705,37.9222,-94.8153,625,20011,20011
Kansas,Wabaunsee,58,58,174.0,0.0740741,CDP,54,43,1.355,39.1436,-96.3423,626,20149,20149
Kansas,Barnard,57,57,61.0,-0.0172414,City,58,256,0.223,39.1892,-98.0443,627,20105,20105
Kansas,Coyville,57,57,61.0,-0.0172414,City,58,212,0.269,37.6872,-95.8959,628,20205,20205
Kansas,New Albany,57,57,57.0,0.0,City,57,308,0.185,37.5678,-95.9363,629,20205,20205
Kansas,Oneida,57,57,59.0,0.0,City,57,248,0.23,39.8668,-95.9398,630,20131,20131
Kansas,Spivey,57,57,59.0,0.0,City,57,109,0.521,37.4484,-98.1657,631,20095,20095
Kansas,Elgin,55,55,57.0,0.0,City,55,282,0.195,37.0016,-96.2806,632,20019,20019
Kansas,Marienthal,54,54,76.0,0.08,CDP,50,27,2.0,38.4891,-101.22,633,20203,20203
Kansas,Aurora,53,53,55.0,0.0,City,53,525,0.101,39.4519,-97.5298,634,20029,20029
Kansas,Hunter,53,53,53.0,0.0,City,53,252,0.21,39.235,-98.3961,635,20123,20123
Kansas,Labette,53,53,55.0,0.0,City,53,237,0.224,37.23,-95.1835,636,20099,20099
Kansas,Lost Springs,53,53,55.0,0.0,City,53,239,0.222,38.5666,-96.9658,637,20115,20115
Kansas,Piqua,53,53,72.0,-0.0701754,CDP,57,13,3.968,37.9217,-95.5377,638,20207,20207
Kansas,Matfield Green,52,52,52.0,0.0,City,52,366,0.142,38.1597,-96.562,639,20017,20017
Kansas,Elsmore,51,51,53.0,0.0,City,51,336,0.152,37.7942,-95.1499,640,20001,20001
Kansas,Milan,51,51,53.0,0.0,City,51,386,0.132,37.2575,-97.674,641,20191,20191
Kansas,Newbury,51,51,8.0,0.0625,CDP,48,57,0.898,39.0824,-96.1741,642,20197,20197
Kansas,Beaumont,50,50,29.0,0.0638298,CDP,47,90,0.554,37.656,-96.5318,643,20015,20015
Kansas,Glade,50,50,54.0,-0.0196078,City,51,187,0.268,39.6837,-99.3116,644,20147,20147
Kansas,Englewood,49,49,54.0,-0.02,City,50,43,1.128,37.0404,-99.9876,645,20025,20025
Kansas,Manchester,49,49,48.0,0.0,City,49,306,0.16,39.0933,-97.3202,646,20041,20041
Kansas,Nashville,49,49,54.0,-0.02,City,50,239,0.205,37.4384,-98.4228,647,20095,20095
Kansas,Parkerville,48,48,48.0,0.0,City,48,375,0.128,38.7633,-96.6609,648,20127,20127
Kansas,Bluff City,47,47,47.0,0.0,City,47,93,0.506,37.0761,-97.8747,649,20077,20077
Kansas,Virgil,47,47,49.0,0.0,City,47,84,0.56,37.9805,-96.0112,650,20073,20073
Kansas,Alexander,46,46,50.0,-0.0212766,City,47,178,0.259,38.4694,-99.553,651,20165,20165
Kansas,Clayton,45,45,47.0,0.0,City,45,107,0.421,39.7369,-100.176,652,20137,20137
Kansas,Wallace,45,45,45.0,0.0,City,45,112,0.402,38.9127,-101.593,653,20199,20199
Kansas,Seward,44,44,46.0,0.0,City,44,171,0.257,38.1778,-98.7943,654,20185,20185
Kansas,Silverdale,44,44,59.0,0.0731707,CDP,41,42,1.038,37.0424,-96.9017,655,20035,20035
Kansas,Agenda,43,43,45.0,0.0,City,43,249,0.173,39.7066,-97.4322,656,20157,20157
Kansas,Hunnewell,43,43,42.0,0.0,City,43,77,0.556,37.0041,-97.4076,657,20191,20191
Kansas,Idana,43,43,,0.075,CDP,40,127,0.338,39.3615,-97.2664,658,20027,20027
Kansas,Mahaska,43,43,43.0,0.0,City,43,193,0.223,39.9873,-97.3536,659,20201,20201
Kansas,Neal,43,43,44.0,0.075,CDP,40,214,0.201,37.8338,-96.0808,660,20073,20073
Kansas,Climax,42,42,44.0,0.0,City,42,350,0.12,37.7192,-96.224,661,20073,20073
Kansas,Dresden,42,42,44.0,0.0,City,42,47,0.902,39.6228,-100.419,662,20039,20039
Kansas,Galatia,42,42,44.0,0.0,City,42,118,0.355,38.6411,-98.9578,663,20009,20009
Kansas,Athol,41,41,41.0,0.0,City,41,222,0.185,39.7662,-98.9197,664,20183,20183
Kansas,Elmdale,40,40,40.0,0.0,City,40,242,0.165,38.373,-96.646,665,20017,20017
Kansas,Langdon,40,40,40.0,0.0,City,40,404,0.099,37.8532,-98.3242,666,20155,20155
Kansas,St. Benedict,40,40,124.0,0.0810811,CDP,37,28,1.441,39.8929,-96.1029,667,20131,20131
Kansas,Vining,39,39,41.0,0.0,City,39,182,0.214,39.5673,-97.2936,668,20027,20027
Kansas,Leona,38,38,38.0,0.0,City,38,603,0.063,39.786,-95.3214,669,20043,20043
Kansas,Byers,37,37,37.0,0.0,City,37,219,0.169,37.7879,-98.8671,670,20151,20151
Kansas,Wilmore,37,37,37.0,0.0,City,37,209,0.177,37.335,-99.2102,671,20033,20033
Kansas,Carlton,36,36,36.0,0.0,City,36,212,0.17,38.6867,-97.2932,672,20041,20041
Kansas,Burdick,35,35,74.0,0.0606061,CDP,33,35,1.006,38.5589,-96.8472,673,20127,20127
Kansas,Lafontaine,35,35,48.0,0.0606061,CDP,33,18,1.996,37.3998,-95.8424,674,20205,20205
Kansas,Mont Ida,35,35,34.0,0.0606061,CDP,33,146,0.239,38.2169,-95.364,675,20003,20003
Kansas,South Mound,35,35,27.0,0.0606061,CDP,33,35,0.993,37.436,-95.2199,676,20133,20133
Kansas,Speed,34,34,36.0,0.0,City,34,228,0.149,39.6763,-99.421,677,20147,20147
Kansas,Sun City,34,34,36.0,0.0,City,34,233,0.146,37.3785,-98.9168,678,20007,20007
Kansas,Timken,34,34,38.0,-0.0285714,City,35,264,0.129,38.4732,-99.178,679,20165,20165
Kansas,Zeandale,34,34,62.0,0.0625,CDP,32,25,1.363,39.1628,-96.4279,680,20149,20149
Kansas,Paradise,33,33,33.0,0.0,City,33,134,0.247,39.1145,-98.9184,681,20167,20167
Kansas,Menlo,32,32,34.0,0.0,City,32,274,0.117,39.3561,-100.724,682,20179,20179
Kansas,Waldo,32,32,31.0,0.0,City,32,85,0.376,39.12,-98.7983,683,20167,20167
Kansas,Latimer,31,31,31.0,0.0,City,31,517,0.06,38.7386,-96.846,684,20127,20127
Kansas,Danville,29,29,29.0,0.0,City,29,349,0.083,37.286,-97.8921,685,20077,20077
Kansas,Home,29,29,171.0,-0.236842,CDP,38,7,3.96,39.841,-96.5194,686,20117,20117
Kansas,Bushong,28,28,28.0,0.0,City,28,184,0.152,38.6428,-96.2567,687,20197,20197
Kansas,Dunlap,28,28,28.0,0.0,City,28,114,0.246,38.5763,-96.3676,688,20111,20111
Kansas,Susank,28,28,30.0,0.0,City,28,283,0.099,38.6407,-98.7745,689,20009,20009
Kansas,Bavaria,27,27,47.0,0.0384615,CDP,26,118,0.228,38.7954,-97.7547,690,20169,20169
Kansas,Kickapoo Site 2,27,27,57.0,0.0384615,CDP,26,32,0.854,39.7029,-95.6495,691,20013,20013
Kansas,New Salem,27,27,21.0,0.0384615,CDP,26,74,0.367,37.3143,-96.8897,692,20035,20035
Kansas,Edmond,26,26,28.0,0.0,City,26,157,0.166,39.6271,-99.8199,693,20137,20137
Kansas,Richfield,26,26,28.0,0.0,City,26,26,1.003,37.2653,-101.783,694,20129,20129
Kansas,Webber,26,26,28.0,0.0,City,26,224,0.116,39.9344,-98.0351,695,20089,20089
Kansas,Oak Hill,25,25,25.0,0.0,City,25,490,0.051,39.2465,-97.343,696,20027,20027
Kansas,Scottsville,25,25,25.0,0.0,City,25,99,0.252,39.5426,-97.9523,697,20123,20123
Kansas,Urbana,25,25,24.0,0.0869565,CDP,23,15,1.705,37.558,-95.3999,698,20133,20133
Kansas,Big Bow,24,24,108.0,0.0909091,CDP,22,5,5.032,37.5609,-101.557,699,20187,20187
Kansas,Brownell,23,23,23.0,0.0,City,23,116,0.198,38.6406,-99.7443,700,20135,20135
Kansas,Hamlin,23,23,25.0,0.0,City,23,264,0.087,39.9155,-95.6275,701,20013,20013
Kansas,Bassett,22,22,22.0,0.0,City,22,328,0.067,37.9072,-95.4056,702,20001,20001
Kansas,Beaver,22,22,22.0,0.047619,CDP,21,4,6.112,38.6455,-98.6737,703,20009,20009
Kansas,Russell Springs,22,22,24.0,0.0,City,22,31,0.707,38.9128,-101.176,704,20109,20109
Kansas,Willis,22,22,24.0,0.0,City,22,134,0.164,39.7226,-95.5058,705,20013,20013
Kansas,Cedar Point,21,21,21.0,0.0,City,21,309,0.068,38.26,-96.8237,706,20017,20017
Kansas,Eastshore,21,21,26.0,0.05,CDP,20,22,0.964,38.3845,-97.0664,707,20115,20115
Kansas,Lone Elm,21,21,21.0,0.0,City,21,309,0.068,38.0796,-95.2431,708,20003,20003
Kansas,Radium,20,20,22.0,0.0,City,20,488,0.041,38.1738,-98.8945,709,20185,20185
Kansas,Ludell,19,19,29.0,0.0555556,CDP,18,50,0.377,39.8566,-100.958,710,20153,20153
Kansas,Ada,18,18,148.0,-0.217391,CDP,23,7,2.541,39.1622,-97.8859,711,20143,20143
Kansas,Penalosa,17,17,19.0,0.0,City,17,165,0.103,37.7156,-98.3203,712,20095,20095
Kansas,Mildred,15,15,23.0,0.0714286,CDP,14,22,0.682,38.0242,-95.1723,713,20001,20001
Kansas,Ogallah,15,15,10.0,0.0714286,CDP,14,9,1.601,38.9946,-99.7326,714,20195,20195
Kansas,Garland,14,14,11.0,0.0769231,CDP,13,65,0.214,37.7305,-94.6244,715,20011,20011
Kansas,Harris,14,14,8.0,0.0769231,CDP,13,40,0.354,38.3208,-95.4475,716,20003,20003
Kansas,Opolis,14,14,,0.0769231,CDP,13,20,0.685,37.3483,-94.6244,717,20037,20037
Kansas,Hollenberg,13,13,13.0,0.0,City,13,178,0.073,39.981,-96.9919,718,20201,20201
Kansas,Cedar,12,12,12.0,0.0,City,12,67,0.178,39.6571,-98.9402,719,20183,20183
Kansas,Edson,11,11,14.0,0.1,CDP,10,16,0.704,39.335,-101.549,720,20181,20181
Kansas,Frederick,11,11,8.0,0.1,City,10,57,0.192,38.5129,-98.2676,721,20159,20159
Kansas,Norway,11,11,16.0,0.1,CDP,10,5,2.265,39.6965,-97.7738,722,20157,20157
Kansas,Bridgeport,10,10,8.0,0.111111,CDP,9,48,0.208,38.6271,-97.614,723,20169,20169
Kansas,Waldron,9,9,9.0,0.0,City,9,29,0.311,37.0018,-98.1825,724,20077,20077
Kansas,Yoder,6,6,163.0,-0.684211,CDP,19,2,2.697,37.9455,-97.8681,725,20155,20155
Kansas,Woodruff,5,5,8.0,0.0,CDP,5,2,2.008,39.9876,-99.4316,726,20147,20147
Kansas,Kelly,1,1,3.0,0.0,CDP,1,4,0.241,39.7368,-96.0007,727,20131,20131
