state,city,population,pop2025,pop2020,growth,type,pop2024,densityMi,areaMi,lat,lng,rank,fips_code,geo_id
Kentucky,Louisville,617027,617027,631912,-0.00480158,Township,620004,2346,263.065,38.1654,-85.6474,1,21111,21111
Kentucky,Lexington,318505,318505,322627,-0.00258041,Urban County,319329,1122,283.855,38.0407,-84.4583,2,21067,21067
Kentucky,Bowling Green,78706,78706,72470,0.0160988,City,77459,1896,41.502,36.9757,-86.436,3,21227,21227
Kentucky,Owensboro,60052,60052,60272,-0.000732161,City,60096,2879,20.858,37.7571,-87.1167,4,21059,21059
Kentucky,Covington,40996,40996,40936,0.000292797,City,40984,3114,13.165,39.0351,-84.5196,5,21117,21117
Kentucky,Georgetown,40579,40579,37786,0.013968,City,40020,2312,17.552,38.2602,-84.5349,6,21067,21067
Kentucky,Richmond,38854,38854,34733,0.0216671,City,38030,1783,21.786,37.7291,-84.2994,7,21151,21151
Kentucky,Elizabethtown,34024,34024,31408,0.0156115,City,33501,1218,27.939,37.704,-85.8789,8,21093,21093
Kentucky,Florence,33488,33488,32060,0.00861394,City,33202,2996,11.176,38.9934,-84.6482,9,21015,21015
Kentucky,Nicholasville,33283,33283,31137,0.0130578,City,32854,2219,15.0,37.89,-84.5668,10,21067,21067
Kentucky,Hopkinsville,30572,30572,31174,-0.00390981,City,30692,932,32.811,36.8393,-87.4735,11,21059,21059
Kentucky,Independence,29983,29983,28783,0.00806913,City,29743,1690,17.738,38.9574,-84.5474,12,21117,21117
Kentucky,Jeffersontown,28406,28406,29180,-0.00542698,City,28561,2670,10.638,38.2055,-85.5697,13,21111,21111
Kentucky,Frankfort,28067,28067,28611,-0.00386854,City,28176,1900,14.77,38.195,-84.8659,14,21067,21067
Kentucky,Henderson,27462,27462,28141,-0.00492789,City,27598,1625,16.902,37.8384,-87.581,15,21059,21059
Kentucky,Paducah,26497,26497,27127,-0.00473275,City,26623,1302,20.347,37.0709,-88.6445,16,21059,21059
Kentucky,Radcliff,22565,22565,23025,-0.00406055,City,22657,1690,13.356,37.8201,-85.9364,17,21093,21093
Kentucky,Ashland,20864,20864,21589,-0.0069018,City,21009,1944,10.735,38.4595,-82.6451,18,21151,21151
Kentucky,Erlanger,19875,19875,19629,0.0024715,City,19826,2369,8.391,39.0394,-84.6001,19,21117,21117
Kentucky,Winchester,19312,19312,19167,0.00150391,City,19283,2093,9.229,38.0024,-84.1906,20,21067,21067
Kentucky,Madisonville,19233,19233,19538,-0.0031616,City,19294,1076,17.867,37.341,-87.5035,21,21059,21059
Kentucky,Mount Washington,18978,18978,18125,0.00909236,City,18807,1983,9.572,38.0426,-85.556,22,21111,21111
Kentucky,Burlington,18848,18848,18203,0.0103999,CDP,18654,2139,8.813,39.0223,-84.7216,23,21015,21015
Kentucky,Murray,18293,18293,17775,0.00571774,City,18189,1568,11.665,36.6142,-88.3221,24,21059,21059
Kentucky,Shelbyville,18109,18109,17346,0.00852083,City,17956,1960,9.24,38.2068,-85.2306,25,21111,21111
Kentucky,Danville,17426,17426,17318,0.00126408,City,17404,963,18.096,37.6393,-84.776,26,21151,21151
Kentucky,St. Matthews,17221,17221,17558,-0.00387552,City,17288,3907,4.408,38.2493,-85.6378,27,21111,21111
Kentucky,Fort Thomas,16673,16673,17423,-0.00891636,City,16823,2938,5.674,39.0824,-84.4571,28,21037,21037
Kentucky,Berea,16260,16260,15605,0.00812202,City,16129,985,16.511,37.5893,-84.2945,29,21151,21151
Kentucky,Glasgow,15511,15511,15016,0.00642357,City,15412,963,16.114,37.0048,-85.9259,30,21227,21227
Kentucky,Shively,15331,15331,15641,-0.0040278,City,15393,3353,4.572,38.1988,-85.8139,31,21111,21111
Kentucky,Shepherdsville,14988,14988,14245,0.0100411,City,14839,921,16.27,37.9814,-85.702,32,21111,21111
Kentucky,Bardstown,14000,14000,13579,0.00603622,City,13916,1156,12.107,37.8177,-85.4553,33,21111,21111
Kentucky,Newport,13588,13588,14147,-0.00817518,City,13700,4927,2.758,39.0861,-84.4869,34,21037,21037
Kentucky,Somerset,12463,12463,11973,0.0079256,City,12365,847,14.712,37.0865,-84.6053,35,21199,21199
Kentucky,Lawrenceburg,12365,12365,11732,0.0103775,City,12238,2053,6.022,38.0339,-84.9047,36,21067,21067
Kentucky,Campbellsville,11793,11793,11442,0.00597117,City,11723,1559,7.565,37.3439,-85.3522,37,21093,21093
Kentucky,Fort Campbell North,11596,11596,14363,-0.0119291,CDP,11736,1359,8.532,36.6632,-87.4765,38,21227,21227
Kentucky,Alexandria,10878,10878,10365,0.00955916,City,10775,1571,6.923,38.9678,-84.3846,39,21037,21037
Kentucky,Lyndon,10844,10844,11006,-0.00294226,City,10876,3011,3.601,38.263,-85.5879,40,21111,21111
Kentucky,La Grange,10651,10651,10066,0.0111069,City,10534,1476,7.217,38.3973,-85.3768,41,21111,21111
Kentucky,Franklin,10641,10641,10208,0.00824332,City,10554,714,14.896,36.718,-86.5576,42,21227,21227
Kentucky,Versailles,10577,10577,10362,0.00408202,City,10534,1668,6.341,38.0491,-84.725,43,21067,21067
Kentucky,Francisville,10569,10569,9520,0.0168366,CDP,10394,1246,8.482,39.1068,-84.7277,44,21015,21015
Kentucky,Oakbrook,10297,10297,9539,0.00822481,CDP,10213,3220,3.198,38.9967,-84.6804,45,21015,21015
Kentucky,Paris,10023,10023,10187,-0.00328162,City,10056,1261,7.947,38.2002,-84.2727,46,21067,21067
Kentucky,Middletown,9573,9573,9715,-0.00291636,City,9601,1864,5.136,38.2421,-85.5207,47,21111,21111
Kentucky,Mayfield,9533,9533,9982,-0.00935259,City,9623,1297,7.35,36.7375,-88.6445,48,21059,21059
Kentucky,Harrodsburg,9319,9319,9069,0.00539433,City,9269,1346,6.921,37.7681,-84.8488,49,21067,21067
Kentucky,Elsmere,9132,9132,9169,-0.000765948,City,9139,3475,2.628,38.9937,-84.6019,50,21117,21117
Kentucky,Hillview,9023,9023,8650,0.00838176,City,8948,1344,6.714,38.062,-85.6965,51,21111,21111
Kentucky,Middlesborough,8784,8784,9353,-0.0128119,City,8898,1190,7.384,36.6135,-83.7225,52,21199,21199
Kentucky,Fort Mitchell,8594,8594,8706,-0.00255339,City,8616,2775,3.097,39.0455,-84.5562,53,21117,21117
Kentucky,Maysville,8560,8560,8877,-0.00730604,City,8623,451,18.974,38.65,-83.793,54,21037,21037
Kentucky,Edgewood,8366,8366,8445,-0.00190885,City,8382,1963,4.262,39.0087,-84.5599,55,21117,21117
Kentucky,Fort Knox,8288,8288,8865,-0.0145065,CDP,8410,408,20.289,37.8916,-85.9671,56,21093,21093
Kentucky,Oak Grove,7996,7996,7938,0.00150301,City,7984,747,10.709,36.6738,-87.4225,57,21227,21227
Kentucky,Corbin,7845,7845,7834,0.000255004,City,7843,987,7.947,36.9316,-84.1008,58,21199,21199
Kentucky,Union,7821,7821,7445,0.00968242,City,7746,2174,3.598,38.9469,-84.6737,59,21015,21015
Kentucky,Villa Hills,7691,7691,7305,0.0101129,City,7614,2136,3.601,39.0655,-84.598,60,21117,21117
Kentucky,London,7607,7607,7579,0.000789369,City,7601,604,12.597,37.11,-84.0817,61,21199,21199
Kentucky,Mount Sterling,7579,7579,7558,0.000528052,City,7575,1686,4.495,38.0655,-83.9488,62,21151,21151
Kentucky,Russellville,7538,7538,7187,0.00937333,City,7468,686,10.992,36.8395,-86.8956,63,21227,21227
Kentucky,Pikeville,7243,7243,7728,-0.0132153,City,7340,349,20.764,37.4769,-82.5288,64,21151,21151
Kentucky,Flatwoods,7171,7171,7310,-0.00388943,City,7199,2051,3.497,38.5231,-82.7193,65,21151,21151
Kentucky,Vine Grove,7108,7108,6605,0.0144142,City,7007,1035,6.867,37.8119,-85.9844,66,21093,21093
Kentucky,Taylor Mill,6975,6975,6879,0.00273145,City,6956,1141,6.113,39.0088,-84.4995,67,21117,21117
Kentucky,Hebron,6776,6776,6845,0.00833333,CDP,6720,1056,6.419,39.0638,-84.7083,68,21015,21015
Kentucky,Lebanon,6669,6669,6289,0.0115274,City,6593,976,6.833,37.5702,-85.2601,69,21093,21093
Kentucky,Cynthiana,6663,6663,6340,0.00985147,City,6598,1518,4.39,38.383,-84.3018,70,21067,21067
Kentucky,Highland Heights,6583,6583,6655,-0.00212218,City,6597,2513,2.62,39.0355,-84.4566,71,21037,21037
Kentucky,Crestwood,6574,6574,6199,0.0115402,City,6499,1624,4.047,38.3437,-85.4777,72,21111,21111
Kentucky,Cold Spring,6540,6540,6225,0.00972672,City,6477,1378,4.747,39.0156,-84.4345,73,21037,21037
Kentucky,Leitchfield,6497,6497,6411,0.00262346,City,6480,604,10.757,37.4862,-86.2847,74,21093,21093
Kentucky,Morehead,6462,6462,7156,-0.0210574,City,6601,668,9.675,38.19,-83.4491,75,21151,21151
Kentucky,Fort Wright,6196,6196,5858,0.0110966,City,6128,1823,3.399,39.0458,-84.5361,76,21117,21117
Kentucky,Wilmore,6169,6169,6006,0.0053781,City,6136,1240,4.977,37.8778,-84.6639,77,21067,21067
Kentucky,Princeton,6151,6151,6258,-0.00340246,City,6172,685,8.986,37.1065,-87.8849,78,21059,21059
Kentucky,Dayton,5874,5874,5664,0.00720165,City,5832,4522,1.299,39.1123,-84.4628,79,21037,21037
Kentucky,Central City,5789,5789,5816,-0.000862961,City,5794,1105,5.237,37.2968,-87.129,80,21059,21059
Kentucky,Bellevue,5753,5753,5548,0.00717787,City,5712,6357,0.905,39.1012,-84.4775,81,21037,21037
Kentucky,Walton,5729,5729,5479,0.00880437,City,5679,1209,4.74,38.8624,-84.615,82,21117,21117
Kentucky,Monticello,5697,5697,5741,-0.00157729,City,5706,935,6.09,36.8411,-84.8513,83,21199,21199
Kentucky,Douglass Hills,5365,5365,5459,-0.00352897,City,5384,4046,1.326,38.2361,-85.5532,84,21111,21111
Kentucky,Hendron,5218,5218,4872,0.00675284,CDP,5183,977,5.34,37.0331,-88.6456,85,21059,21059
Kentucky,Williamsburg,5063,5063,5328,-0.0103597,City,5116,1214,4.169,36.7387,-84.1656,86,21199,21199
Kentucky,Columbia,4909,4909,4836,0.00306498,City,4894,1008,4.872,37.1034,-85.3075,87,21199,21199
Kentucky,Hazard,4785,4785,5232,-0.0182602,City,4874,642,7.45,37.2605,-83.1982,88,21151,21151
Kentucky,Massac,4776,4776,5154,0.0037831,CDP,4758,1181,4.043,37.0321,-88.6862,89,21059,21059
Kentucky,Benton,4765,4765,4765,0.0,City,4765,937,5.085,36.848,-88.3616,90,21059,21059
Kentucky,Crescent Springs,4694,4694,4334,0.0155777,City,4622,3142,1.494,39.0562,-84.5798,91,21117,21117
Kentucky,Scottsville,4692,4692,4294,0.0173461,City,4612,736,6.379,36.7493,-86.2076,92,21227,21227
Kentucky,Reidland,4686,4686,4334,0.00278194,CDP,4673,978,4.791,37.0082,-88.527,93,21059,21059
Kentucky,Hurstbourne,4617,4617,4687,-0.0030231,City,4631,2565,1.8,38.2394,-85.5914,94,21111,21111
Kentucky,Prospect,4542,4542,4596,-0.00241599,City,4553,1186,3.83,38.3469,-85.6089,95,21111,21111
Kentucky,Westwood,4540,4540,4654,-0.00307422,CDP,4554,1215,3.736,38.4788,-82.6809,96,21151,21151
Kentucky,Farley,4524,4524,4458,-0.00242558,CDP,4535,765,5.911,37.04,-88.5729,97,21059,21059
Kentucky,Greenville,4303,4303,4480,-0.00806823,City,4338,838,5.135,37.2105,-87.1776,98,21059,21059
Kentucky,Ludlow,4292,4292,4391,-0.00463822,City,4312,4686,0.916,39.0887,-84.5485,99,21117,21117
Kentucky,Crittenden,4156,4156,4030,0.0060518,City,4131,1221,3.405,38.7885,-84.6019,100,21117,21117
Kentucky,Lancaster,4150,4150,3900,0.0121951,City,4100,1644,2.524,37.617,-84.5818,101,21151,21151
Kentucky,Paintsville,4058,4058,4312,-0.0124118,City,4109,613,6.625,37.8203,-82.806,102,21151,21151
Kentucky,Williamstown,4002,4002,3907,0.00477027,City,3983,238,16.843,38.6398,-84.5725,103,21117,21117
Kentucky,Carrollton,3930,3930,3890,0.00203978,City,3922,1930,2.036,38.6796,-85.1658,104,21015,21015
Kentucky,Southgate,3818,3818,3652,0.00871863,City,3785,2619,1.458,39.0641,-84.4706,105,21037,21037
Kentucky,Grayson,3787,3787,3837,-0.00263366,City,3797,1365,2.775,38.3339,-82.9358,106,21151,21151
Kentucky,Rineyville,3758,3758,2407,0.0715711,CDP,3507,823,4.565,37.7422,-85.9664,107,21093,21093
Kentucky,Stanford,3728,3728,3652,0.00403986,City,3713,778,4.791,37.5307,-84.657,108,21151,21151
Kentucky,Claryville,3616,3616,2896,0.0237826,CDP,3532,502,7.201,38.914,-84.4095,109,21117,21117
Kentucky,Prestonsburg,3600,3600,3902,-0.0163934,City,3660,245,14.704,37.6816,-82.7659,110,21151,21151
Kentucky,West Liberty,3596,3596,3231,0.020721,City,3523,733,4.904,37.918,-83.2674,111,21151,21151
Kentucky,Russell,3582,3582,3736,-0.00858013,City,3613,941,3.808,38.513,-82.696,112,21151,21151
Kentucky,Beaver Dam,3474,3474,3533,-0.00344234,City,3486,1144,3.038,37.4038,-86.8736,113,21059,21059
Kentucky,Sorgho,3370,3370,2208,0.0715421,CDP,3145,711,4.742,37.7459,-87.2129,114,21059,21059
Kentucky,Hodgenville,3358,3358,3235,0.00750075,City,3333,1454,2.309,37.5634,-85.7312,115,21093,21093
Kentucky,Crestview Hills,3216,3216,3243,-0.00155231,City,3221,1694,1.899,39.0243,-84.5699,116,21117,21117
Kentucky,Stanton,3145,3145,3239,-0.00600506,City,3164,1382,2.276,37.8492,-83.8556,117,21151,21151
Kentucky,Park Hills,3135,3135,3170,-0.00222788,City,3142,4035,0.777,39.0671,-84.5327,118,21117,21117
Kentucky,Simpsonville,3123,3123,2985,0.00904685,City,3095,1327,2.353,38.2169,-85.3496,119,21111,21111
Kentucky,Buckner,3113,3113,5640,-0.0552352,CDP,3295,360,8.64,38.3899,-85.4526,120,21111,21111
Kentucky,Barbourville,3103,3103,3208,-0.00672215,City,3124,1169,2.655,36.8657,-83.8832,121,21199,21199
Kentucky,Morganfield,3069,3069,3253,-0.0119124,City,3106,1091,2.814,37.6889,-87.8814,122,21059,21059
Kentucky,Wilder,3050,3050,3174,-0.00813008,City,3075,845,3.608,39.0413,-84.4815,123,21037,21037
Kentucky,Flemingsburg,3009,3009,2956,0.00366911,City,2998,1118,2.691,38.4246,-83.7405,124,21067,21067
Kentucky,Springfield,2995,2995,2859,0.00909704,City,2968,728,4.114,37.6939,-85.2229,125,21111,21111
Kentucky,Thruston,2985,2985,2104,0.0714286,CDP,2786,1691,1.765,37.793,-87.0206,126,21059,21059
Kentucky,Brandenburg,2980,2980,2890,0.00607697,City,2962,695,4.285,37.997,-86.1803,127,21093,21093
Kentucky,Marion,2880,2880,2915,-0.00242466,City,2887,792,3.635,37.3317,-88.0812,128,21059,21059
Kentucky,Elk Creek,2869,2869,1848,0.0713219,CDP,2678,496,5.79,38.1152,-85.3716,129,21111,21111
Kentucky,Russell Springs,2839,2839,2726,0.00816761,City,2816,602,4.716,37.0507,-85.0805,130,21199,21199
Kentucky,Indian Hills,2832,2832,2887,-0.00386915,City,2843,1429,1.982,38.2882,-85.6709,131,21111,21111
Kentucky,Cadiz,2823,2823,2547,0.0198699,City,2768,941,2.999,36.8615,-87.8172,132,21059,21059
Kentucky,Lakeside Park,2796,2796,2843,-0.00320856,City,2805,3566,0.784,39.0342,-84.5668,133,21117,21117
Kentucky,Graymoor-Devondale,2795,2795,2847,-0.00356506,City,2805,3792,0.737,38.2732,-85.6166,134,21111,21111
Kentucky,Pioneer Village,2782,2782,2672,0.00797101,City,2760,2269,1.226,38.0563,-85.6793,135,21111,21111
Kentucky,Providence,2775,2775,2892,-0.00822016,City,2798,460,6.028,37.3991,-87.7517,136,21059,21059
Kentucky,Eminence,2765,2765,2712,0.00399419,City,2754,972,2.845,38.3637,-85.1769,137,21111,21111
Kentucky,Hartford,2634,2634,2666,-0.00227273,City,2640,928,2.837,37.4534,-86.8898,138,21059,21059
Kentucky,Louisa,2534,2534,2676,-0.010929,City,2562,1130,2.242,38.1116,-82.6152,139,21151,21151
Kentucky,Calvert City,2517,2517,2517,0.0,City,2517,141,17.869,37.0464,-88.3955,140,21059,21059
Kentucky,Hardinsburg,2490,2490,2385,0.00850547,City,2469,720,3.458,37.7714,-86.4508,141,21093,21093
Kentucky,Eddyville,2488,2488,2378,0.00892133,City,2466,359,6.927,37.0774,-88.0749,142,21059,21059
Kentucky,Masonville,2465,2465,1822,0.0409628,CDP,2368,238,10.357,37.6721,-87.0561,143,21059,21059
Kentucky,Morgantown,2460,2460,2494,-0.00283745,City,2467,739,3.327,37.2174,-86.7002,144,21227,21227
Kentucky,Mount Vernon,2458,2458,2453,0.000407,City,2457,873,2.814,37.3571,-84.3329,145,21199,21199
Kentucky,Anchorage,2457,2457,2502,-0.00364964,City,2466,830,2.959,38.2698,-85.5376,146,21111,21111
Kentucky,Windy Hills,2385,2385,2429,-0.0037594,City,2394,2592,0.92,38.2717,-85.6396,147,21111,21111
Kentucky,Cave City,2360,2360,2359,0.0,City,2360,534,4.419,37.1395,-85.9644,148,21227,21227
Kentucky,Elkton,2340,2340,2065,0.02407,City,2285,844,2.773,36.8161,-87.1611,149,21227,21227
Kentucky,Junction City,2299,2299,2274,0.0021796,City,2294,1146,2.006,37.5852,-84.7893,150,21199,21199
Kentucky,Horse Cave,2284,2284,2218,0.00572435,City,2271,726,3.145,37.1698,-85.9172,151,21093,21093
Kentucky,Tompkinsville,2278,2278,2298,-0.00175285,City,2282,694,3.284,36.7013,-85.693,152,21227,21227
Kentucky,Raceland,2276,2276,2338,-0.00524476,City,2288,917,2.481,38.5374,-82.7387,153,21037,21037
Kentucky,Greensburg,2267,2267,2181,0.00755556,City,2250,1115,2.033,37.2595,-85.4933,154,21093,21093
Kentucky,Hickman,2265,2265,2359,-0.00831874,City,2284,638,3.549,36.5666,-89.184,155,21059,21059
Kentucky,Fulton,2243,2243,2358,-0.01015,City,2266,775,2.893,36.5145,-88.8824,156,21059,21059
Kentucky,Irvine,2237,2237,2354,-0.010177,City,2260,1534,1.458,37.6964,-83.9683,157,21151,21151
Kentucky,Dry Ridge,2219,2219,2169,0.00452694,City,2209,430,5.162,38.6854,-84.6002,158,21117,21117
Kentucky,Falmouth,2209,2209,2214,-0.000452488,City,2210,1624,1.36,38.6718,-84.3309,159,21117,21117
Kentucky,Beattyville,2133,2133,2170,-0.00327103,City,2140,929,2.295,37.5868,-83.7069,160,21151,21151
Kentucky,Carlisle,2124,2124,2094,0.00283286,City,2118,1595,1.332,38.3158,-84.0334,161,21067,21067
Kentucky,Jackson,2056,2056,2235,-0.0172084,City,2092,820,2.508,37.5654,-83.3762,162,21151,21151
Kentucky,Dawson Springs,2050,2050,2452,-0.0375587,City,2130,534,3.842,37.1742,-87.6886,163,21059,21059
Kentucky,North Corbin,2001,2001,1842,0.00806045,CDP,1985,1163,1.72,36.9656,-84.0956,164,21199,21199
Kentucky,Liberty,1988,1988,2025,-0.00350877,City,1995,1063,1.871,37.318,-84.9305,165,21199,21199
Kentucky,Brooks,1986,1986,2223,-0.0139027,CDP,2014,562,3.532,38.0665,-85.7165,166,21111,21111
Kentucky,Hurstbourne Acres,1933,1933,1958,-0.00257998,City,1938,5587,0.346,38.2202,-85.5907,167,21111,21111
Kentucky,Jamestown,1887,1887,1859,0.00318979,City,1881,514,3.674,36.9906,-85.0644,168,21199,21199
Kentucky,Doe Valley,1856,1856,1969,-0.00268673,CDP,1861,457,4.06,37.9763,-86.1079,169,21093,21093
Kentucky,Ledbetter,1848,1848,1720,0.00598802,CDP,1837,269,6.877,37.0524,-88.4968,170,21059,21059
Kentucky,Lebanon Junction,1824,1824,1751,0.00829187,City,1809,323,5.642,37.8352,-85.7224,171,21093,21093
Kentucky,Harlan,1770,1770,1980,-0.0231788,City,1812,1301,1.36,36.8413,-83.3195,172,21199,21199
Kentucky,Jeffersonville,1770,1770,1704,0.00739898,City,1757,645,2.743,37.9745,-83.8555,173,21151,21151
Kentucky,Midway,1768,1768,1735,0.00397501,City,1761,1234,1.433,38.1465,-84.6861,174,21067,21067
Kentucky,Warsaw,1761,1761,1755,0.000568181,City,1760,1831,0.962,38.7836,-84.8925,175,21015,21015
Kentucky,Cumberland,1740,1740,1942,-0.0224719,City,1780,559,3.115,36.987,-82.9961,176,21151,21151
Kentucky,Munfordville,1728,1728,1685,0.0052356,City,1719,771,2.24,37.2789,-85.8987,177,21093,21093
Kentucky,Albany,1722,1722,1754,-0.00347222,City,1728,757,2.274,36.6905,-85.1355,178,21199,21199
Kentucky,Edmonton,1722,1722,1682,0.00466744,City,1714,452,3.807,36.9852,-85.6223,179,21093,21093
Kentucky,Jenkins,1721,1721,1895,-0.0199317,City,1756,195,8.845,37.1695,-82.648,180,21151,21151
Kentucky,Catlettsburg,1714,1714,1773,-0.00695249,City,1726,1285,1.334,38.417,-82.603,181,21151,21151
Kentucky,Lewisport,1705,1705,1772,-0.00756694,City,1718,1789,0.953,37.9307,-86.9028,182,21059,21059
Kentucky,Breckinridge Center,1693,1693,1961,-0.0145518,CDP,1718,645,2.624,37.6833,-87.8654,183,21059,21059
Kentucky,Pewee Valley,1664,1664,1588,0.00909642,City,1649,861,1.932,38.3122,-85.4896,184,21111,21111
Kentucky,Auburn,1663,1663,1597,0.00787879,City,1650,908,1.832,36.8645,-86.7096,185,21227,21227
Kentucky,Owenton,1657,1657,1686,-0.00360794,City,1663,870,1.904,38.539,-84.8392,186,21015,21015
Kentucky,Sturgis,1632,1632,1737,-0.0127042,City,1653,1042,1.566,37.5462,-87.9874,187,21059,21059
Kentucky,West Van Lear,1630,1630,1231,0.0716634,CDP,1521,1498,1.088,37.7821,-82.7872,188,21151,21151
Kentucky,Orchard Grass Hills,1625,1625,1542,0.0105721,City,1608,4188,0.388,38.3217,-85.5232,189,21111,21111
Kentucky,Owingsville,1600,1600,1587,0.00187852,City,1597,637,2.512,38.1366,-83.7553,190,21151,21151
Kentucky,Whitesburg,1586,1586,1765,-0.0221948,City,1622,506,3.132,37.1178,-82.823,191,21151,21151
Kentucky,Coal Run Village,1559,1559,1661,-0.0126662,City,1579,178,8.752,37.533,-82.5544,192,21151,21151
Kentucky,Pineville,1558,1558,1672,-0.0145478,City,1581,462,3.373,36.7475,-83.7069,193,21199,21199
Kentucky,Worthington Hills,1545,1545,1564,-0.00258231,City,1549,6035,0.256,38.3093,-85.527,194,21111,21111
Kentucky,Olive Hill,1522,1522,1581,-0.00782268,City,1534,765,1.99,38.3058,-83.1682,195,21151,21151
Kentucky,Sebree,1501,1501,1571,-0.00924092,City,1515,511,2.938,37.6012,-87.5115,196,21059,21059
Kentucky,Salyersville,1485,1485,1584,-0.013289,City,1505,601,2.469,37.7419,-83.0636,197,21151,21151
Kentucky,Pine Knot,1448,1448,1431,-0.00821918,CDP,1460,226,6.404,36.6656,-84.4398,198,21199,21199
Kentucky,Worthington,1428,1428,1498,-0.00970874,City,1442,1257,1.136,38.5511,-82.735,199,21037,21037
Kentucky,St. Regis Park,1408,1408,1438,-0.00424328,City,1414,4000,0.352,38.2287,-85.6168,200,21111,21111
Kentucky,Irvington,1401,1401,1353,0.00718907,City,1391,1444,0.97,37.8781,-86.2855,201,21093,21093
Kentucky,Burkesville,1399,1399,1371,0.00430725,City,1393,544,2.574,36.7901,-85.3646,202,21199,21199
Kentucky,Audubon Park,1392,1392,1437,-0.00642398,City,1401,4296,0.324,38.205,-85.727,203,21111,21111
Kentucky,Vanceburg,1378,1378,1428,-0.00720461,City,1388,951,1.449,38.5945,-83.3236,204,21037,21037
Kentucky,Manchester,1369,1369,1516,-0.0207439,City,1398,468,2.927,37.1481,-83.7638,205,21151,21151
Kentucky,Plano,1363,1363,1244,0.0118782,CDP,1347,1321,1.032,36.8772,-86.4165,206,21227,21227
Kentucky,West Buechel,1347,1347,1372,-0.00369822,City,1352,2108,0.639,38.1942,-85.6676,207,21111,21111
Kentucky,Taylorsville,1346,1346,1256,0.0135542,City,1328,1435,0.938,38.0323,-85.3495,208,21111,21111
Kentucky,Guthrie,1333,1333,1337,-0.000749625,City,1334,586,2.276,36.6513,-87.1715,209,21227,21227
Kentucky,Coldstream,1275,1275,1294,-0.00312744,City,1279,5795,0.22,38.3143,-85.5263,210,21111,21111
Kentucky,Beechwood Village,1247,1247,1277,-0.00478851,City,1253,4486,0.278,38.2567,-85.6296,211,21111,21111
Kentucky,Earlington,1242,1242,1259,-0.00240964,City,1245,440,2.821,37.2752,-87.5061,212,21059,21059
Kentucky,Silver Grove,1232,1232,1162,0.0114943,City,1218,1090,1.13,39.0401,-84.4003,213,21037,21037
Kentucky,Annville,1212,1212,831,0.00580913,CDP,1205,151,8.005,37.3317,-83.9628,214,21151,21151
Kentucky,Philpot,1212,1212,968,0.0706714,CDP,1132,369,3.284,37.7352,-87.0004,215,21059,21059
Kentucky,Heritage Creek,1199,1199,1209,-0.00166528,City,1201,2216,0.541,38.0907,-85.6092,216,21111,21111
Kentucky,Barbourmeade,1194,1194,1219,-0.00417014,City,1199,3023,0.395,38.2986,-85.6009,217,21111,21111
Kentucky,Clinton,1189,1189,1221,-0.00502092,City,1195,737,1.613,36.6658,-88.9941,218,21059,21059
Kentucky,Livermore,1180,1180,1224,-0.00756939,City,1189,1139,1.036,37.492,-87.1341,219,21059,21059
Kentucky,Stearns,1176,1176,1065,-0.0134228,CDP,1192,293,4.02,36.6943,-84.4745,220,21199,21199
Kentucky,Clay City,1169,1169,1191,-0.00341006,City,1173,1104,1.059,37.8608,-83.9297,221,21151,21151
Kentucky,Cloverport,1154,1154,1119,0.00610288,City,1147,770,1.498,37.8309,-86.6302,222,21059,21059
Kentucky,Whitley City,1143,1143,1633,-0.000874125,CDP,1144,495,2.307,36.7228,-84.4755,223,21199,21199
Kentucky,Brodhead,1127,1127,1119,0.00177778,City,1125,646,1.745,37.4065,-84.4166,224,21199,21199
Kentucky,Pleasant Ridge,1112,1112,634,0.0712909,CDP,1038,316,3.515,37.5954,-86.9925,225,21059,21059
Kentucky,Augusta,1085,1085,1097,-0.00183993,City,1087,912,1.19,38.7726,-84.0002,226,21037,21037
Kentucky,Cannonsburg,1076,1076,676,0.0141376,CDP,1061,617,1.743,38.3808,-82.6964,227,21151,21151
Kentucky,Verona,1069,1069,1222,-0.0228519,CDP,1094,87,12.234,38.8052,-84.6637,228,21015,21015
Kentucky,Hebron Estates,1058,1058,1013,0.0085796,City,1049,1790,0.591,38.0501,-85.6681,229,21111,21111
Kentucky,South Shore,1047,1047,1089,-0.00758294,City,1055,1487,0.704,38.7219,-82.9642,230,21037,21037
Kentucky,Camargo,1046,1046,1021,0.00480307,City,1041,478,2.187,37.9997,-83.8885,231,21151,21151
Kentucky,Greenup,1038,1038,1083,-0.00859599,City,1047,599,1.734,38.5718,-82.8263,232,21037,21037
Kentucky,Burgin,1011,1011,983,0.00597015,City,1005,805,1.256,37.7575,-84.7607,233,21067,21067
Kentucky,South Wallins,1005,1005,911,0.00903614,CDP,996,159,6.313,36.8109,-83.4,234,21199,21199
Kentucky,Muldraugh,998,998,1038,-0.00795229,City,1006,1905,0.524,37.9366,-85.9915,235,21093,21093
Kentucky,Watterson Park,991,991,1003,-0.0020141,City,993,688,1.44,38.1953,-85.6822,236,21111,21111
Kentucky,Bloomfield,987,987,959,0.00611621,City,981,685,1.441,37.9136,-85.3156,237,21111,21111
Kentucky,Northfield,979,979,996,-0.00305499,City,982,2079,0.471,38.2858,-85.6363,238,21111,21111
Kentucky,Nortonville,977,977,976,0.0,City,977,843,1.159,37.1851,-87.4555,239,21059,21059
Kentucky,Hawesville,975,975,1022,-0.00914634,City,984,601,1.623,37.8921,-86.7555,240,21059,21059
Kentucky,Clay,970,970,1030,-0.01222,City,982,1125,0.862,37.4759,-87.8203,241,21059,21059
Kentucky,Clarkson,963,963,937,0.00521921,City,958,905,1.064,37.4929,-86.227,242,21093,21093
Kentucky,Wurtland,959,959,984,-0.00518672,City,964,543,1.767,38.5496,-82.779,243,21037,21037
Kentucky,Elkhorn City,947,947,1032,-0.0176349,City,964,121,7.83,37.3203,-82.3523,244,21151,21151
Kentucky,Ryland Heights,943,943,925,0.00425985,City,939,178,5.288,38.9803,-84.4322,245,21117,21117
Kentucky,Goshen,942,942,894,0.0107296,City,932,4782,0.197,38.4034,-85.5837,246,21111,21111
Kentucky,Lynnview,924,924,946,-0.00431034,City,928,4968,0.186,38.1791,-85.7112,247,21111,21111
Kentucky,Woodlawn Park,923,923,945,-0.00431499,City,927,3814,0.242,38.2614,-85.6307,248,21111,21111
Kentucky,Ironville,919,919,1028,0.0710956,CDP,858,1183,0.777,38.4575,-82.6986,249,21151,21151
Kentucky,Rolling Hills,916,916,933,-0.00326442,City,919,4847,0.189,38.2825,-85.5784,250,21111,21111
Kentucky,West Point,915,915,950,-0.00759219,City,922,343,2.664,37.9848,-85.9549,251,21093,21093
Kentucky,Auxier,903,903,917,0.0180383,CDP,887,971,0.93,37.735,-82.7676,252,21151,21151
Kentucky,Brownsville,897,897,874,0.00560538,City,892,343,2.612,37.1949,-86.2653,253,21227,21227
Kentucky,New Castle,897,897,882,0.0033557,City,894,2188,0.41,38.4336,-85.1692,254,21111,21111
Kentucky,Dixon,896,896,926,-0.00665188,City,902,717,1.249,37.5137,-87.6884,255,21059,21059
Kentucky,Garrison,894,894,750,0.00224215,CDP,892,332,2.696,38.6067,-83.1819,256,21037,21037
Kentucky,Adairville,888,888,845,0.0102389,City,879,756,1.175,36.675,-86.8582,257,21227,21227
Kentucky,Bellemeade,885,885,905,-0.00449944,City,889,3020,0.293,38.251,-85.591,258,21111,21111
Kentucky,East Bernstadt,883,883,858,0.0126147,CDP,872,418,2.113,37.1927,-84.1292,259,21199,21199
Kentucky,Uniontown,883,883,927,-0.0100897,City,892,1039,0.85,37.7734,-87.9322,260,21059,21059
Kentucky,Pembroke,882,882,861,0.00455581,City,878,794,1.111,36.7745,-87.3595,261,21227,21227
Kentucky,Bellefonte,868,868,913,-0.0102623,City,877,985,0.881,38.4987,-82.6903,262,21151,21151
Kentucky,Ferguson,866,866,860,0.00115607,City,865,441,1.964,37.0628,-84.5986,263,21199,21199
Kentucky,Flat Lick,864,864,920,-0.00689655,CDP,870,181,4.781,36.8345,-83.7616,264,21199,21199
Kentucky,Langdon Place,858,858,872,-0.00348432,City,861,5018,0.171,38.2866,-85.5849,265,21111,21111
Kentucky,Campbellsburg,856,856,836,0.00469483,City,852,647,1.323,38.5137,-85.2317,266,21111,21111
Kentucky,La Center,850,850,879,-0.00700935,City,856,1405,0.605,37.0749,-88.9751,267,21059,21059
Kentucky,Stamping Ground,848,848,785,0.0155689,City,835,1442,0.588,38.2709,-84.6798,268,21067,21067
Kentucky,White Plains,841,841,828,0.00357995,City,838,259,3.252,37.1694,-87.3789,269,21059,21059
Kentucky,Fincastle,831,831,846,-0.00359712,City,834,3901,0.213,38.3082,-85.5415,270,21111,21111
Kentucky,New Haven,823,823,798,0.00611247,City,818,1419,0.58,37.6592,-85.5891,271,21093,21093
Kentucky,Smiths Grove,820,820,757,0.016109,City,807,1051,0.78,37.0502,-86.2081,272,21227,21227
Kentucky,Millstone,814,814,473,0.0598958,CDP,768,3804,0.214,37.1634,-82.7497,273,21151,21151
Kentucky,Plantation,809,809,828,-0.00492005,City,813,4005,0.202,38.2834,-85.5936,274,21111,21111
Kentucky,Pleasureville,808,808,780,0.0074813,City,802,1669,0.484,38.3515,-85.1112,275,21111,21111
Kentucky,Evarts,803,803,863,-0.0147239,City,815,2102,0.382,36.8651,-83.1925,276,21151,21151
Kentucky,McKee,803,803,805,0.0,City,803,334,2.406,37.4302,-83.9856,277,21151,21151
Kentucky,Perryville,793,793,790,0.00126263,City,792,1015,0.781,37.6502,-84.9508,278,21067,21067
Kentucky,Lewisburg,789,789,753,0.00895141,City,782,679,1.162,36.9872,-86.9502,279,21227,21227
Kentucky,Hollow Creek,782,782,801,-0.00508906,City,786,3385,0.231,38.1526,-85.6245,280,21111,21111
Kentucky,Blue Ridge Manor,780,780,789,-0.00255754,City,782,4194,0.186,38.2434,-85.5647,281,21111,21111
Kentucky,Powderly,778,778,787,-0.0025641,City,780,498,1.563,37.2394,-87.1539,282,21059,21059
Kentucky,Crab Orchard,765,765,744,0.00525624,City,761,438,1.746,37.4623,-84.507,283,21151,21151
Kentucky,Beechmont,762,762,592,0.00660502,CDP,757,419,1.819,37.1693,-87.0391,284,21059,21059
Kentucky,Hanson,746,746,750,-0.00133869,City,747,317,2.355,37.4188,-87.4807,285,21059,21059
Kentucky,Magnolia,739,739,695,0.0193103,CDP,725,362,2.039,37.4565,-85.7347,286,21093,21093
Kentucky,Millersburg,735,735,749,-0.00406504,City,738,1793,0.41,38.3052,-84.1432,287,21067,21067
Kentucky,Mortons Gap,724,724,721,0.00138312,City,723,611,1.184,37.2422,-87.4675,288,21059,21059
Kentucky,Corydon,722,722,731,-0.00276243,City,724,1330,0.543,37.7396,-87.7066,289,21059,21059
Kentucky,Artemus,714,714,724,0.0113314,CDP,706,529,1.35,36.8375,-83.84,290,21199,21199
Kentucky,Woodland Hills,714,714,731,-0.0041841,City,717,3384,0.211,38.2393,-85.5298,291,21111,21111
Kentucky,Loretto,712,712,717,-0.00140252,City,713,223,3.189,37.642,-85.3932,292,21093,21093
Kentucky,Bromley,711,711,726,-0.00420168,City,714,1896,0.375,39.0777,-84.5613,293,21117,21117
Kentucky,McRoberts,711,711,790,-0.00698324,CDP,716,127,5.603,37.2211,-82.668,294,21151,21151
Kentucky,Meadow Vale,711,711,728,-0.00420168,City,714,3247,0.219,38.2833,-85.5725,295,21111,21111
Kentucky,Salem,711,711,716,-0.00140449,City,712,835,0.852,37.2647,-88.2412,296,21059,21059
Kentucky,Upton,711,711,706,0.00140845,City,710,524,1.358,37.4587,-85.9002,297,21093,21093
Kentucky,Burnside,709,709,703,0.00141243,City,708,186,3.815,37.0043,-84.6437,298,21199,21199
Kentucky,Calhoun,706,706,726,-0.0056338,City,710,1080,0.654,37.5403,-87.259,299,21059,21059
Kentucky,Rolling Fields,702,702,719,-0.00425532,City,705,3026,0.232,38.2689,-85.6708,300,21111,21111
Kentucky,Green Spring,701,701,713,-0.00284495,City,703,2625,0.267,38.3167,-85.6146,301,21111,21111
Kentucky,Kuttawa,691,691,631,0.017673,City,679,316,2.188,37.0605,-88.1144,302,21059,21059
Kentucky,Bardwell,678,678,708,-0.00877193,City,684,785,0.864,36.8754,-89.0089,303,21059,21059
Kentucky,Strathmoor Village,665,665,685,-0.00597907,City,669,6394,0.104,38.2208,-85.6779,304,21111,21111
Kentucky,Pippa Passes,664,664,464,0.0641026,City,624,1489,0.446,37.3342,-82.8733,305,21151,21151
Kentucky,Spring Valley,661,661,676,-0.00451807,City,664,3338,0.198,38.2969,-85.6101,306,21111,21111
Kentucky,Betsy Layne,656,656,633,-0.00303951,CDP,658,363,1.808,37.552,-82.6247,307,21151,21151
Kentucky,Science Hill,652,652,652,0.0,City,652,851,0.766,37.1732,-84.6337,308,21199,21199
Kentucky,Seneca Gardens,651,651,671,-0.00610687,City,655,4255,0.153,38.228,-85.6764,309,21111,21111
Kentucky,Brooksville,650,650,655,-0.0015361,City,651,1377,0.472,38.6794,-84.0653,310,21037,21037
Kentucky,Chaplin,649,649,577,0.0236593,CDP,634,469,1.383,37.8991,-85.221,311,21111,21111
Kentucky,McDowell,645,645,618,0.0714286,CDP,602,260,2.477,37.4602,-82.728,312,21151,21151
Kentucky,Wickliffe,644,644,664,-0.00617284,City,648,415,1.552,36.9662,-89.0819,313,21059,21059
Kentucky,Butler,638,638,647,-0.003125,City,640,3358,0.19,38.7875,-84.3712,314,21117,21117
Kentucky,Crofton,633,633,655,-0.00627943,City,637,997,0.635,37.0479,-87.4835,315,21059,21059
Kentucky,Brownsboro Farm,629,629,643,-0.00474684,City,632,2771,0.227,38.3036,-85.593,316,21111,21111
Kentucky,Barlow,627,627,654,-0.00791139,City,632,1138,0.551,37.0508,-89.045,317,21059,21059
Kentucky,Hindman,625,625,700,-0.0234375,City,640,201,3.111,37.335,-82.9819,318,21151,21151
Kentucky,Frenchburg,623,623,600,0.00809061,City,618,742,0.84,37.9534,-83.6228,319,21151,21151
Kentucky,Sandy Hook,615,615,639,-0.00806452,City,620,626,0.982,38.0934,-83.1226,320,21151,21151
Kentucky,Park City,611,611,616,-0.00163399,City,612,416,1.468,37.0935,-86.0481,321,21227,21227
Kentucky,Parkway Village,605,605,620,-0.00493421,City,608,6875,0.088,38.2113,-85.7381,322,21111,21111
Kentucky,North Middletown,602,602,609,-0.00165837,City,603,1808,0.333,38.1425,-84.1102,323,21067,21067
Kentucky,Milton,596,596,585,0.003367,City,594,405,1.471,38.7223,-85.3803,324,21111,21111
Kentucky,Maceo,589,589,414,0.0190311,CDP,578,396,1.487,37.8563,-86.9936,325,21059,21059
Kentucky,Hardin,585,585,582,0.00171233,City,584,835,0.701,36.7651,-88.3022,326,21059,21059
Kentucky,Virgie,583,583,342,0.0373665,CDP,562,569,1.024,37.3323,-82.5824,327,21151,21151
Kentucky,Buffalo,582,582,486,0.0104167,CDP,576,493,1.181,37.507,-85.699,328,21093,21093
Kentucky,Lynch,581,581,651,-0.0235294,City,595,1943,0.299,36.9642,-82.9143,329,21151,21151
Kentucky,Glenview,580,580,592,-0.00343643,City,582,407,1.425,38.3016,-85.6521,330,21111,21111
Kentucky,Petersburg,579,579,368,-0.00515464,CDP,582,92,6.278,39.0476,-84.8537,331,21015,21015
Kentucky,Whitesville,578,578,580,0.0,City,578,1341,0.431,37.6831,-86.8698,332,21059,21059
Kentucky,Wingo,578,578,577,0.0,City,578,593,0.975,36.6414,-88.7411,333,21059,21059
Kentucky,Loyall,573,573,637,-0.0221843,City,586,1942,0.295,36.8519,-83.349,334,21199,21199
Kentucky,Emlyn,568,568,590,0.0161002,CDP,559,797,0.713,36.6993,-84.1419,335,21199,21199
Kentucky,Kevil,565,565,589,-0.00877193,City,570,993,0.569,37.0842,-88.8829,336,21059,21059
Kentucky,Sonora,563,563,567,-0.00177305,City,564,415,1.356,37.5323,-85.8956,337,21093,21093
Kentucky,Westwood,562,562,574,-0.0035461,City,564,4645,0.121,38.2796,-85.5842,338,21111,21111
Kentucky,Murray Hill,558,558,568,-0.00357143,City,560,4227,0.132,38.2909,-85.5876,339,21111,21111
Kentucky,Wellington,549,549,564,-0.00543478,City,552,6033,0.091,38.2166,-85.6703,340,21111,21111
Kentucky,Plum Springs,544,544,503,0.0149254,City,536,1024,0.531,37.0228,-86.3801,341,21227,21227
Kentucky,Ravenna,542,542,571,-0.0109489,City,548,1743,0.311,37.687,-83.9502,342,21151,21151
Kentucky,Yelvington,541,541,351,0.0712871,CDP,505,714,0.758,37.8491,-86.9779,343,21059,21059
Kentucky,Mayking,537,537,513,0.00561798,CDP,534,349,1.54,37.1363,-82.7746,344,21151,21151
Kentucky,Wallins Creek,536,536,408,0.072,CDP,500,1011,0.53,36.83,-83.4175,345,21199,21199
Kentucky,Caneyville,532,532,527,0.00188324,City,531,323,1.648,37.423,-86.4997,346,21227,21227
Kentucky,Bedford,528,528,525,0.00189753,City,527,1941,0.272,38.5962,-85.3171,347,21111,21111
Kentucky,Hollyvilla,507,507,517,-0.00392927,City,509,1487,0.341,38.0928,-85.7481,348,21111,21111
Kentucky,Fleming-Neon,506,506,543,-0.0136452,City,513,313,1.615,37.199,-82.7033,349,21151,21151
Kentucky,Kenvir,498,498,467,0.0268041,CDP,485,1705,0.292,36.8531,-83.1538,350,21151,21151
Kentucky,Inez,497,497,542,-0.0177866,City,506,288,1.723,37.8693,-82.5398,351,21151,21151
Kentucky,Bancroft,494,494,503,-0.00403226,City,496,3250,0.152,38.2864,-85.6104,352,21111,21111
Kentucky,Coldiron,487,487,415,0.0383795,CDP,469,2234,0.218,36.8283,-83.4529,353,21199,21199
Kentucky,Houston Acres,487,487,497,-0.00408998,City,489,3382,0.144,38.2148,-85.6145,354,21111,21111
Kentucky,Riverwood,479,479,488,-0.004158,City,481,2303,0.208,38.2836,-85.6619,355,21111,21111
Kentucky,Melbourne,478,478,458,0.00843882,City,474,572,0.835,39.0319,-84.3707,356,21037,21037
Kentucky,Gamaliel,477,477,484,-0.00209205,City,478,592,0.806,36.6403,-85.7935,357,21227,21227
Kentucky,Cawood,475,475,489,-0.0345528,CDP,492,326,1.458,36.7916,-83.2325,358,21199,21199
Kentucky,Martin,470,470,510,-0.0167364,City,478,642,0.732,37.5668,-82.7603,359,21151,21151
Kentucky,Crestview,469,469,449,0.00860215,City,465,2968,0.158,39.0246,-84.4156,360,21037,21037
Kentucky,Drakesboro,468,468,478,-0.00425532,City,470,848,0.552,37.2173,-87.0499,361,21059,21059
Kentucky,River Bluff,462,462,436,0.0109409,City,457,1958,0.236,38.3719,-85.604,362,21111,21111
Kentucky,Stanley,461,461,374,0.072093,CDP,430,551,0.836,37.8188,-87.2406,363,21059,21059
Kentucky,Fox Chase,457,457,439,0.00883002,City,453,1196,0.382,38.045,-85.6906,364,21111,21111
Kentucky,Wheelwright,454,454,498,-0.0194384,City,463,258,1.76,37.3392,-82.7186,365,21151,21151
Kentucky,Benham,446,446,508,-0.0262009,City,458,1906,0.234,36.9642,-82.9518,366,21151,21151
Kentucky,Cerulean,445,445,490,0.0206422,CDP,436,174,2.554,36.9514,-87.7145,367,21059,21059
Kentucky,Fordsville,443,443,443,0.0,City,443,989,0.448,37.6348,-86.7183,368,21059,21059
Kentucky,Robards,442,442,449,-0.00225734,City,443,146,3.026,37.6786,-87.5346,369,21059,21059
Kentucky,Island,439,439,434,0.0022831,City,438,1303,0.337,37.4426,-87.1472,370,21059,21059
Kentucky,Briarwood,436,436,445,-0.00456621,City,438,4589,0.095,38.2781,-85.5925,371,21111,21111
Kentucky,Van Lear,436,436,477,0.0712531,CDP,407,107,4.066,37.7766,-82.7479,372,21151,21151
Kentucky,Forest Hills,431,431,438,-0.00231481,City,432,1491,0.289,38.2168,-85.5856,373,21111,21111
Kentucky,Ages,430,430,365,0.0723192,CDP,401,772,0.557,36.8594,-83.2416,374,21151,21151
Kentucky,Norbourne Estates,427,427,437,-0.004662,City,429,5338,0.08,38.2466,-85.6465,375,21111,21111
Kentucky,Symsonia,426,426,529,-0.0296128,CDP,439,280,1.519,36.9185,-88.5255,376,21059,21059
Kentucky,Meadowview Estates,425,425,434,-0.00468384,City,427,5519,0.077,38.2231,-85.6357,377,21111,21111
Kentucky,Moorland,424,424,433,-0.00469483,City,426,4511,0.094,38.2724,-85.5803,378,21111,21111
Kentucky,Sacramento,419,419,426,-0.00238095,City,420,974,0.43,37.4166,-87.2679,379,21059,21059
Kentucky,Diablock,418,418,552,-0.0047619,CDP,420,2059,0.203,37.2285,-83.171,380,21151,21151
Kentucky,Centertown,412,412,417,-0.00242131,City,413,1316,0.313,37.4178,-86.996,381,21059,21059
Kentucky,Cecilia,406,406,552,-0.0263789,CDP,417,284,1.431,37.6617,-85.9488,382,21093,21093
Kentucky,Richlawn,406,406,416,-0.00490196,City,408,4020,0.101,38.2547,-85.6412,383,21111,21111
Kentucky,Hustonville,405,405,390,0.00746269,City,402,549,0.738,37.4799,-84.8141,384,21199,21199
Kentucky,Hazel,402,402,391,0.005,City,400,1149,0.35,36.5055,-88.3253,385,21059,21059
Kentucky,Kingsley,385,385,395,-0.00516796,City,387,5347,0.072,38.2219,-85.6727,386,21111,21111
Kentucky,Anthoston,376,376,284,0.0712251,CDP,351,583,0.645,37.7551,-87.5284,387,21059,21059
Kentucky,McHenry,375,375,375,0.0,City,375,580,0.647,37.3778,-86.9227,388,21059,21059
Kentucky,Fredonia,373,373,373,0.0,City,373,601,0.621,37.2078,-88.0617,389,21059,21059
Kentucky,Mount Olivet,373,373,343,0.0163488,City,367,451,0.827,38.5309,-84.0339,390,21067,21067
Kentucky,Norwood,373,373,378,-0.0026738,City,374,3161,0.118,38.2522,-85.6109,391,21111,21111
Kentucky,Poplar Hills,371,371,380,-0.00536193,City,373,14840,0.025,38.178,-85.693,392,21111,21111
Kentucky,Glenview Hills,369,369,373,-0.0027027,City,370,2929,0.126,38.2952,-85.6383,393,21111,21111
Kentucky,Sharpsburg,369,369,366,0.00271739,City,368,1873,0.197,38.2017,-83.9251,394,21067,21067
Kentucky,Wayland,369,369,388,-0.0107239,City,373,136,2.708,37.4559,-82.8026,395,21151,21151
Kentucky,Old Brownsboro Place,368,368,372,-0.00271003,City,369,2788,0.132,38.2893,-85.6131,396,21111,21111
Kentucky,Rockholds,364,364,204,-0.00546448,CDP,366,307,1.186,36.8316,-84.1077,397,21199,21199
Kentucky,Ghent,362,362,364,0.0,City,362,509,0.711,38.7325,-85.0637,398,21015,21015
Kentucky,Glencoe,353,353,348,0.00284091,City,352,200,1.761,38.725,-84.8233,399,21015,21015
Kentucky,Grand Rivers,349,349,349,0.0,City,349,190,1.837,37.0047,-88.2318,400,21059,21059
Kentucky,Ezel,348,348,226,0.0235294,CDP,340,393,0.885,37.8914,-83.4435,401,21151,21151
Kentucky,Sadieville,341,341,323,0.0118694,City,337,315,1.083,38.3878,-84.5513,402,21067,21067
Kentucky,Strathmoor Manor,337,337,349,-0.0058997,City,339,5912,0.057,38.219,-85.6836,403,21111,21111
Kentucky,Hunters Hollow,336,336,323,0.00900901,City,333,4667,0.072,38.0784,-85.6933,404,21111,21111
Kentucky,Utica,335,335,446,0.0702875,CDP,313,319,1.05,37.6017,-87.1124,405,21059,21059
Kentucky,Phelps,334,334,448,-0.102151,CDP,372,42,7.994,37.5091,-82.1606,406,21151,21151
Kentucky,Bellewood,332,332,339,-0.003003,City,333,4099,0.081,38.2608,-85.6594,407,21111,21111
Kentucky,Eubank,332,332,314,0.0121951,City,328,392,0.847,37.2784,-84.6526,408,21199,21199
Kentucky,Trenton,327,327,329,0.0,City,327,575,0.569,36.7209,-87.2622,409,21227,21227
Kentucky,Woodburn,325,325,304,0.0124611,City,321,751,0.433,36.8415,-86.5311,410,21227,21227
Kentucky,Cunningham,321,321,294,0.07,CDP,300,306,1.049,36.9123,-88.8872,411,21059,21059
Kentucky,Summersville,316,316,780,-0.0481928,CDP,332,109,2.89,37.3261,-85.5368,412,21093,21093
Kentucky,South Williamson,308,308,516,-0.0609756,CDP,328,156,1.974,37.6632,-82.2878,413,21151,21151
Kentucky,St. Joseph,304,304,267,0.0704225,CDP,284,833,0.365,37.6923,-87.3285,414,21059,21059
Kentucky,Willisburg,302,302,299,0.00332226,City,301,440,0.686,37.8103,-85.1196,415,21111,21111
Kentucky,Brownsboro Village,301,301,306,-0.00331126,City,302,4013,0.075,38.2629,-85.6659,416,21111,21111
Kentucky,Creekside,300,300,305,-0.00332226,City,301,3947,0.076,38.2915,-85.57,417,21111,21111
Kentucky,Vicco,299,299,323,-0.0164474,City,304,356,0.841,37.2161,-83.0608,418,21151,21151
Kentucky,Waverly,298,298,313,-0.00996678,City,301,1116,0.267,37.7097,-87.8151,419,21059,21059
Kentucky,Campton,295,295,315,-0.0133779,City,299,295,0.999,37.7352,-83.5472,420,21151,21151
Kentucky,Goose Creek,293,293,298,-0.00340136,City,294,4726,0.062,38.2934,-85.5896,421,21111,21111
Kentucky,Belfry,291,291,261,0.0698529,CDP,272,404,0.721,37.6194,-82.2684,422,21151,21151
Kentucky,Druid Hills,290,290,297,-0.00343643,City,291,3258,0.089,38.2649,-85.6618,423,21111,21111
Kentucky,Summer Shade,288,288,236,-0.00689655,CDP,290,142,2.034,36.8839,-85.7119,424,21227,21227
Kentucky,Coxton,286,286,154,0.071161,CDP,267,1382,0.207,36.8586,-83.2709,425,21151,21151
Kentucky,Spring Mill,286,286,291,-0.00348432,City,287,5107,0.056,38.1436,-85.6316,426,21111,21111
Kentucky,St. Charles,285,285,272,0.0106383,City,282,287,0.993,37.1905,-87.5497,427,21059,21059
Kentucky,Big Clifty,284,284,294,0.0716981,CDP,265,197,1.44,37.545,-86.151,428,21093,21093
Kentucky,Hardyville,280,280,180,0.0294118,CDP,272,444,0.631,37.2542,-85.7933,429,21093,21093
Kentucky,Pathfork,277,277,266,-0.0212014,CDP,283,223,1.242,36.7622,-83.4743,430,21199,21199
Kentucky,Hyden,276,276,301,-0.0177936,City,281,213,1.296,37.1568,-83.3758,431,21151,21151
Kentucky,Bradfordsville,275,275,269,0.00364964,City,274,1019,0.27,37.4947,-85.145,432,21199,21199
Kentucky,Bonnieville,273,273,267,0.00367647,City,272,475,0.575,37.3777,-85.9015,433,21093,21093
Kentucky,Wildwood,273,273,280,-0.00364964,City,274,3689,0.074,38.249,-85.5747,434,21111,21111
Kentucky,Lakeview Heights,268,268,277,-0.00740741,City,270,1901,0.141,38.152,-83.5043,435,21151,21151
Kentucky,Dunmor,261,261,169,0.0696721,CDP,244,101,2.596,37.0762,-86.986,436,21227,21227
Kentucky,Berry,260,260,250,0.00775194,City,258,1020,0.255,38.5184,-84.3817,437,21117,21117
Kentucky,Fancy Farm,260,260,515,-0.0510949,CDP,274,297,0.876,36.8007,-88.7937,438,21059,21059
Kentucky,McCarr,260,260,220,0.023622,CDP,254,1061,0.245,37.6178,-82.1706,439,21151,21151
Kentucky,Salt Lick,260,260,247,0.0116732,City,257,333,0.781,38.1195,-83.6157,440,21151,21151
Kentucky,Rockport,257,257,261,-0.00387597,City,258,370,0.695,37.3378,-86.989,441,21059,21059
Kentucky,Moseleyville,250,250,394,0.0729614,CDP,233,240,1.04,37.6795,-87.1956,442,21059,21059
Kentucky,Arlington,247,247,261,-0.012,City,250,657,0.376,36.7898,-89.0132,443,21059,21059
Kentucky,Sparta,243,243,232,0.00829875,City,241,39,6.248,38.6954,-84.9061,444,21015,21015
Kentucky,Broeck Pointe,242,242,247,-0.00411523,City,243,3408,0.071,38.2959,-85.5851,445,21111,21111
Kentucky,Smithland,236,236,240,-0.00421941,City,237,466,0.506,37.1388,-88.4048,446,21059,21059
Kentucky,Manor Creek,235,235,240,-0.00423729,City,236,4273,0.055,38.2979,-85.5882,447,21111,21111
Kentucky,Oneida,234,234,370,-0.0487805,CDP,246,115,2.043,37.2729,-83.6471,448,21151,21151
Kentucky,Corinth,231,231,228,0.00434783,City,230,109,2.118,38.4996,-84.6082,449,21117,21117
Kentucky,Warfield,230,230,257,-0.0212766,City,235,279,0.825,37.8391,-82.4223,450,21151,21151
Kentucky,Ewing,229,229,226,0.00438596,City,228,916,0.25,38.4278,-83.8621,451,21067,21067
Kentucky,Pleasant View,228,228,424,-0.0338983,CDP,236,289,0.79,36.6792,-84.128,452,21199,21199
Kentucky,Mentor,227,227,216,0.00888889,City,225,304,0.747,38.8908,-84.2482,453,21037,21037
Kentucky,Fountain Run,223,223,218,0.0045045,City,222,169,1.316,36.726,-85.9562,454,21227,21227
Kentucky,Dover,221,221,220,0.0,City,221,513,0.431,38.7567,-83.8884,455,21037,21037
Kentucky,Woodlawn,220,220,214,0.00456621,City,219,3729,0.059,39.0909,-84.4728,456,21037,21037
Kentucky,Salvisa,218,218,167,-0.0562771,CDP,231,118,1.84,37.9255,-84.8632,457,21067,21067
Kentucky,Crossgate,216,216,221,-0.00460829,City,217,4235,0.051,38.2793,-85.6296,458,21111,21111
Kentucky,Knottsville,208,208,247,0.0721649,CDP,194,301,0.692,37.773,-86.9115,459,21059,21059
Kentucky,Mackville,208,208,205,0.00483092,City,207,514,0.405,37.7341,-85.0696,460,21067,21067
Kentucky,Payne Gap,205,205,588,-0.0420561,CDP,214,89,2.303,37.1477,-82.6711,461,21151,21151
Kentucky,Glenview Manor,203,203,207,-0.00490196,City,204,2360,0.086,38.2907,-85.6332,462,21111,21111
Kentucky,Nebo,203,203,207,-0.00490196,City,204,819,0.248,37.3832,-87.6416,463,21059,21059
Kentucky,Boston,202,202,138,-0.0194175,CDP,206,103,1.963,37.7812,-85.6872,464,21093,21093
Kentucky,Allensville,201,201,160,0.0691489,CDP,188,176,1.143,36.717,-87.0686,465,21227,21227
Kentucky,Sanders,197,197,196,0.0,City,197,668,0.295,38.6547,-84.9467,466,21015,21015
Kentucky,Belleview,193,193,183,-0.0492611,CDP,203,142,1.36,38.9813,-84.8268,467,21015,21015
Kentucky,Lowes,193,193,80,0.0722222,CDP,180,282,0.685,36.8828,-88.7664,468,21059,21059
Kentucky,Gilbertsville,192,192,341,-0.0857143,CDP,210,189,1.018,37.0248,-88.311,469,21059,21059
Kentucky,Westport,191,191,253,-0.0255102,CDP,196,237,0.806,38.4918,-85.4721,470,21111,21111
Kentucky,Oakland,189,189,199,-0.0104712,City,191,135,1.397,37.0462,-86.2469,471,21227,21227
Kentucky,Beech Grove,187,187,270,-0.0157895,CDP,190,101,1.845,37.6213,-87.3873,472,21059,21059
Kentucky,Manitou,183,183,530,0.0,CDP,183,278,0.659,37.374,-87.5755,473,21059,21059
Kentucky,Slaughters,183,183,190,-0.00543478,City,184,796,0.23,37.4896,-87.5053,474,21059,21059
Kentucky,Maryhill Estates,180,180,182,0.0,City,180,4500,0.04,38.2664,-85.6532,475,21111,21111
Kentucky,Thornhill,180,180,184,-0.00552486,City,181,4000,0.045,38.2877,-85.625,476,21111,21111
Kentucky,Prestonville,179,179,173,0.00561798,City,178,825,0.217,38.682,-85.1935,477,21015,21015
Kentucky,Worthville,178,178,173,0.00564972,City,177,695,0.256,38.6101,-85.0669,478,21015,21015
Kentucky,Mockingbird Valley,176,176,180,-0.00564972,City,177,850,0.207,38.2704,-85.6793,479,21111,21111
Kentucky,LaFayette,174,174,179,-0.00571429,City,175,674,0.258,36.6602,-87.6581,480,21059,21059
Kentucky,Allen,172,172,184,-0.0114943,City,174,961,0.179,37.6116,-82.7291,481,21151,21151
Kentucky,Bremen,170,170,174,-0.00584795,City,171,821,0.207,37.3637,-87.2222,482,21059,21059
Kentucky,Ekron,168,168,173,-0.00591716,City,169,1037,0.162,37.9303,-86.1764,483,21093,21093
Kentucky,Bandana,166,166,302,-0.0119048,CDP,168,88,1.887,37.1449,-88.9421,484,21059,21059
Kentucky,Livingston,165,165,165,0.0,City,165,527,0.313,37.2972,-84.2151,485,21199,21199
Kentucky,Booneville,163,163,163,0.0,City,163,112,1.457,37.4735,-83.6828,486,21151,21151
Kentucky,Sycamore,163,163,167,-0.00609756,City,164,9588,0.017,38.2468,-85.5612,487,21111,21111
Kentucky,Spottsville,161,161,355,-0.0639535,CDP,172,342,0.471,37.8552,-87.4193,488,21059,21059
Kentucky,Cambridge,158,158,162,-0.00628931,City,159,2873,0.055,38.2217,-85.617,489,21111,21111
Kentucky,Raywick,155,155,154,0.0,City,155,173,0.896,37.5623,-85.4363,490,21093,21093
Kentucky,Farmington,148,148,119,-0.038961,CDP,154,96,1.534,36.6692,-88.5286,491,21059,21059
Kentucky,St. Mary,146,146,138,0.0138889,City,144,188,0.778,37.5825,-85.3415,492,21093,21093
Kentucky,Fairview,144,144,144,0.0,City,144,198,0.728,38.9991,-84.4834,493,21117,21117
Kentucky,Hickory,144,144,256,0.0746269,CDP,134,162,0.891,36.8174,-88.6479,494,21059,21059
Kentucky,Curdsville,142,142,100,0.0676692,CDP,133,532,0.267,37.7361,-87.3324,495,21059,21059
Kentucky,Hills Dales,141,141,143,0.0,City,141,1410,0.1,38.3002,-85.624,496,21111,21111
Kentucky,Crayne,139,139,280,-0.0211268,CDP,142,125,1.115,37.2826,-88.0862,497,21059,21059
Kentucky,Jeff,138,138,262,-0.08,CDP,150,182,0.757,37.2108,-83.1385,498,21151,21151
Kentucky,Lincolnshire,138,138,140,0.0,City,138,2875,0.048,38.2238,-85.6216,499,21111,21111
Kentucky,South Carrollton,138,138,140,0.0,City,138,545,0.253,37.3353,-87.1402,500,21059,21059
Kentucky,Fairfield,137,137,119,0.0300752,City,133,479,0.286,37.9312,-85.3861,501,21111,21111
Kentucky,Germantown,137,137,141,-0.00724638,City,138,1123,0.122,38.6559,-83.9642,502,21037,21037
Kentucky,Columbus,135,135,140,-0.00735294,City,136,425,0.318,36.7598,-89.1019,503,21059,21059
Kentucky,Poole,135,135,72,0.0714286,CDP,126,139,0.97,37.6396,-87.648,504,21059,21059
Kentucky,Smithfield,130,130,120,0.015625,City,128,956,0.136,38.3866,-85.2548,505,21111,21111
Kentucky,Sedalia,129,129,345,-0.0785714,CDP,140,109,1.183,36.6486,-88.6014,506,21059,21059
Kentucky,Cleaton,128,128,163,0.0756303,CDP,119,206,0.62,37.2514,-87.0906,507,21059,21059
Kentucky,Rosine,128,128,106,0.00787401,CDP,127,266,0.482,37.455,-86.7364,508,21059,21059
Kentucky,Dwale,124,124,192,-0.101449,CDP,138,204,0.609,37.6267,-82.7313,509,21151,21151
Kentucky,Arjay,120,120,265,0.0714286,CDP,112,194,0.62,36.8061,-83.6421,510,21199,21199
Kentucky,Hickory Hill,119,119,119,0.0,City,119,4577,0.026,38.2877,-85.5679,511,21111,21111
Kentucky,Meadowbrook Farm,116,116,116,0.0,City,116,4296,0.027,38.2783,-85.5743,512,21111,21111
Kentucky,Rochester,115,115,112,0.00877193,City,114,247,0.465,37.2086,-86.8924,513,21227,21227
Kentucky,Pryorsburg,112,112,228,-0.111111,CDP,126,90,1.245,36.6898,-88.7064,514,21059,21059
Kentucky,Monterey,110,110,110,0.0,City,110,428,0.257,38.4248,-84.8714,515,21015,21015
Kentucky,Water Valley,110,110,135,0.0679612,CDP,103,206,0.534,36.5687,-88.81,516,21059,21059
Kentucky,Keene,106,106,100,0.00952381,City,105,862,0.123,37.9422,-84.6428,517,21067,21067
Kentucky,Kenton Vale,101,101,106,-0.00980392,City,102,1870,0.054,39.0514,-84.5199,518,21117,21117
Kentucky,Wheatcroft,100,100,105,-0.00990099,City,101,407,0.246,37.4893,-87.8612,519,21059,21059
Kentucky,Elizaville,97,97,106,-0.0582524,CDP,103,95,1.026,38.415,-83.8202,520,21067,21067
Kentucky,Ten Broeck,90,90,94,-0.010989,City,91,413,0.218,38.2977,-85.578,521,21111,21111
Kentucky,California,82,82,79,0.0123457,City,81,373,0.22,38.9184,-84.2636,522,21037,21037
Kentucky,Buckhorn,80,80,87,-0.0123457,City,81,237,0.337,37.3466,-83.4698,523,21151,21151
Kentucky,Hiseville,76,76,178,-0.126437,CDP,87,104,0.73,37.1001,-85.8154,524,21093,21093
Kentucky,Fairview,75,75,235,-0.157303,CDP,89,62,1.207,36.8422,-87.3108,525,21227,21227
Kentucky,Woodbury,71,71,73,0.0,City,71,497,0.143,37.1832,-86.6349,526,21227,21227
Kentucky,Blandville,69,69,73,-0.0142857,City,70,330,0.209,36.946,-88.9636,527,21059,21059
Kentucky,Blaine,68,68,68,0.0,City,68,240,0.283,38.0252,-82.8432,528,21151,21151
Kentucky,Rabbit Hash,68,68,269,-0.190476,CDP,84,13,5.101,38.9292,-84.8521,529,21015,21015
Kentucky,Burna,62,62,66,-0.173333,CDP,75,46,1.344,37.2448,-88.3579,530,21059,21059
Kentucky,Gracey,62,62,71,-0.0746269,CDP,67,258,0.24,36.8794,-87.6637,531,21059,21059
Kentucky,Gratz,62,62,64,0.0,City,62,178,0.348,38.4734,-84.9464,532,21015,21015
Kentucky,Sardis,61,61,63,0.0,City,61,61,0.999,38.5336,-83.9517,533,21067,21067
Kentucky,Mays Lick,57,57,250,-0.173913,CDP,69,89,0.638,38.5198,-83.8461,534,21067,21067
Kentucky,Dexter,55,55,130,-0.202899,CDP,69,100,0.55,36.7394,-88.296,535,21059,21059
Kentucky,Cayce,54,54,142,-0.0847458,CDP,59,33,1.631,36.5592,-89.0342,536,21059,21059
Kentucky,McKinney,46,46,98,0.0697674,CDP,43,109,0.422,37.4533,-84.7587,537,21199,21199
Kentucky,Carrsville,45,45,47,0.0,City,45,692,0.065,37.398,-88.3754,538,21059,21059
Kentucky,Combs,43,43,178,0.075,CDP,40,134,0.321,37.2692,-83.2157,539,21151,21151
Kentucky,Freeburn,39,39,265,-0.380952,CDP,63,32,1.208,37.562,-82.1514,540,21151,21151
Kentucky,Marrowbone,39,39,102,-0.235294,CDP,51,31,1.274,36.8348,-85.5031,541,21227,21227
Kentucky,Concord,19,19,19,0.0,City,19,306,0.062,38.6881,-83.4921,542,21037,21037
Kentucky,Maytown,16,16,113,0.0666667,CDP,15,28,0.57,37.5335,-82.8015,543,21151,21151
Kentucky,New Hope,12,12,63,-0.368421,CDP,19,19,0.617,37.626,-85.504,544,21093,21093
Kentucky,Tolu,10,10,18,0.111111,CDP,9,29,0.347,37.4337,-88.2448,545,21059,21059
Kentucky,Hazel Green,7,7,81,-0.681818,CDP,22,7,1.076,37.8028,-83.4198,546,21151,21151
Kentucky,South Park View,0,0,0,,City,0,0,0.123,38.1184,-85.72,547,21111,21111
