state,city,population,pop2025,pop2020,growth,type,pop2024,densityMi,areaMi,lat,lng,rank,fips_code,geo_id
Nebraska,Omaha,477053,477053,492758.0,-0.00654111,City,480194,3337,142.98,41.2627,-96.0535,1,31055,31055
Nebraska,Lincoln,296839,296839,291633.0,0.00351929,City,295798,2969,99.97,40.8089,-96.6779,2,31109,31109
Nebraska,Bellevue,63085,63085,65177.0,-0.00658237,City,63503,2849,22.145,41.1633,-95.9033,3,31153,31153
Nebraska,Grand Island,52350,52350,53029.0,-0.00259117,City,52486,1738,30.117,40.9214,-98.3586,4,31079,31079
Nebraska,Kearney,34684,34684,33879.0,0.00466356,City,34523,2316,14.974,40.7017,-99.0823,5,31019,31019
Nebraska,Fremont,27927,27927,27114.0,0.00587091,City,27764,2542,10.987,41.4398,-96.487,6,31053,31053
Nebraska,Norfolk,26319,26319,25889.0,0.00327831,City,26233,1451,18.143,42.0282,-97.4278,7,31119,31119
Nebraska,Hastings,24733,24733,25140.0,-0.00326429,City,24814,1663,14.875,40.5963,-98.3903,8,31001,31001
Nebraska,Columbus,24722,24722,24076.0,0.0052454,City,24593,2331,10.606,41.4371,-97.3574,9,31141,31141
Nebraska,Papillion,23396,23396,24383.0,-0.00834993,City,23593,1954,11.976,41.1434,-96.0781,10,31153,31153
Nebraska,North Platte,22000,22000,23307.0,-0.0117245,City,22261,1609,13.669,41.1253,-100.763,11,31111,31111
Nebraska,La Vista,16058,16058,16777.0,-0.00888779,City,16202,2850,5.635,41.1818,-96.0682,12,31153,31153
Nebraska,Scottsbluff,14224,14224,14426.0,-0.00280426,City,14264,2145,6.631,41.8681,-103.662,13,31157,31157
Nebraska,South Sioux City,13744,13744,14023.0,-0.00405797,City,13800,2182,6.299,42.463,-96.4132,14,31043,31043
Nebraska,Beatrice,12282,12282,12231.0,0.000814863,City,12272,1298,9.465,40.2733,-96.746,15,31067,31067
Nebraska,Lexington,10917,10917,10664.0,0.00469354,City,10866,2151,5.076,40.7773,-99.7466,16,31047,31047
Nebraska,Chalco,10323,10323,10092.0,-0.00434028,CDP,10368,3840,2.688,41.1824,-96.1354,17,31153,31153
Nebraska,Gretna,8880,8880,9314.0,-0.00970224,City,8967,1277,6.952,41.1279,-96.1969,18,31153,31153
Nebraska,Gering,8476,8476,8613.0,-0.00317535,City,8503,1527,5.551,41.827,-103.663,19,31157,31157
Nebraska,York,8260,8260,8060.0,0.00486618,City,8220,1266,6.527,40.8704,-97.5927,20,31185,31185
Nebraska,Blair,8067,8067,7816.0,0.00623675,City,8017,1464,5.511,41.5416,-96.1353,21,31177,31177
Nebraska,Alliance,7991,7991,8153.0,-0.00398853,City,8023,1633,4.894,42.1026,-102.876,22,31013,31013
Nebraska,Seward,7655,7655,7697.0,-0.00104398,City,7663,1741,4.396,40.9092,-97.0961,23,31159,31159
Nebraska,Nebraska City,7548,7548,7212.0,0.00895602,City,7481,1518,4.973,40.6759,-95.8616,24,31131,31131
Nebraska,Crete,7436,7436,7565.0,-0.00348432,City,7462,1888,3.938,40.6248,-96.9537,25,31151,31151
Nebraska,McCook,7145,7145,7414.0,-0.00750104,City,7199,1309,5.459,40.2045,-100.622,26,31145,31145
Nebraska,Plattsmouth,6947,6947,6599.0,0.0101789,City,6877,2095,3.316,41.0053,-95.8929,27,31025,31025
Nebraska,Schuyler,6527,6527,6531.0,-0.000153186,City,6528,2386,2.735,41.4501,-97.0616,28,31037,31037
Nebraska,Sidney,6456,6456,6416.0,0.00124069,City,6448,863,7.484,41.1336,-102.97,29,31033,31033
Nebraska,Ralston,6345,6345,6484.0,-0.00439354,City,6373,3883,1.634,41.2,-96.0378,30,31153,31153
Nebraska,Wayne,6295,6295,5970.0,0.0104334,City,6230,2166,2.906,42.2375,-97.0089,31,31179,31179
Nebraska,Offutt AFB,5873,5873,5280.0,0.0141599,CDP,5791,1481,3.965,41.121,-95.9211,32,31153,31153
Nebraska,Holdrege,5556,5556,5520.0,0.00126149,City,5549,1313,4.231,40.4394,-99.377,33,31137,31137
Nebraska,Chadron,5123,5123,5178.0,-0.00214258,City,5134,1313,3.902,42.826,-103.002,34,31045,31045
Nebraska,Wahoo,5091,5091,4831.0,0.0103195,City,5039,1738,2.93,41.2171,-96.6178,35,31155,31155
Nebraska,Aurora,4730,4730,4665.0,0.00275599,City,4717,1443,3.278,40.8647,-98.0081,36,31081,31081
Nebraska,Waverly,4569,4569,4291.0,0.0124086,City,4513,1860,2.457,40.9117,-96.5338,37,31109,31109
Nebraska,Ogallala,4553,4553,4870.0,-0.0136482,City,4616,918,4.957,41.1296,-101.721,38,31101,31101
Nebraska,Falls City,3985,3985,4134.0,-0.00747198,City,4015,1192,3.343,40.0622,-95.599,39,31147,31147
Nebraska,Cozad,3900,3900,3982.0,-0.0040858,City,3916,1491,2.616,40.8613,-99.9864,40,31047,31047
Nebraska,Fairbury,3738,3738,3973.0,-0.0124174,City,3785,1474,2.536,40.1447,-97.1765,41,31095,31095
Nebraska,O'Neill,3577,3577,3571.0,0.000279642,City,3576,1529,2.339,42.4615,-98.647,42,31089,31089
Nebraska,Broken Bow,3562,3562,3512.0,0.00281532,City,3552,1763,2.02,41.4052,-99.6408,43,31041,31041
Nebraska,Ashland,3546,3546,3098.0,0.0260417,City,3456,2581,1.374,41.0399,-96.3725,44,31153,31153
Nebraska,Auburn,3527,3527,3477.0,0.00284333,City,3517,1618,2.18,40.3894,-95.8436,45,31127,31127
Nebraska,Hickman,3518,3518,2625.0,0.0536089,City,3339,3948,0.891,40.625,-96.6296,46,31109,31109
Nebraska,West Point,3429,3429,3501.0,-0.00406622,City,3443,1193,2.875,41.8377,-96.7059,47,31039,31039
Nebraska,Gothenburg,3398,3398,3478.0,-0.00468658,City,3414,936,3.631,40.9247,-100.154,48,31047,31047
Nebraska,Valley,3360,3360,3049.0,0.0187993,City,3298,693,4.851,41.3118,-96.3555,49,31055,31055
Nebraska,Minden,3144,3144,3123.0,0.00127389,City,3140,1427,2.203,40.4982,-98.967,50,31099,31099
Nebraska,Central City,3134,3134,3024.0,0.00706941,City,3112,1287,2.436,41.113,-98.0003,51,31121,31121
Nebraska,David City,3040,3040,3000.0,0.00263852,City,3032,725,4.193,41.2533,-97.1264,52,31023,31023
Nebraska,Valentine,2633,2633,2628.0,0.000379939,City,2632,999,2.635,42.8755,-100.547,53,31031,31031
Nebraska,St. Paul,2433,2433,2417.0,0.00123457,City,2430,1939,1.255,41.2137,-98.4594,54,31093,31093
Nebraska,Milford,2251,2251,2151.0,0.00896459,City,2231,2835,0.794,40.7726,-97.0541,55,31159,31159
Nebraska,Kimball,2136,2136,2275.0,-0.012939,City,2164,909,2.351,41.2324,-103.652,56,31105,31105
Nebraska,Madison,2135,2135,2270.0,-0.0124884,City,2162,1817,1.175,41.8283,-97.4567,57,31119,31119
Nebraska,Geneva,2129,2129,2143.0,-0.00140713,City,2132,906,2.349,40.5307,-97.5971,58,31059,31059
Nebraska,Ord,2054,2054,2113.0,-0.00580833,City,2066,978,2.101,41.6028,-98.9193,59,31175,31175
Nebraska,Dakota City,2023,2023,2083.0,-0.0058968,City,2035,1441,1.404,42.4181,-96.4207,60,31043,31043
Nebraska,Syracuse,1998,1998,1938.0,0.0060423,City,1986,1565,1.277,40.6635,-96.1827,61,31131,31131
Nebraska,Gibbon,1932,1932,1882.0,0.00520291,City,1922,2208,0.875,40.7459,-98.8458,62,31019,31019
Nebraska,Bennington,1927,1927,2024.0,-0.00976362,City,1946,2148,0.897,41.3676,-96.1617,63,31055,31055
Nebraska,Imperial,1907,1907,2061.0,-0.0159959,City,1938,630,3.025,40.5144,-101.637,64,31029,31029
Nebraska,Wilber,1905,1905,1970.0,-0.00677789,City,1918,2150,0.886,40.4809,-96.9649,65,31151,31151
Nebraska,Superior,1830,1830,1820.0,0.00109409,City,1828,831,2.201,40.0217,-98.0618,66,31129,31129
Nebraska,Pierce,1801,1801,1853.0,-0.00552181,City,1811,1986,0.907,42.1995,-97.5292,67,31139,31139
Nebraska,Tekamah,1716,1716,1713.0,0.00058309,City,1715,1092,1.572,41.7778,-96.2245,68,31021,31021
Nebraska,Albion,1673,1673,1690.0,-0.00178998,City,1676,1602,1.044,41.6872,-97.9987,69,31011,31011
Nebraska,Tecumseh,1646,1646,1705.0,-0.00723764,City,1658,1089,1.511,40.3718,-96.1887,70,31097,31097
Nebraska,Woodland Park,1602,1602,1418.0,-0.0111111,CDP,1620,1024,1.564,42.0542,-97.3452,71,31167,31167
Nebraska,Ainsworth,1574,1574,1613.0,-0.00505689,City,1582,1568,1.004,42.5484,-99.8575,72,31017,31017
Nebraska,Stanton,1529,1529,1521.0,0.00130976,City,1527,879,1.739,41.948,-97.2123,73,31167,31167
Nebraska,Mitchell,1515,1515,1545.0,-0.00394477,City,1521,2258,0.671,41.9427,-103.81,74,31157,31157
Nebraska,Springfield,1509,1509,1508.0,0.0,City,1509,934,1.616,41.1072,-96.1485,75,31153,31153
Nebraska,Neligh,1503,1503,1533.0,-0.00397614,City,1509,1028,1.462,42.1291,-98.0292,76,31003,31003
Nebraska,Wakefield,1493,1493,1527.0,-0.00466667,City,1500,1406,1.062,42.2667,-96.8629,77,31179,31179
Nebraska,Hartington,1489,1489,1514.0,-0.00334672,City,1494,1510,0.986,42.6202,-97.2671,78,31027,31027
Nebraska,Yutan,1467,1467,1362.0,0.0145228,City,1446,2556,0.574,41.243,-96.3957,79,31155,31155
Nebraska,Louisville,1457,1457,1334.0,0.0174581,City,1432,2188,0.666,40.9965,-96.1613,80,31025,31025
Nebraska,Sutton,1454,1454,1451.0,0.000688231,City,1453,841,1.728,40.6073,-97.859,81,31035,31035
Nebraska,Bridgeport,1438,1438,1463.0,-0.003465,City,1443,1200,1.198,41.6647,-103.097,82,31123,31123
Nebraska,Gordon,1408,1408,1497.0,-0.0126227,City,1426,1511,0.932,42.8064,-102.204,83,31161,31161
Nebraska,Oakland,1350,1350,1372.0,-0.00295421,City,1354,1423,0.949,41.8351,-96.467,84,31021,31021
Nebraska,Hebron,1344,1344,1453.0,-0.0161054,City,1366,911,1.475,40.1687,-97.5863,85,31169,31169
Nebraska,Ravenna,1342,1342,1442.0,-0.0146843,City,1362,859,1.562,41.0293,-98.8982,86,31163,31163
Nebraska,Wymore,1326,1326,1371.0,-0.00674157,City,1335,742,1.787,40.1228,-96.6642,87,31067,31067
Nebraska,Arlington,1315,1315,1304.0,0.00152323,Village,1313,2199,0.598,41.4549,-96.3565,88,31177,31177
Nebraska,Atkinson,1312,1312,1306.0,0.000762776,City,1311,802,1.636,42.5309,-98.9747,89,31089,31089
Nebraska,Eagle,1285,1285,1089.0,0.0313002,Village,1246,3024,0.425,40.8159,-96.4326,90,31109,31109
Nebraska,Plainview,1252,1252,1282.0,-0.00476948,City,1258,1157,1.082,42.3533,-97.7871,91,31139,31139
Nebraska,North Bend,1222,1222,1276.0,-0.00892133,City,1233,1082,1.129,41.462,-96.7858,92,31053,31053
Nebraska,Wisner,1222,1222,1237.0,-0.00244898,City,1225,996,1.227,41.9897,-96.9149,93,31039,31039
Nebraska,Fullerton,1197,1197,1257.0,-0.00992556,City,1209,893,1.34,41.365,-97.9723,94,31125,31125
Nebraska,Sutherland,1188,1188,1300.0,-0.0181818,Village,1210,913,1.301,41.1601,-101.123,95,31111,31111
Nebraska,Battle Creek,1181,1181,1191.0,-0.00169062,City,1183,1673,0.706,41.9981,-97.5995,96,31119,31119
Nebraska,Stromsburg,1158,1158,1150.0,0.0017301,City,1156,1144,1.012,41.1164,-97.5906,97,31143,31143
Nebraska,Wood River,1144,1144,1178.0,-0.00608167,City,1151,1011,1.131,40.8196,-98.6042,98,31079,31079
Nebraska,Bayard,1114,1114,1139.0,-0.00446827,City,1119,1603,0.695,41.7572,-103.323,99,31123,31123
Nebraska,Fort Calhoun,1101,1101,1095.0,0.00090909,City,1100,1612,0.683,41.4562,-96.0263,100,31177,31177
Nebraska,Grant,1097,1097,1194.0,-0.0170251,City,1116,1401,0.783,40.8446,-101.726,101,31135,31135
Nebraska,Creighton,1094,1094,1149.0,-0.00995475,City,1105,904,1.21,42.4649,-97.9071,102,31107,31107
Nebraska,Henderson,1086,1086,1081.0,0.000921658,City,1085,1648,0.659,40.7803,-97.8122,103,31185,31185
Nebraska,Bennet,1078,1078,1082.0,-0.000926784,Village,1079,2081,0.518,40.6817,-96.5039,104,31109,31109
Nebraska,Weeping Water,1077,1077,1039.0,0.00748363,City,1069,1029,1.047,40.8691,-96.1405,105,31025,31025
Nebraska,Cambridge,1074,1074,1074.0,0.0,City,1074,807,1.331,40.2843,-100.166,106,31065,31065
Nebraska,Loup City,1070,1070,1050.0,0.00375234,City,1066,1136,0.942,41.2767,-98.9677,107,31163,31163
Nebraska,Shelton,1048,1048,1040.0,0.00191204,Village,1046,1087,0.964,40.7783,-98.7295,108,31079,31079
Nebraska,Terrytown,1036,1036,1058.0,-0.00384615,City,1040,2186,0.474,41.8471,-103.671,109,31157,31157
Nebraska,Burwell,1033,1033,1087.0,-0.0105364,City,1044,985,1.049,41.78,-99.1342,110,31175,31175
Nebraska,Alma,1025,1025,1030.0,-0.000974658,City,1026,891,1.15,40.1036,-99.3657,111,31083,31083
Nebraska,Pender,1015,1015,1110.0,-0.0183752,Village,1034,1448,0.701,42.1106,-96.7116,112,31039,31039
Nebraska,Ceresco,1012,1012,912.0,0.0201613,Village,992,2295,0.441,41.0577,-96.6457,113,31155,31155
Nebraska,Tilden,985,985,994.0,-0.00202634,City,987,1269,0.776,42.0435,-97.8318,114,31119,31119
Nebraska,Elm Creek,975,975,982.0,-0.00102459,Village,976,1403,0.695,40.7201,-99.3756,115,31137,31137
Nebraska,Harvard,943,943,948.0,-0.00105932,City,944,1462,0.645,40.6201,-98.0961,116,31035,31035
Nebraska,Arapahoe,939,939,998.0,-0.0126183,City,951,967,0.971,40.3051,-99.898,117,31065,31065
Nebraska,Red Cloud,934,934,964.0,-0.00638298,City,940,909,1.027,40.0864,-98.5222,118,31181,31181
Nebraska,Laurel,932,932,972.0,-0.00851064,City,940,703,1.325,42.4286,-97.0964,119,31179,31179
Nebraska,Bloomfield,929,929,984.0,-0.0117021,City,940,1138,0.816,42.5984,-97.6481,120,31107,31107
Nebraska,Kenesaw,922,922,907.0,0.00326442,Village,919,872,1.057,40.6189,-98.6576,121,31001,31001
Nebraska,Morrill,916,916,938.0,-0.00434783,Village,920,1485,0.617,41.9641,-103.925,122,31157,31157
Nebraska,Friend,912,912,949.0,-0.00761697,City,919,1103,0.827,40.6505,-97.2838,123,31151,31151
Nebraska,Waterloo,894,894,938.0,-0.00996678,Village,903,1112,0.804,41.2868,-96.288,124,31055,31055
Nebraska,Franklin,889,889,938.0,-0.0111235,City,899,896,0.992,40.0965,-98.9514,125,31061,31061
Nebraska,Ponca,889,889,903.0,-0.00336323,City,892,1156,0.769,42.5649,-96.7092,126,31051,31051
Nebraska,Osceola,873,873,870.0,0.00114679,City,872,947,0.922,41.1785,-97.55,127,31143,31143
Nebraska,Randolph,872,872,884.0,-0.00228833,City,874,811,1.075,42.378,-97.3577,128,31027,31027
Nebraska,Winnebago,868,868,918.0,-0.0113895,Village,878,2704,0.321,42.2384,-96.4715,129,31173,31173
Nebraska,Chappell,859,859,838.0,0.00467836,City,855,1224,0.702,41.0913,-102.47,130,31049,31049
Nebraska,Humphrey,854,854,854.0,0.0,City,854,1645,0.519,41.6885,-97.4851,131,31141,31141
Nebraska,Genoa,846,846,900.0,-0.0128355,City,857,1065,0.794,41.4459,-97.7333,132,31141,31141
Nebraska,Curtis,836,836,805.0,0.00722892,City,830,697,1.2,40.6336,-100.511,133,31063,31063
Nebraska,Pawnee City,834,834,864.0,-0.00714286,City,840,705,1.183,40.1106,-96.1531,134,31133,31133
Nebraska,Utica,822,822,837.0,-0.00363636,Village,825,1783,0.461,40.8953,-97.3454,135,31159,31159
Nebraska,Crawford,815,815,837.0,-0.004884,City,819,694,1.174,42.6846,-103.416,136,31045,31045
Nebraska,Lyons,808,808,820.0,-0.00246913,City,810,1183,0.683,41.9359,-96.4723,137,31021,31021
Nebraska,Doniphan,803,803,823.0,-0.00495663,Village,807,1609,0.499,40.7743,-98.3713,138,31079,31079
Nebraska,Osmond,796,796,795.0,0.0,City,796,999,0.797,42.3582,-97.5991,139,31139,31139
Nebraska,Cairo,794,794,818.0,-0.00625782,Village,799,863,0.92,41.0048,-98.6006,140,31079,31079
Nebraska,Emerson,792,792,826.0,-0.00876095,Village,799,1674,0.473,42.2782,-96.7263,141,31043,31043
Nebraska,Scribner,788,788,842.0,-0.0137672,City,799,1210,0.651,41.6652,-96.6653,142,31053,31053
Nebraska,Blue Hill,787,787,806.0,-0.00505689,City,791,1112,0.708,40.3331,-98.4484,143,31181,31181
Nebraska,Axtell,784,784,739.0,0.0116129,Village,775,1690,0.464,40.4798,-99.1292,144,31099,31099
Nebraska,Humboldt,783,783,800.0,-0.00381679,City,786,587,1.334,40.1658,-95.9443,145,31127,31127
Nebraska,Rushville,764,764,813.0,-0.0129199,City,774,664,1.15,42.7134,-102.467,146,31161,31161
Nebraska,Crofton,761,761,755.0,0.00131579,City,760,1189,0.64,42.7316,-97.4986,147,31027,31027
Nebraska,Hemingford,755,755,785.0,-0.00788436,Village,761,1112,0.679,42.3213,-103.075,148,31013,31013
Nebraska,Shelby,744,744,718.0,0.0067659,Village,739,1380,0.539,41.1942,-97.4263,149,31143,31143
Nebraska,Boys Town,738,738,410.0,0.0982143,Village,672,813,0.908,41.256,-96.1284,150,31055,31055
Nebraska,Juniata,738,738,748.0,-0.0027027,Village,740,1093,0.675,40.5902,-98.507,151,31001,31001
Nebraska,Oshkosh,738,738,817.0,-0.0212202,City,754,1098,0.672,41.408,-102.345,152,31069,31069
Nebraska,Benkelman,733,733,820.0,-0.0226667,City,750,611,1.199,40.0468,-101.54,153,31057,31057
Nebraska,Hooper,733,733,860.0,-0.0329815,City,758,1091,0.672,41.6114,-96.5492,154,31053,31053
Nebraska,Clay Center,730,730,725.0,0.00137174,City,729,999,0.731,40.5255,-98.055,155,31035,31035
Nebraska,Macy,718,718,927.0,-0.0271003,CDP,738,450,1.595,42.1159,-96.3666,156,31173,31173
Nebraska,Deshler,717,717,736.0,-0.00554785,City,721,1411,0.508,40.1399,-97.7237,157,31169,31169
Nebraska,Bertrand,714,714,713.0,0.0,Village,714,1317,0.542,40.5263,-99.6324,158,31137,31137
Nebraska,St. Edward,707,707,717.0,-0.00282087,City,709,1074,0.658,41.5714,-97.8612,159,31125,31125
Nebraska,Elgin,701,701,716.0,-0.00426136,City,704,963,0.728,41.9831,-98.0828,160,31003,31003
Nebraska,Minatare,701,701,721.0,-0.00567376,City,705,1600,0.438,41.8116,-103.501,161,31157,31157
Nebraska,Elmwood,695,695,669.0,0.00724638,Village,690,1541,0.451,40.8428,-96.2952,162,31025,31025
Nebraska,Oxford,691,691,715.0,-0.00718391,Village,696,759,0.91,40.253,-99.6322,163,31083,31083
Nebraska,Glenwood,680,680,541.0,0.021021,CDP,666,283,2.401,40.7555,-99.081,164,31019,31019
Nebraska,Walthill,675,675,692.0,-0.00442478,Village,678,1577,0.428,42.1489,-96.4929,165,31173,31173
Nebraska,Beemer,647,647,629.0,0.00622084,Village,643,1522,0.425,41.9298,-96.8091,166,31039,31039
Nebraska,Firth,641,641,656.0,-0.00465839,Village,644,1896,0.338,40.5355,-96.6042,167,31109,31109
Nebraska,Mead,640,640,622.0,0.00628931,Village,636,1051,0.609,41.2244,-96.4872,168,31155,31155
Nebraska,Alda,639,639,648.0,-0.00312012,Village,641,1125,0.568,40.8666,-98.4679,169,31079,31079
Nebraska,Clarkson,630,630,639.0,-0.00316456,City,632,796,0.791,41.7234,-97.1215,170,31037,31037
Nebraska,Newman Grove,629,629,661.0,-0.00944882,City,635,1154,0.545,41.7469,-97.7767,171,31119,31119
Nebraska,Adams,628,628,598.0,0.0096463,Village,622,1055,0.595,40.459,-96.5074,172,31097,31097
Nebraska,Cedar Bluffs,622,622,614.0,0.00322581,Village,620,1607,0.387,41.3971,-96.6098,173,31155,31155
Nebraska,Elwood,621,621,661.0,-0.0127186,Village,629,1127,0.551,40.5901,-99.862,174,31073,31073
Nebraska,Greenwood,621,621,595.0,0.00811688,Village,616,1511,0.411,40.9617,-96.443,175,31109,31109
Nebraska,Valparaiso,608,608,600.0,0.00330033,Village,606,1080,0.563,41.0801,-96.8336,176,31155,31155
Nebraska,Hershey,607,607,649.0,-0.0130081,Village,615,796,0.763,41.1602,-100.999,177,31111,31111
Nebraska,Dorchester,604,604,618.0,-0.00494234,Village,607,1208,0.5,40.648,-97.1154,178,31151,31151
Nebraska,Arnold,591,591,590.0,0.0,Village,591,882,0.67,41.4232,-100.194,179,31113,31113
Nebraska,Palmyra,591,591,531.0,0.0207254,Village,579,1738,0.34,40.7057,-96.3921,180,31131,31131
Nebraska,Fairmont,586,586,595.0,-0.00340136,Village,588,509,1.151,40.6336,-97.585,181,31059,31059
Nebraska,Overton,581,581,605.0,-0.00853242,Village,586,1076,0.54,40.7406,-99.5374,182,31137,31137
Nebraska,Callaway,573,573,558.0,0.00526316,Village,570,821,0.698,41.2914,-99.9203,183,31041,31041
Nebraska,Wausa,570,570,589.0,-0.00696864,Village,574,1088,0.524,42.4978,-97.5393,184,31139,31139
Nebraska,Howells,563,563,558.0,0.00177936,Village,562,977,0.576,41.7242,-97.0046,185,31037,31037
Nebraska,Peru,561,561,653.0,-0.0310881,City,579,1067,0.526,40.4785,-95.7314,186,31127,31127
Nebraska,Hay Springs,559,559,598.0,-0.0141093,Village,567,1487,0.376,42.6833,-102.69,187,31161,31161
Nebraska,Bassett,553,553,542.0,0.00362976,City,551,1245,0.444,42.5825,-99.5366,188,31149,31149
Nebraska,Dodge,553,553,607.0,-0.0195035,Village,564,1400,0.395,41.7218,-96.8804,189,31039,31039
Nebraska,Verdigre,534,534,549.0,-0.00558659,Village,537,974,0.548,42.5972,-98.0356,190,31107,31107
Nebraska,Beaver City,527,527,534.0,-0.00189394,City,528,617,0.854,40.1382,-99.8284,191,31065,31065
Nebraska,Exeter,518,518,523.0,-0.00192678,Village,519,818,0.633,40.6445,-97.4488,192,31059,31059
Nebraska,Walton,516,516,407.0,0.0278884,CDP,502,149,3.464,40.7962,-96.5653,193,31109,31109
Nebraska,Cortland,512,512,517.0,-0.00194932,Village,513,1925,0.266,40.506,-96.706,194,31067,31067
Nebraska,Indianola,512,512,526.0,-0.00582524,City,515,410,1.248,40.2346,-100.42,195,31145,31145
Nebraska,Stuart,512,512,486.0,0.00986193,Village,507,375,1.367,42.6008,-99.1405,196,31149,31149
Nebraska,Paxton,510,510,512.0,0.0,Village,510,494,1.032,41.1234,-101.352,197,31101,31101
Nebraska,Murray,509,509,486.0,0.00992063,Village,504,1454,0.35,40.9164,-95.9274,198,31025,31025
Nebraska,Homer,508,508,530.0,-0.0078125,Village,512,1373,0.37,42.3225,-96.4912,199,31043,31043
Nebraska,Culbertson,507,507,531.0,-0.00976562,Village,512,606,0.837,40.2242,-100.84,200,31087,31087
Nebraska,De Witt,504,504,529.0,-0.00982318,Village,509,1183,0.426,40.3949,-96.9218,201,31067,31067
Nebraska,Wauneta,503,503,552.0,-0.0194932,Village,513,519,0.969,40.4164,-101.377,202,31029,31029
Nebraska,Coleridge,501,501,536.0,-0.0137795,Village,508,994,0.504,42.5064,-97.2031,203,31027,31027
Nebraska,McCool Junction,494,494,451.0,0.0185567,Village,485,1023,0.483,40.7439,-97.6008,204,31185,31185
Nebraska,Trenton,491,491,515.0,-0.0100806,Village,496,844,0.582,40.1747,-101.014,205,31087,31087
Nebraska,Bancroft,490,490,497.0,-0.00203666,Village,491,1324,0.37,42.0104,-96.5735,206,31173,31173
Nebraska,Sargent,485,485,490.0,-0.00205761,City,486,447,1.085,41.6397,-99.3689,207,31175,31175
Nebraska,Cedar Creek,481,481,463.0,0.00838574,Village,477,918,0.524,41.0445,-96.1004,208,31153,31153
Nebraska,Malcolm,479,479,459.0,0.00842105,Village,475,3151,0.152,40.909,-96.8661,209,31109,31109
Nebraska,Ansley,474,474,461.0,0.00636943,Village,471,743,0.638,41.2873,-99.3825,210,31041,31041
Nebraska,Sterling,464,464,479.0,-0.00642398,Village,467,1140,0.407,40.4612,-96.3775,211,31097,31097
Nebraska,Nelson,459,459,459.0,0.0,City,459,563,0.816,40.2012,-98.0686,212,31129,31129
Nebraska,Hampton,442,442,431.0,0.00454545,Village,440,1277,0.346,40.8811,-97.8875,213,31081,31081
Nebraska,Leigh,442,442,434.0,0.00454545,Village,440,738,0.599,41.7033,-97.2407,214,31037,31037
Nebraska,Palmer,439,439,441.0,0.0,Village,439,822,0.534,41.2225,-98.2598,215,31121,31121
Nebraska,Spalding,438,438,405.0,0.0162413,Village,431,1364,0.321,41.6893,-98.3626,216,31077,31077
Nebraska,Mullen,437,437,496.0,-0.0267261,Village,449,1058,0.413,42.043,-101.045,217,31091,31091
Nebraska,Edgar,427,427,426.0,0.0,City,427,541,0.79,40.3683,-97.971,218,31035,31035
Nebraska,Santee,425,425,422.0,0.00235849,Village,424,754,0.564,42.8387,-97.8494,219,31107,31107
Nebraska,Giltner,421,421,405.0,0.00717703,Village,418,1088,0.387,40.7754,-98.1543,220,31081,31081
Nebraska,Bellwood,411,411,405.0,0.00243902,Village,410,1756,0.234,41.3419,-97.2399,221,31023,31023
Nebraska,Decatur,411,411,410.0,0.0,Village,411,403,1.021,42.0059,-96.2483,222,31021,31021
Nebraska,Eustis,407,407,384.0,0.0124378,Village,402,962,0.423,40.6645,-100.03,223,31073,31073
Nebraska,Greeley Center,407,407,397.0,0.00493827,Village,405,658,0.619,41.5484,-98.5305,224,31077,31077
Nebraska,Big Springs,405,405,395.0,0.00496278,Village,403,914,0.443,41.0609,-102.074,225,31049,31049
Nebraska,Loomis,391,391,393.0,0.0,Village,391,1188,0.329,40.4783,-99.5077,226,31137,31137
Nebraska,Duncan,387,387,387.0,0.0,Village,387,827,0.468,41.3904,-97.4927,227,31141,31141
Nebraska,Pleasanton,387,387,364.0,0.013089,Village,382,1118,0.346,40.97,-99.0879,228,31019,31019
Nebraska,Ewing,374,374,379.0,-0.00266667,Village,375,762,0.491,42.2589,-98.3439,229,31003,31003
Nebraska,Cedar Rapids,373,373,383.0,-0.00533333,Village,375,1042,0.358,41.5589,-98.1493,230,31011,31011
Nebraska,Spencer,371,371,403.0,-0.0159151,Village,377,620,0.598,42.8756,-98.6999,231,31015,31015
Nebraska,Beaver Crossing,369,369,371.0,0.0,Village,369,563,0.655,40.7779,-97.2825,232,31159,31159
Nebraska,Kennard,369,369,379.0,-0.00539083,Village,371,1337,0.276,41.4751,-96.2036,233,31177,31177
Nebraska,Winside,369,369,376.0,-0.0027027,Village,370,1414,0.261,42.1774,-97.1754,234,31179,31179
Nebraska,Rising City,364,364,359.0,0.00275482,Village,363,1014,0.359,41.1981,-97.2971,235,31023,31023
Nebraska,Brainard,361,361,338.0,0.0140449,Village,356,1165,0.31,41.1817,-97.0023,236,31023,31023
Nebraska,Niobrara,360,360,367.0,-0.00277008,Village,361,495,0.728,42.75,-98.0315,237,31107,31107
Nebraska,Hildreth,359,359,379.0,-0.0110193,Village,363,628,0.572,40.3378,-99.0458,238,31099,31099
Nebraska,Brady,356,356,385.0,-0.0165746,Village,362,1085,0.328,41.0223,-100.368,239,31111,31111
Nebraska,Inglewood,353,353,380.0,-0.0139665,Village,358,1307,0.27,41.416,-96.5024,240,31155,31155
Nebraska,Plymouth,353,353,363.0,-0.0056338,Village,355,1117,0.316,40.3025,-96.9885,241,31095,31095
Nebraska,Allen,352,352,357.0,-0.00283286,Village,353,946,0.372,42.4144,-96.8432,242,31051,31051
Nebraska,Merna,351,351,343.0,0.00573066,Village,349,655,0.536,41.4852,-99.7611,243,31041,31041
Nebraska,Orchard,350,350,359.0,-0.00568182,Village,352,886,0.395,42.3365,-98.2409,244,31003,31003
Nebraska,Shickley,347,347,349.0,0.0,Village,347,1134,0.306,40.4165,-97.7241,245,31059,31059
Nebraska,Potter,343,343,342.0,0.0,Village,343,238,1.439,41.2173,-103.307,246,31033,31033
Nebraska,Polk,341,341,346.0,-0.00292398,Village,342,697,0.489,41.0752,-97.7838,247,31143,31143
Nebraska,Clarks,338,338,345.0,-0.00294985,Village,339,1076,0.314,41.2163,-97.8395,248,31121,31121
Nebraska,Fairfield,333,333,332.0,0.0,City,333,463,0.719,40.4323,-98.1032,249,31035,31035
Nebraska,Phillips,331,331,320.0,0.00607903,Village,329,1130,0.293,40.8977,-98.2146,250,31081,31081
Nebraska,Wilcox,328,328,332.0,-0.00303951,Village,329,657,0.499,40.3644,-99.1693,251,31099,31099
Nebraska,Clearwater,327,327,319.0,0.00615385,Village,325,889,0.368,42.1708,-98.1895,252,31003,31003
Nebraska,Orleans,327,327,341.0,-0.00909091,Village,330,545,0.6,40.1317,-99.4551,253,31083,31083
Nebraska,Platte Center,327,327,334.0,-0.00304878,Village,328,1094,0.299,41.5374,-97.4885,254,31141,31141
Nebraska,Silver Creek,322,322,319.0,0.00311526,Village,321,1167,0.276,41.3153,-97.6651,255,31143,31143
Nebraska,Petersburg,321,321,328.0,-0.00310559,Village,322,858,0.374,41.8537,-98.0812,256,31011,31011
Nebraska,Woodland Hills,321,321,206.0,0.022293,CDP,314,897,0.358,40.7516,-96.4236,257,31109,31109
Nebraska,Lodgepole,318,318,312.0,0.00315457,Village,317,667,0.477,41.1489,-102.639,258,31049,31049
Nebraska,Johnson,312,312,311.0,0.0,Village,312,1418,0.22,40.4105,-95.9999,259,31127,31127
Nebraska,Waco,312,312,292.0,0.012987,Village,308,1238,0.252,40.897,-97.4617,260,31185,31185
Nebraska,Hallam,308,308,268.0,0.0266667,Village,300,1433,0.215,40.5365,-96.7868,261,31109,31109
Nebraska,Cook,305,305,320.0,-0.00974026,Village,308,1763,0.173,40.5106,-96.1616,262,31131,31131
Nebraska,Unadilla,305,305,294.0,0.00660066,Village,303,956,0.319,40.683,-96.2699,263,31131,31131
Nebraska,St. Libory,303,303,271.0,0.01,CDP,300,913,0.332,41.0821,-98.3591,264,31093,31093
Nebraska,Brule,300,300,327.0,-0.0163934,Village,305,971,0.309,41.0947,-101.889,265,31101,31101
Nebraska,Prague,299,299,291.0,0.00673401,Village,297,917,0.326,41.3095,-96.8082,266,31155,31155
Nebraska,Stratton,299,299,311.0,-0.00664452,Village,301,694,0.431,40.1502,-101.228,267,31087,31087
Nebraska,Hadar,296,296,288.0,0.00680272,Village,294,747,0.396,42.1072,-97.451,268,31139,31139
Nebraska,Scotia,296,296,298.0,0.0,Village,296,853,0.347,41.4678,-98.7024,269,31077,31077
Nebraska,Davenport,295,295,317.0,-0.0133779,Village,299,452,0.652,40.3123,-97.8115,270,31129,31129
Nebraska,Long Pine,292,292,301.0,-0.00680272,City,294,504,0.579,42.5353,-99.7027,271,31017,31017
Nebraska,Wallace,292,292,317.0,-0.016835,Village,297,411,0.711,40.8376,-101.164,272,31085,31085
Nebraska,Nickerson,291,291,310.0,-0.0135593,Village,295,766,0.38,41.5347,-96.4708,273,31053,31053
Nebraska,Dalton,290,290,287.0,0.00346021,Village,289,843,0.344,41.4082,-102.971,274,31033,31033
Nebraska,Lindsay,287,287,284.0,0.0034965,Village,286,605,0.474,41.6993,-97.6941,275,31141,31141
Nebraska,Monroe,286,286,293.0,-0.00348432,Village,287,1467,0.195,41.4741,-97.5991,276,31141,31141
Nebraska,Chambers,285,285,287.0,0.0,Village,285,280,1.018,42.2047,-98.7486,277,31089,31089
Nebraska,Bradshaw,284,284,274.0,0.0070922,Village,282,899,0.316,40.8835,-97.7469,278,31185,31185
Nebraska,Murdock,281,281,270.0,0.00716846,Village,279,2051,0.137,40.9261,-96.2811,279,31025,31025
Nebraska,Arcadia,277,277,281.0,-0.00359712,Village,278,485,0.571,41.4248,-99.1261,280,31175,31175
Nebraska,Hoskins,277,277,264.0,0.0109489,Village,274,896,0.309,42.1126,-97.3044,281,31167,31167
Nebraska,Palisade,277,277,291.0,-0.0107143,Village,280,780,0.355,40.3484,-101.107,282,31087,31087
Nebraska,Dannebrog,276,276,275.0,0.0,Village,276,756,0.365,41.1186,-98.5457,283,31093,31093
Nebraska,Blue Springs,273,273,277.0,-0.00364964,City,274,349,0.782,40.1372,-96.6628,284,31067,31067
Nebraska,Maywood,272,272,262.0,0.00740741,Village,270,429,0.634,40.6587,-100.622,285,31063,31063
Nebraska,Lawrence,271,271,273.0,0.0,Village,271,653,0.415,40.2902,-98.2597,286,31129,31129
Nebraska,Glenvil,269,269,266.0,0.00373134,Village,268,1555,0.173,40.5027,-98.2545,287,31035,31035
Nebraska,Butte,268,268,282.0,-0.0110701,Village,271,570,0.47,42.913,-98.8474,288,31015,31015
Nebraska,Oakdale,268,268,275.0,-0.00371747,Village,269,515,0.52,42.0701,-97.9672,289,31003,31003
Nebraska,Chapman,266,266,260.0,0.00377358,Village,265,596,0.446,41.0233,-98.1594,290,31081,31081
Nebraska,Meadow Grove,266,266,283.0,-0.0111524,Village,269,872,0.305,42.029,-97.736,291,31119,31119
Nebraska,Newcastle,266,266,268.0,0.0,Village,266,787,0.338,42.6524,-96.874,292,31051,31051
Nebraska,Bruning,264,264,284.0,-0.0149254,Village,268,815,0.324,40.3358,-97.5664,293,31059,31059
Nebraska,Diller,262,262,249.0,0.011583,Village,259,621,0.422,40.1088,-96.9378,294,31095,31095
Nebraska,Bartley,260,260,269.0,-0.00763359,Village,262,277,0.938,40.2511,-100.31,295,31145,31145
Nebraska,Clatonia,260,260,262.0,0.0,Village,260,956,0.272,40.4653,-96.8511,296,31067,31067
Nebraska,Roseland,256,256,260.0,-0.00389105,Village,257,928,0.276,40.4697,-98.5587,297,31001,31001
Nebraska,Campbell,255,255,270.0,-0.0116279,Village,258,617,0.413,40.2963,-98.7315,298,31181,31181
Nebraska,Springview,254,254,233.0,0.016,Village,250,383,0.664,42.8249,-99.7475,299,31103,31103
Nebraska,Odell,253,253,262.0,-0.00784314,Village,255,930,0.272,40.0503,-96.8016,300,31067,31067
Nebraska,Lyman,252,252,257.0,-0.00395257,Village,253,795,0.317,41.917,-104.038,301,31157,31157
Nebraska,Lakeview,251,251,378.0,-0.0156863,CDP,255,690,0.364,41.4991,-97.3737,302,31141,31141
Nebraska,Weston,251,251,248.0,0.004,Village,250,1126,0.223,41.1931,-96.742,303,31155,31155
Nebraska,Milligan,247,247,249.0,0.0,Village,247,957,0.258,40.5,-97.3884,304,31059,31059
Nebraska,North Loup,245,245,249.0,-0.00406504,Village,246,603,0.406,41.4954,-98.7727,305,31077,31077
Nebraska,Maxwell,244,244,256.0,-0.00813008,Village,246,527,0.463,41.0771,-100.526,306,31111,31111
Nebraska,Herman,243,243,250.0,-0.00409836,Village,244,1699,0.143,41.6738,-96.2167,307,31177,31177
Nebraska,Marquette,242,242,236.0,0.00414938,Village,241,1169,0.207,41.0063,-98.0098,308,31081,31081
Nebraska,Harrison,241,241,238.0,0.00416667,Village,240,788,0.306,42.6881,-103.882,309,31165,31165
Nebraska,Pilger,241,241,243.0,0.0,Village,241,817,0.295,42.0075,-97.0549,310,31167,31167
Nebraska,Riverdale,238,238,247.0,-0.00833333,Village,240,902,0.264,40.7839,-99.1605,311,31019,31019
Nebraska,Sumner,238,238,252.0,-0.0124481,Village,241,807,0.295,40.949,-99.5081,312,31047,31047
Nebraska,Table Rock,234,234,234.0,0.0,Village,234,399,0.587,40.1783,-96.0887,313,31133,31133
Nebraska,Snyder,233,233,255.0,-0.0168776,Village,237,480,0.485,41.7046,-96.7868,314,31053,31053
Nebraska,Wolbach,233,233,227.0,0.00431034,Village,232,340,0.686,41.4017,-98.3902,315,31077,31077
Nebraska,Dwight,231,231,228.0,0.00434783,Village,230,959,0.241,41.0827,-97.0191,316,31023,31023
Nebraska,Stapleton,231,231,268.0,-0.0294118,Village,238,920,0.251,41.4802,-100.513,317,31113,31113
Nebraska,Madrid,225,225,239.0,-0.0131579,Village,228,199,1.132,40.8524,-101.528,318,31135,31135
Nebraska,Panama,224,224,238.0,-0.0132159,Village,227,789,0.284,40.5998,-96.5112,319,31109,31109
Nebraska,Gresham,223,223,220.0,0.0045045,Village,222,829,0.269,41.0284,-97.4011,320,31143,31143
Nebraska,Staplehurst,222,222,234.0,-0.00892857,Village,224,1776,0.125,40.9747,-97.1732,321,31159,31159
Nebraska,Hayes Center,221,221,225.0,-0.0045045,Village,222,819,0.27,40.511,-101.02,322,31085,31085
Nebraska,Litchfield,219,219,218.0,0.0,Village,219,720,0.304,41.156,-99.1531,323,31163,31163
Nebraska,Uehling,219,219,239.0,-0.0179372,Village,223,978,0.224,41.7347,-96.5056,324,31021,31021
Nebraska,Western,218,218,228.0,-0.00909091,Village,220,449,0.486,40.3931,-97.1984,325,31151,31151
Nebraska,Wynot,216,216,218.0,0.0,Village,216,1174,0.184,42.7398,-97.1697,326,31027,31027
Nebraska,Roca,214,214,203.0,0.00943396,Village,212,1540,0.139,40.6585,-96.6614,327,31109,31109
Nebraska,Thedford,211,211,211.0,0.0,Village,211,879,0.24,41.9792,-100.575,328,31171,31171
Nebraska,Talmage,207,207,201.0,0.00485437,Village,206,1262,0.164,40.5316,-96.0238,329,31131,31131
Nebraska,Chester,206,206,221.0,-0.0143541,Village,209,352,0.586,40.0102,-97.6181,330,31169,31169
Nebraska,Benedict,205,205,200.0,0.00490196,Village,204,1120,0.183,41.0063,-97.6071,331,31143,31143
Nebraska,Cheney,205,205,66.0,0.0732984,CDP,191,1454,0.141,40.726,-96.5936,332,31109,31109
Nebraska,Craig,205,205,200.0,0.00490196,Village,204,719,0.285,41.7853,-96.3624,333,31021,31021
Nebraska,Overland,204,204,102.0,0.0149254,CDP,201,229,0.89,41.0802,-97.9789,334,31121,31121
Nebraska,Yankee Hill,203,203,217.0,-0.0287081,CDP,209,58,3.504,40.7657,-96.7329,335,31109,31109
Nebraska,Pleasant Dale,202,202,216.0,-0.0146341,Village,205,1788,0.113,40.7912,-96.933,336,31159,31159
Nebraska,Garland,201,201,210.0,-0.00985222,Village,203,1196,0.168,40.9446,-96.9853,337,31159,31159
Nebraska,Union,201,201,195.0,0.005,Village,200,1063,0.189,40.8144,-95.9219,338,31025,31025
Nebraska,Bladen,200,200,202.0,0.0,Village,200,557,0.359,40.3234,-98.5959,339,31181,31181
Nebraska,Jackson,199,199,206.0,-0.005,Village,200,442,0.45,42.4482,-96.5713,340,31043,31043
Nebraska,Elba,198,198,192.0,0.00507614,Village,197,540,0.367,41.2853,-98.5693,341,31093,31093
Nebraska,Trumbull,198,198,195.0,0.00507614,Village,197,459,0.431,40.68,-98.2735,342,31035,31035
Nebraska,Amherst,197,197,199.0,0.0,Village,197,904,0.218,40.8384,-99.2695,343,31019,31019
Nebraska,Holbrook,197,197,204.0,-0.00505051,Village,198,1224,0.161,40.3047,-100.01,344,31065,31065
Nebraska,Guide Rock,196,196,201.0,-0.00507614,Village,197,391,0.501,40.0737,-98.3288,345,31181,31181
Nebraska,Ashton,195,195,195.0,0.0,Village,195,329,0.592,41.2477,-98.7952,346,31163,31163
Nebraska,Ulysses,191,191,190.0,0.0,Village,191,880,0.217,41.0721,-97.2031,347,31023,31023
Nebraska,Denton,190,190,187.0,0.00529101,Village,189,1557,0.122,40.7392,-96.846,348,31109,31109
Nebraska,Gurley,189,189,184.0,0.00531915,Village,188,917,0.206,41.3215,-102.974,349,31033,31033
Nebraska,Max,186,186,134.0,0.0689655,CDP,174,842,0.221,40.1143,-101.404,350,31057,31057
Nebraska,Avoca,185,185,179.0,0.00543478,Village,184,1312,0.141,40.7964,-96.1193,351,31025,31025
Nebraska,Holstein,185,185,187.0,0.0,Village,185,731,0.253,40.4652,-98.651,352,31001,31001
Nebraska,Howard City (Boelus),185,185,179.0,0.00543478,Village,184,261,0.71,41.0754,-98.7153,353,31093,31093
Nebraska,Pickrell,185,185,185.0,0.0,Village,185,1729,0.107,40.3783,-96.7291,354,31067,31067
Nebraska,Carroll,184,184,189.0,-0.00540541,Village,185,1211,0.152,42.2758,-97.1909,355,31179,31179
Nebraska,Sunol,182,182,112.0,0.0705882,CDP,170,83,2.187,41.1541,-102.763,356,31033,31033
Nebraska,Lynch,181,181,195.0,-0.0163043,Village,184,339,0.534,42.8312,-98.4669,357,31015,31015
Nebraska,Dix,179,179,189.0,-0.0110497,Village,181,814,0.22,41.2343,-103.487,358,31105,31105
Nebraska,Manley,178,178,170.0,0.0113636,Village,176,1548,0.115,40.9184,-96.1657,359,31025,31025
Nebraska,Hubbard,176,176,160.0,0.017341,Village,173,1257,0.14,42.3859,-96.591,360,31043,31043
Nebraska,Funk,175,175,175.0,0.0,Village,175,665,0.263,40.4631,-99.2508,361,31099,31099
Nebraska,Nehawka,175,175,169.0,0.00574713,Village,174,714,0.245,40.8297,-95.9908,362,31025,31025
Nebraska,Creston,174,174,176.0,0.0,Village,174,841,0.207,41.708,-97.3627,363,31141,31141
Nebraska,Douglas,174,174,171.0,0.00578035,Village,173,791,0.22,40.5932,-96.3882,364,31097,31097
Nebraska,Farnam,174,174,179.0,-0.00571429,Village,175,259,0.673,40.7065,-100.215,365,31063,31063
Nebraska,Goehner,171,171,180.0,-0.0115607,Village,173,983,0.174,40.8327,-97.2196,366,31159,31159
Nebraska,Dunbar,170,170,164.0,0.00591716,Village,169,739,0.23,40.6687,-96.0309,367,31131,31131
Nebraska,Otoe,168,168,162.0,0.00598802,Village,167,1057,0.159,40.7241,-96.1206,368,31131,31131
Nebraska,Cody,167,167,166.0,0.0,Village,167,162,1.031,42.9377,-101.249,369,31031,31031
Nebraska,Page,166,166,166.0,0.0,Village,166,680,0.244,42.4,-98.4177,370,31089,31089
Nebraska,Bee,164,164,171.0,-0.00606061,Village,165,656,0.25,41.0064,-97.0583,371,31159,31159
Nebraska,La Platte,160,160,136.0,0.0191083,CDP,157,567,0.282,41.0723,-95.9265,372,31153,31153
Nebraska,Lewellen,160,160,177.0,-0.0184049,Village,163,432,0.37,41.3305,-102.144,373,31069,31069
Nebraska,Princeton,159,159,105.0,0.0743243,CDP,148,548,0.29,40.576,-96.7059,374,31109,31109
Nebraska,Ithaca,157,157,159.0,0.0,Village,157,674,0.233,41.1593,-96.5395,375,31155,31155
Nebraska,Brunswick,156,156,151.0,0.00645161,Village,155,263,0.594,42.3377,-97.9718,376,31003,31003
Nebraska,Stamford,154,154,159.0,-0.00645161,Village,155,325,0.474,40.1312,-99.5944,377,31083,31083
Nebraska,Verdon,154,154,164.0,-0.0128205,Village,156,650,0.237,40.1491,-95.7112,378,31147,31147
Nebraska,Shubert,152,152,161.0,-0.012987,Village,154,724,0.21,40.2359,-95.6836,379,31147,31147
Nebraska,Venango,151,151,156.0,-0.00657895,Village,152,199,0.757,40.7637,-102.044,380,31135,31135
Nebraska,Daykin,150,150,155.0,-0.00662252,Village,151,915,0.164,40.3217,-97.2983,381,31095,31095
Nebraska,Mason City,150,150,147.0,0.00671141,Village,149,316,0.474,41.2222,-99.2988,382,31163,31163
Nebraska,Raymond,150,150,160.0,-0.0131579,Village,152,1145,0.131,40.9568,-96.7814,383,31109,31109
Nebraska,Martell,149,149,142.0,0.0719424,CDP,139,780,0.191,40.6389,-96.7588,384,31109,31109
Nebraska,Rosalie,149,149,156.0,-0.00666667,Village,150,760,0.196,42.0573,-96.5128,385,31173,31173
Nebraska,Brownville,143,143,140.0,0.00704225,Village,142,219,0.654,40.3976,-95.6611,386,31127,31127
Nebraska,Dawson,143,143,148.0,-0.00694444,Village,144,671,0.213,40.1309,-95.8301,387,31147,31147
Nebraska,Stella,143,143,148.0,-0.00694444,Village,144,808,0.177,40.2322,-95.7734,388,31147,31147
Nebraska,Rulo,142,142,147.0,-0.00699301,Village,143,226,0.628,40.0517,-95.4306,389,31147,31147
Nebraska,Hyannis,141,141,163.0,-0.0275862,Village,145,271,0.521,42.0005,-101.762,390,31075,31075
Nebraska,Oconto,140,140,139.0,0.0,Village,140,690,0.203,41.1417,-99.7619,391,31041,31041
Nebraska,Republican City,140,140,134.0,0.00719424,Village,139,431,0.325,40.0987,-99.2223,392,31061,31061
Nebraska,Hordville,137,137,131.0,0.00735294,Village,136,513,0.267,41.0794,-97.8904,393,31121,31121
Nebraska,Haigler,135,135,145.0,-0.0145985,Village,137,556,0.243,40.0121,-101.939,394,31057,31057
Nebraska,Alexandria,134,134,146.0,-0.0147059,Village,136,332,0.404,40.2475,-97.3878,395,31095,31095
Nebraska,Farwell,134,134,136.0,0.0,Village,134,775,0.173,41.2156,-98.6281,396,31093,31093
Nebraska,Taylor,134,134,141.0,-0.00740741,Village,135,513,0.261,41.7696,-99.3814,397,31115,31115
Nebraska,Fordyce,133,133,133.0,0.0,Village,133,899,0.148,42.6982,-97.3626,398,31027,31027
Nebraska,Sprague,132,132,137.0,-0.0075188,Village,133,1294,0.102,40.6266,-96.7447,399,31109,31109
Nebraska,Washington,131,131,130.0,0.0,Village,131,627,0.209,41.3976,-96.2075,400,31055,31055
Nebraska,Morse Bluff,129,129,118.0,0.015748,Village,127,729,0.177,41.4309,-96.7665,401,31053,31053
Nebraska,Odessa,129,129,57.0,0.0,CDP,129,71,1.824,40.6991,-99.2544,402,31099,31099
Nebraska,Henry,127,127,131.0,-0.0078125,Village,128,415,0.306,41.9979,-104.046,403,31157,31157
Nebraska,Miller,125,125,130.0,-0.00793651,Village,126,330,0.379,40.9276,-99.3901,404,31019,31019
Nebraska,Roscoe,124,124,99.0,0.0689655,CDP,116,790,0.157,41.1316,-101.585,405,31101,31101
Nebraska,Brock,123,123,122.0,0.0,Village,123,393,0.313,40.4805,-95.9601,406,31127,31127
Nebraska,Du Bois,122,122,122.0,0.0,Village,122,279,0.438,40.0348,-96.0472,407,31133,31133
Nebraska,Ohiowa,122,122,122.0,0.0,Village,122,490,0.249,40.4136,-97.4524,408,31059,31059
Nebraska,Tryon,122,122,78.0,-0.016129,CDP,124,103,1.19,41.5584,-100.954,409,31117,31117
Nebraska,Davey,121,121,130.0,-0.0162602,Village,123,776,0.156,40.9838,-96.6692,410,31109,31109
Nebraska,Upland,120,120,129.0,-0.0163934,Village,122,278,0.431,40.3195,-98.9024,411,31061,31061
Nebraska,Colon,119,119,108.0,0.017094,Village,117,908,0.131,41.2981,-96.6073,412,31155,31155
Nebraska,Filley,119,119,123.0,-0.00833333,Village,120,1092,0.109,40.2852,-96.5339,413,31067,31067
Nebraska,Alvo,117,117,114.0,0.00862069,Village,116,854,0.137,40.8723,-96.3866,414,31025,31025
Nebraska,Arthur,116,116,125.0,-0.0169492,Village,118,374,0.31,41.5719,-101.692,415,31005,31005
Nebraska,Concord,116,116,125.0,-0.0169492,Village,118,879,0.132,42.3842,-96.9893,416,31179,31179
Nebraska,Loretto,116,116,112.0,0.0740741,CDP,108,413,0.281,41.7634,-98.0817,417,31011,31011
Nebraska,Wann,116,116,69.0,0.0740741,CDP,108,78,1.49,41.1419,-96.3642,418,31153,31153
Nebraska,Nemaha,115,115,114.0,0.0,Village,115,380,0.303,40.3388,-95.676,419,31127,31127
Nebraska,Leshara,114,114,106.0,0.0178571,Village,112,1652,0.069,41.3298,-96.4292,420,31155,31155
Nebraska,Thurston,112,112,119.0,-0.00884956,Village,113,396,0.283,42.1747,-96.7016,421,31173,31173
Nebraska,Tobias,112,112,116.0,-0.00884956,Village,113,427,0.262,40.4185,-97.3366,422,31151,31151
Nebraska,Grafton,110,110,109.0,0.0,Village,110,315,0.349,40.6298,-97.7146,423,31059,31059
Nebraska,Memphis,110,110,109.0,0.0,Village,110,1264,0.087,41.0946,-96.4331,424,31155,31155
Nebraska,Belden,109,109,113.0,-0.00909091,Village,110,741,0.147,42.4117,-97.2074,425,31027,31027
Nebraska,Edison,109,109,111.0,0.0,Village,109,290,0.376,40.2792,-99.7758,426,31065,31065
Nebraska,Bloomington,108,108,110.0,0.0,Village,108,136,0.796,40.0938,-99.0384,427,31061,31061
Nebraska,Bushnell,108,108,115.0,-0.00917431,Village,109,474,0.228,41.2327,-103.891,428,31105,31105
Nebraska,Endicott,108,108,113.0,-0.00917431,Village,109,236,0.458,40.0822,-97.0954,429,31095,31095
Nebraska,Melbeta,108,108,110.0,0.0,Village,108,1929,0.056,41.7814,-103.518,430,31157,31157
Nebraska,Octavia,108,108,107.0,0.0,Village,108,659,0.164,41.3474,-97.059,431,31023,31023
Nebraska,Anselmo,107,107,109.0,0.0,Village,107,402,0.266,41.6186,-99.8646,432,31041,31041
Nebraska,Atlanta,107,107,101.0,0.00943396,Village,106,463,0.231,40.3684,-99.4732,433,31137,31137
Nebraska,Ruskin,106,106,106.0,0.0,Village,106,254,0.418,40.144,-97.867,434,31129,31129
Nebraska,Bartlett,104,104,108.0,-0.00952381,Village,105,732,0.142,41.8839,-98.5526,435,31183,31183
Nebraska,Elsie,103,103,102.0,0.0,Village,103,595,0.173,40.8472,-101.389,436,31135,31135
Nebraska,Martin,101,101,77.0,0.0744681,CDP,94,281,0.359,41.2581,-101.709,437,31101,31101
Nebraska,Bruno,98,98,97.0,0.0,Village,98,367,0.267,41.283,-96.9609,438,31023,31023
Nebraska,Inman,98,98,100.0,0.0,Village,98,343,0.286,42.3819,-98.5298,439,31089,31089
Nebraska,Cordova,97,97,92.0,0.0104167,Village,96,390,0.249,40.7164,-97.3516,440,31159,31159
Nebraska,Malmo,96,96,95.0,0.0,Village,96,706,0.136,41.2665,-96.7209,441,31155,31155
Nebraska,South Bend,96,96,90.0,0.0105263,Village,95,1129,0.085,41.0036,-96.2485,442,31153,31153
Nebraska,Belgrade,95,95,105.0,-0.0206186,Village,97,495,0.192,41.471,-98.0678,443,31125,31125
Nebraska,Broadwater,95,95,97.0,0.0,Village,95,605,0.157,41.598,-102.852,444,31123,31123
Nebraska,Jansen,95,95,100.0,-0.0104167,Village,96,304,0.313,40.1839,-97.0848,445,31095,31095
Nebraska,Melia,95,95,120.0,0.0674157,CDP,89,66,1.44,41.0972,-96.2764,446,31153,31153
Nebraska,Linwood,93,93,92.0,0.0,Village,93,245,0.379,41.4123,-96.9324,447,31037,31037
Nebraska,Hardy,92,92,94.0,0.0,Village,92,152,0.607,40.0114,-97.9238,448,31129,31129
Nebraska,Holmesville,91,91,27.0,0.0705882,CDP,85,406,0.224,40.2014,-96.6589,449,31067,31067
Nebraska,Ericson,89,89,88.0,0.0,Village,89,237,0.375,41.7804,-98.6786,450,31183,31183
Nebraska,Rockville,89,89,89.0,0.0,Village,89,401,0.222,41.1185,-98.8311,451,31163,31163
Nebraska,Merriman,88,88,87.0,0.0,Village,88,86,1.027,42.923,-101.7,452,31161,31161
Nebraska,Barneston,87,87,89.0,0.0,Village,87,357,0.244,40.049,-96.5736,453,31067,31067
Nebraska,St. Helena,87,87,91.0,-0.0113636,Village,88,196,0.444,42.8107,-97.2489,454,31027,31027
Nebraska,Eddyville,85,85,85.0,0.0,Village,85,308,0.276,41.0122,-99.624,455,31047,31047
Nebraska,Naponee,85,85,85.0,0.0,Village,85,368,0.231,40.0747,-99.1386,456,31061,31061
Nebraska,Ayr,83,83,87.0,-0.0119048,Village,84,343,0.242,40.4378,-98.4409,457,31001,31001
Nebraska,Carleton,83,83,90.0,-0.0119048,Village,84,105,0.793,40.3033,-97.6836,458,31059,31059
Nebraska,Byron,82,82,89.0,-0.0120482,Village,83,526,0.156,40.0047,-97.7688,459,31169,31169
Nebraska,Dunning,82,82,79.0,0.0123457,Village,81,360,0.228,41.8271,-100.104,460,31009,31009
Nebraska,Naper,82,82,89.0,-0.0120482,Village,83,607,0.135,42.9642,-99.097,461,31015,31015
Nebraska,Salem,81,81,85.0,-0.0121951,Village,82,130,0.621,40.0769,-95.7285,462,31147,31147
Nebraska,Heartwell,80,80,80.0,0.0,Village,80,1096,0.073,40.5699,-98.7891,463,31001,31001
Nebraska,Rogers,79,79,81.0,0.0,Village,79,465,0.17,41.4643,-96.9158,464,31037,31037
Nebraska,Bow Valley,78,78,96.0,-0.037037,CDP,81,545,0.143,42.7154,-97.2522,465,31027,31027
Nebraska,Dixon,76,76,80.0,-0.012987,Village,77,500,0.152,42.4154,-96.9948,466,31051,31051
Nebraska,Burchard,75,75,77.0,0.0,Village,75,426,0.176,40.1493,-96.3486,467,31133,31133
Nebraska,Martinsburg,75,75,79.0,-0.0131579,Village,76,721,0.104,42.5086,-96.832,468,31051,31051
Nebraska,Prosser,75,75,75.0,0.0,Village,75,306,0.245,40.6874,-98.578,469,31001,31001
Nebraska,Berwyn,73,73,72.0,0.0,Village,73,286,0.255,41.3509,-99.5006,470,31041,31041
Nebraska,Comstock,73,73,70.0,0.0138889,Village,72,209,0.349,41.5572,-99.243,471,31175,31175
Nebraska,Crookston,73,73,70.0,0.0138889,Village,72,168,0.435,42.9263,-100.753,472,31031,31031
Nebraska,Center,72,72,74.0,0.0,Village,72,686,0.105,42.609,-97.8762,473,31107,31107
Nebraska,Fontanelle,72,72,80.0,0.0588235,CDP,68,286,0.252,41.5383,-96.4272,474,31177,31177
Nebraska,Richland,72,72,74.0,0.0,Village,72,336,0.214,41.4369,-97.2149,475,31037,31037
Nebraska,Swanton,72,72,76.0,-0.0136986,Village,73,358,0.201,40.3796,-97.0798,476,31151,31151
Nebraska,Wilsonville,72,72,76.0,-0.0136986,Village,73,270,0.267,40.1119,-100.107,477,31065,31065
Nebraska,Danbury,71,71,75.0,-0.0138889,Village,72,219,0.324,40.0377,-100.405,478,31145,31145
Nebraska,Lemoyne,71,71,104.0,0.0757576,CDP,66,139,0.51,41.2766,-101.813,479,31101,31101
Nebraska,Virginia,71,71,73.0,0.0,Village,71,717,0.099,40.2459,-96.4988,480,31067,31067
Nebraska,Waterbury,70,70,74.0,-0.0140845,Village,71,507,0.138,42.4572,-96.7356,481,31051,31051
Nebraska,Kilgore,69,69,66.0,0.0147059,Village,68,154,0.448,42.9391,-100.957,482,31031,31031
Nebraska,Newport,68,68,68.0,0.0,Village,68,214,0.318,42.6002,-99.3283,483,31149,31149
Nebraska,Wellfleet,67,67,71.0,-0.0147059,Village,68,247,0.271,40.7539,-100.732,484,31111,31111
Nebraska,Abie,66,66,65.0,0.0,Village,66,710,0.093,41.3341,-96.9497,485,31023,31023
Nebraska,Archer,66,66,45.0,0.0645161,CDP,62,66,1.002,41.1666,-98.1389,486,31121,31121
Nebraska,Bristow,65,65,70.0,-0.0151515,Village,66,399,0.163,42.8408,-98.5833,487,31015,31015
Nebraska,Halsey,65,65,62.0,0.015625,Village,64,335,0.194,41.9033,-100.27,488,31171,31171
Nebraska,McGrew,65,65,64.0,0.0,Village,65,455,0.143,41.7477,-103.417,489,31157,31157
Nebraska,Elk Creek,62,62,67.0,-0.015873,Village,63,477,0.13,40.2883,-96.1269,490,31097,31097
Nebraska,Hazard,59,59,59.0,0.0,Village,59,230,0.256,41.0915,-99.0772,491,31163,31163
Nebraska,Maskell,58,58,60.0,0.0,Village,58,369,0.157,42.6904,-96.9809,492,31051,31051
Nebraska,Smithfield,58,58,60.0,0.0,Village,58,343,0.169,40.5733,-99.7409,493,31073,31073
Nebraska,Whitney,58,58,60.0,0.0,Village,58,367,0.158,42.7838,-103.257,494,31045,31045
Nebraska,Garrison,57,57,56.0,0.0,Village,57,528,0.108,41.1755,-97.1634,495,31023,31023
Nebraska,Hubbell,57,57,62.0,-0.0172414,Village,58,183,0.312,40.0087,-97.497,496,31169,31169
Nebraska,Lewiston,57,57,59.0,0.0,Village,57,523,0.109,40.2431,-96.4066,497,31097,31097
Nebraska,Primrose,57,57,57.0,0.0,Village,57,206,0.277,41.6238,-98.2374,498,31011,31011
Nebraska,Royal,56,56,58.0,0.0,Village,56,394,0.142,42.3329,-98.125,499,31003,31003
Nebraska,Steinauer,56,56,58.0,0.0,Village,56,421,0.133,40.2074,-96.2329,500,31133,31133
Nebraska,Burr,54,54,53.0,0.0,Village,54,628,0.086,40.5359,-96.2998,501,31097,31097
Nebraska,Reynolds,54,54,58.0,-0.0181818,Village,55,215,0.251,40.0598,-97.3359,502,31095,31095
Nebraska,Belvidere,52,52,56.0,-0.0188679,Village,53,112,0.465,40.2547,-97.5574,503,31169,31169
Nebraska,Oak,52,52,52.0,0.0,Village,52,342,0.152,40.2382,-97.9036,504,31129,31129
Nebraska,Riverton,52,52,56.0,-0.0188679,Village,53,132,0.393,40.0897,-98.7596,505,31061,31061
Nebraska,Thayer,52,52,49.0,0.0196078,Village,51,184,0.282,40.9702,-97.4967,506,31143,31143
Nebraska,Belmar,51,51,80.0,-0.177419,CDP,62,11,4.582,41.3055,-101.935,507,31101,31101
Nebraska,Harbine,50,50,54.0,-0.0196078,Village,51,476,0.105,40.1916,-96.9742,508,31095,31095
Nebraska,Richfield,50,50,14.0,0.0638298,CDP,47,33,1.511,41.1108,-96.0763,509,31153,31153
Nebraska,Harrisburg,49,49,75.0,-0.0576923,CDP,52,8,6.469,41.5505,-103.727,510,31007,31007
Nebraska,Ong,49,49,49.0,0.0,Village,49,171,0.287,40.3983,-97.8392,511,31035,31035
Nebraska,Tarnov,49,49,51.0,0.0,Village,49,1531,0.032,41.6148,-97.5025,512,31141,31141
Nebraska,Winnetoon,49,49,51.0,0.0,Village,49,169,0.29,42.5135,-97.9601,513,31107,31107
Nebraska,Elyria,48,48,50.0,0.0,Village,48,180,0.266,41.6801,-99.0053,514,31175,31175
Nebraska,Wood Lake,48,48,47.0,0.0,Village,48,151,0.317,42.6383,-100.237,515,31031,31031
Nebraska,Steele City,47,47,49.0,0.0,Village,47,202,0.233,40.0366,-97.023,516,31095,31095
Nebraska,Emmet,46,46,46.0,0.0,Village,46,178,0.258,42.4757,-98.8093,517,31089,31089
Nebraska,Johnstown,46,46,46.0,0.0,Village,46,86,0.533,42.5721,-100.056,518,31017,31017
Nebraska,Julian,46,46,46.0,0.0,Village,46,442,0.104,40.5192,-95.8671,519,31127,31127
Nebraska,Foster,45,45,44.0,0.0,Village,45,202,0.223,42.2747,-97.6651,520,31139,31139
Nebraska,Lebanon,45,45,47.0,0.0,Village,45,280,0.161,40.0488,-100.276,521,31145,31145
Nebraska,Crab Orchard,44,44,46.0,0.0,Village,44,277,0.159,40.3347,-96.4224,522,31097,31097
Nebraska,Magnet,44,44,46.0,0.0,Village,44,295,0.149,42.4561,-97.4693,523,31139,31139
Nebraska,Surprise,43,43,42.0,0.0,Village,43,110,0.391,41.1044,-97.309,524,31023,31023
Nebraska,Deweese,42,42,42.0,0.0,Village,42,333,0.126,40.3547,-98.1392,525,31035,31035
Nebraska,Beacon View,38,38,26.0,0.0857143,CDP,35,141,0.269,41.0712,-96.3265,526,31153,31153
Nebraska,Berea,38,38,36.0,0.0857143,CDP,35,32,1.193,42.2123,-102.983,527,31013,31013
Nebraska,Seneca,38,38,19.0,0.0857143,CDP,35,129,0.295,42.0439,-100.832,528,31091,31091
Nebraska,Verdel,38,38,40.0,0.0,Village,38,220,0.173,42.8114,-98.1933,529,31107,31107
Nebraska,Aten,37,37,21.0,-0.119048,CDP,42,22,1.699,42.8367,-97.4408,530,31027,31027
Nebraska,McLean,37,37,37.0,0.0,Village,37,389,0.095,42.3863,-97.4682,531,31139,31139
Nebraska,Saronville,37,37,37.0,0.0,Village,37,248,0.149,40.6028,-97.9389,532,31035,31035
Nebraska,Clinton,36,36,40.0,-0.027027,Village,37,383,0.094,42.7597,-102.348,533,31161,31161
Nebraska,Lorton,35,35,34.0,0.0,Village,35,814,0.043,40.5972,-96.0242,534,31131,31131
Nebraska,Norman,35,35,35.0,0.0,Village,35,376,0.093,40.4792,-98.7921,535,31099,31099
Nebraska,Cornlea,34,34,34.0,0.0,Village,34,370,0.092,41.68,-97.5669,536,31141,31141
Nebraska,Cushing,34,34,34.0,0.0,Village,34,110,0.308,41.2948,-98.3693,537,31093,31093
Nebraska,Inavale,33,33,53.0,-0.153846,CDP,39,99,0.334,40.0923,-98.6484,538,31181,31181
Nebraska,Stockham,33,33,33.0,0.0,Village,33,195,0.169,40.7164,-97.9434,539,31081,31081
Nebraska,Huntley,32,32,34.0,0.0,Village,32,86,0.373,40.2105,-99.2901,540,31083,31083
Nebraska,Liberty,32,32,34.0,0.0,Village,32,130,0.247,40.0855,-96.483,541,31133,31133
Nebraska,Strang,32,32,32.0,0.0,Village,32,258,0.124,40.4149,-97.5871,542,31059,31059
Nebraska,Venice,32,32,45.0,0.0666667,CDP,30,68,0.473,41.2393,-96.3519,543,31055,31055
Nebraska,Cotesfield,30,30,30.0,0.0,Village,30,57,0.524,41.3576,-98.6336,544,31093,31093
Nebraska,Hamlet,30,30,30.0,0.0,Village,30,96,0.311,40.3844,-101.235,545,31085,31085
Nebraska,Linoma Beach,30,30,19.0,0.0714286,CDP,28,57,0.524,41.0573,-96.3141,546,31153,31153
Nebraska,Gandy,29,29,34.0,-0.0333333,Village,30,118,0.246,41.4697,-100.458,547,31113,31113
Nebraska,Gilead,29,29,31.0,0.0,Village,29,420,0.069,40.1461,-97.4151,548,31169,31169
Nebraska,Lushton,28,28,28.0,0.0,Village,28,197,0.142,40.724,-97.7236,549,31185,31185
Nebraska,Moorefield,27,27,26.0,0.0,Village,27,162,0.167,40.6899,-100.4,550,31063,31063
Nebraska,Keystone,26,26,31.0,0.0833333,CDP,24,129,0.201,41.2187,-101.584,551,31101,31101
Nebraska,Lamar,24,24,26.0,0.0,Village,24,304,0.079,40.5725,-101.979,552,31029,31029
Nebraska,Bazile Mills,22,22,24.0,0.0,Village,22,45,0.488,42.5124,-97.9083,553,31107,31107
Nebraska,Cowles,22,22,22.0,0.0,Village,22,40,0.556,40.1714,-98.449,554,31181,31181
Nebraska,Hendley,22,22,22.0,0.0,Village,22,103,0.213,40.1313,-99.9712,555,31065,31065
Nebraska,Obert,22,22,22.0,0.0,Village,22,301,0.073,42.6895,-97.0272,556,31051,31051
Nebraska,Stockville,22,22,22.0,0.0,Village,22,84,0.262,40.5336,-100.384,557,31063,31063
Nebraska,Lindy,21,21,19.0,0.05,CDP,20,21,0.998,42.7351,-97.75,558,31107,31107
Nebraska,Nora,21,21,21.0,0.0,Village,21,55,0.38,40.1641,-97.9738,559,31129,31129
Nebraska,Ragan,21,21,23.0,0.0,Village,21,83,0.253,40.3108,-99.2896,560,31137,31137
Nebraska,Westerville,21,21,,0.05,CDP,20,160,0.131,41.3962,-99.3818,561,31175,31175
Nebraska,Barada,20,20,20.0,0.0,Village,20,220,0.091,40.2185,-95.5778,562,31147,31147
Nebraska,Lisco,20,20,38.0,0.0526316,CDP,19,34,0.595,41.4987,-102.624,563,31069,31069
Nebraska,King Lake,19,19,39.0,-0.472222,CDP,36,19,0.981,41.3097,-96.3023,564,31055,31055
Nebraska,Winslow,19,19,21.0,0.0,Village,19,131,0.145,41.6101,-96.5047,565,31053,31053
Nebraska,Inland,18,18,,0.125,CDP,16,110,0.163,40.5953,-98.2231,566,31035,31035
Nebraska,Poole,18,18,14.0,0.125,CDP,16,7,2.701,40.9923,-98.9606,567,31019,31019
Nebraska,Nenzel,17,17,17.0,0.0,Village,17,55,0.311,42.9274,-101.102,568,31031,31031
Nebraska,Sholes,17,17,17.0,0.0,Village,17,123,0.138,42.3348,-97.2946,569,31179,31179
Nebraska,Sarben,16,16,98.0,0.0666667,CDP,15,102,0.157,41.1663,-101.304,570,31101,31101
Nebraska,Lorenzo,15,15,20.0,0.0714286,CDP,14,2,6.836,41.0576,-103.082,571,31033,31033
Nebraska,Tamora,15,15,19.0,0.0714286,CDP,14,15,0.988,40.8944,-97.2293,572,31159,31159
Nebraska,Kramer,13,13,,0.0833333,CDP,12,28,0.47,40.5913,-96.8733,573,31109,31109
Nebraska,Anoka,10,10,12.0,0.0,Village,10,18,0.56,42.946,-98.8285,574,31015,31015
Nebraska,Burton,10,10,10.0,0.0,Village,10,95,0.105,42.9119,-99.5919,575,31103,31103
Nebraska,Parks,10,10,9.0,0.111111,CDP,9,57,0.176,40.0436,-101.725,576,31057,31057
Nebraska,Brownlee,9,9,8.0,0.125,CDP,8,85,0.106,42.2892,-100.624,577,31031,31031
Nebraska,Brewster,8,8,8.0,0.0,Village,8,90,0.089,41.9383,-99.865,578,31009,31009
Nebraska,Emerald,6,6,53.0,0.0,CDP,6,10,0.589,40.8131,-96.8354,579,31109,31109
Nebraska,Gross,2,2,2.0,0.0,Village,2,16,0.128,42.9461,-98.5697,580,31015,31015
Nebraska,Monowi,0,0,0.0,,Village,0,0,0.212,42.8307,-98.3296,581,31015,31015
