state,city,population,pop2025,pop2020,growth,type,pop2024,densityMi,areaMi,lat,lng,rank,fips_code,geo_id
New York,New York City,7936530,7936530,8740292,-0.0198526,City,8097282,26415,300.457,40.6627,-73.9387,1,36047,36047
New York,Hempstead,781032,781032,790387,-0.00296545,Town,783355,6590,118.514,40.634,-73.6091,2,36059,36059
New York,Brookhaven,485982,485982,484578,-0.0024181,Town,487160,1872,259.645,40.8574,-72.9598,3,36103,36103
New York,Islip,333694,333694,339077,-0.00466506,Town,335258,3234,103.199,40.715,-73.1952,4,36059,36059
New York,Oyster Bay,296528,296528,300272,-0.00211001,Town,297155,2862,103.61,40.8005,-73.5106,5,36059,36059
New York,Buffalo,272762,272762,277551,-0.00349993,City,273720,6755,40.379,42.8925,-78.8597,6,36029,36029
New York,North Hempstead,234933,234933,236815,-0.00180152,Town,235357,4388,53.543,40.8034,-73.6784,7,36059,36059
New York,Babylon,215046,215046,217663,-0.00462864,Town,216046,4114,52.277,40.6409,-73.3167,8,36059,36059
New York,Yonkers,205432,205432,210994,-0.00538384,City,206544,11409,18.006,40.9459,-73.8674,9,36005,36005
New York,Rochester,204882,204882,210862,-0.00580363,City,206078,5729,35.761,43.1699,-77.6169,10,36055,36055
New York,Huntington,201618,201618,203585,-0.00319385,Town,202264,2144,94.039,40.8841,-73.3768,11,36059,36059
New York,Ramapo,154849,154849,148703,0.00651951,Town,153846,2531,61.187,41.1408,-74.105,12,36119,36119
New York,Syracuse,144782,144782,146726,-0.0026796,City,145171,5778,25.059,43.041,-76.1436,13,36055,36055
New York,Amherst,131495,131495,129353,0.00164535,Town,131279,2472,53.203,43.0116,-78.7571,14,36029,36029
New York,Smithtown,114524,114524,115897,-0.00406985,Town,114992,2131,53.75,40.9188,-73.1773,15,36103,36103
New York,Albany,102925,102925,98682,0.00831733,City,102076,4809,21.404,42.6657,-73.7984,16,36119,36119
New York,Greece,93265,93265,96562,-0.0070586,Town,93928,1963,47.513,43.2503,-77.7005,17,36055,36055
New York,Greenburgh,91302,91302,95019,-0.00705811,Town,91951,3010,30.33,41.0295,-73.8427,18,36119,36119
New York,Cheektowaga,87425,87425,89742,-0.00533597,Town,87894,2968,29.451,42.91,-78.7418,19,36029,36029
New York,New Rochelle,86108,86108,80192,0.0139299,City,84925,8371,10.286,40.9232,-73.7793,20,36005,36005
New York,Colonie,85889,85889,85383,0.00173781,Town,85740,1535,55.956,42.7407,-73.7869,21,36119,36119
New York,Clarkstown,85645,85645,86521,-0.00340943,Town,85938,2227,38.465,41.1342,-73.9657,22,36119,36119
New York,Tonawanda,70540,70540,72447,-0.00545631,Town,70927,3765,18.735,42.9834,-78.8757,23,36029,36029
New York,Southampton,70022,70022,68842,0.00233327,Town,69859,504,138.842,40.8816,-72.4618,24,36103,36103
New York,Mount Vernon,69576,69576,73556,-0.0113113,City,70372,15842,4.392,40.9131,-73.8293,25,36005,36005
New York,Schenectady,68673,68673,68350,0.000947411,City,68608,6354,10.808,42.8026,-73.9272,26,36119,36119
New York,Utica,62571,62571,65160,-0.00821062,City,63089,3742,16.722,43.0964,-75.226,27,36055,36055
New York,White Plains,62518,62518,59443,0.0099349,City,61903,6421,9.737,41.0238,-73.751,28,36119,36119
New York,Hamburg,59772,59772,60059,-0.00178694,Town,59879,1446,41.322,42.7391,-78.8571,29,36029,36029
New York,Clay,59122,59122,60437,-0.00392553,Town,59355,1230,48.065,43.1786,-76.1918,30,36055,36055
New York,Hempstead,57797,57797,58867,-0.00368895,Village,58011,15659,3.691,40.7044,-73.6194,31,36059,36059
New York,Union,53257,53257,55944,-0.0104792,Town,53821,1503,35.435,42.126,-76.0322,32,36055,36055
New York,Henrietta,51084,51084,46249,0.0233583,Town,49918,1446,35.323,43.0543,-77.6401,33,36055,36055
New York,Troy,50133,50133,51318,-0.00470518,City,50370,4840,10.357,42.7358,-73.6753,34,36119,36119
New York,Irondequoit,49019,49019,50934,-0.00721013,Town,49375,3264,15.016,43.2098,-77.5721,35,36055,36055
New York,Orangetown,48001,48001,48437,-0.00222416,Town,48108,1995,24.055,41.0537,-73.9481,36,36119,36119
New York,Palm Tree,47517,47517,33499,0.0633294,Town,44687,32501,1.462,41.3407,-74.1673,37,36119,36119
New York,Kiryas Joel,47429,47429,33499,0.0624062,Village,44643,32441,1.462,41.3407,-74.1673,38,36119,36119
New York,Rye,47094,47094,49387,-0.00923569,Town,47533,6816,6.909,41.0058,-73.6877,39,36119,36119
New York,Niagara Falls,46984,46984,48521,-0.00649172,City,47291,3336,14.082,43.0928,-79.0147,40,36029,36029
New York,Perinton,46780,46780,47464,6.4134e-05,Town,46777,1368,34.195,43.0782,-77.4297,41,36055,36055
New York,Binghamton,46018,46018,47790,-0.00763392,City,46372,4391,10.479,42.1013,-75.9094,42,36055,36055
New York,Poughkeepsie,45388,45388,45179,-0.00143005,Town,45453,1590,28.538,41.6671,-73.9107,43,36119,36119
New York,Lancaster,44996,44996,45036,-0.000710668,Town,45028,1193,37.711,42.9109,-78.6322,44,36029,36029
New York,West Seneca,44909,44909,45475,-0.00217744,Town,45007,2100,21.387,42.8378,-78.7512,45,36029,36029
New York,Webster,44865,44865,45360,-0.00319936,Town,45009,1339,33.515,43.2302,-77.4458,46,36055,36055
New York,Mount Pleasant,43729,43729,44484,-0.0089745,Town,44125,1593,27.443,41.1124,-73.8157,47,36119,36119
New York,Freeport,43407,43407,44279,-0.00399256,Village,43581,8978,4.835,40.6509,-73.5846,48,36059,36059
New York,Cortlandt,40711,40711,42326,-0.00583638,Town,40950,1034,39.372,41.2517,-73.9069,49,36119,36119
New York,Valley Stream,39684,39684,40491,-0.00404066,Village,39845,11410,3.478,40.6647,-73.7049,50,36059,36059
New York,Haverstraw,38559,38559,38939,-0.00307668,Town,38678,1731,22.276,41.2028,-74.0407,51,36119,36119
New York,Ossining,37886,37886,39820,-0.0102667,Town,38279,3272,11.579,41.1577,-73.8554,52,36119,36119
New York,Penfield,37780,37780,39318,-0.00649538,Town,38027,1015,37.24,43.1515,-77.4444,53,36055,36055
New York,Clifton Park,37244,37244,38037,-0.00725024,Town,37516,773,48.202,42.859,-73.823,54,36119,36119
New York,Guilderland,36714,36714,36772,-0.00350134,Town,36843,634,57.904,42.7067,-73.9623,55,36119,36119
New York,Brighton,35588,35588,36973,-0.0073636,Town,35852,2310,15.407,43.1185,-77.581,56,36055,36055
New York,Riverhead,35399,35399,35815,-0.00455555,Town,35561,525,67.401,40.974,-72.7147,57,36103,36103
New York,Bethlehem,35072,35072,35057,0.00154206,Town,35018,715,49.031,42.5854,-73.8274,58,36119,36119
New York,Yorktown,34606,34606,36400,-0.0094742,Town,34937,941,36.759,41.2699,-73.8179,59,36119,36119
New York,Long Beach,34459,34459,34799,-0.00196947,City,34527,15536,2.218,40.5858,-73.6654,60,36059,36059
New York,Ithaca,34422,34422,30177,0.0252882,City,33573,6387,5.389,42.4439,-76.5031,61,36055,36055
New York,Carmel,33875,33875,33606,-5.9037e-05,Town,33877,944,35.886,41.3871,-73.7227,62,36119,36119
New York,Clarence,33271,33271,32947,0.0022895,Town,33195,622,53.508,43.0247,-78.6458,63,36029,36029
New York,Harrison,33200,33200,28155,0.0378243,Town,31990,1980,16.766,41.0235,-73.7193,64,36119,36119
New York,Eastchester,32998,32998,34504,-0.00689198,Town,33227,6770,4.874,40.9531,-73.8133,65,36005,36005
New York,Spring Valley,32976,32976,32958,0.000121315,Village,32972,16422,2.008,41.1146,-74.0487,66,36119,36119
New York,Manlius,32717,32717,33662,-0.00480608,Town,32875,666,49.15,43.0529,-75.9805,67,36055,36055
New York,Harrison,32530,32530,28155,0.0276418,Village,31655,1940,16.766,41.0235,-73.7193,68,36119,36119
New York,Salina,32119,32119,33212,-0.00560371,Town,32300,2354,13.645,43.1048,-76.1713,69,36055,36055
New York,Vestal,31943,31943,29328,0.00671289,Town,31730,618,51.683,42.0494,-76.0176,70,36055,36055
New York,Poughkeepsie,31910,31910,31564,0.00216702,City,31841,6202,5.145,41.6946,-73.9199,71,36119,36119
New York,Rome,31501,31501,31878,-0.00237522,City,31576,421,74.854,43.226,-75.4895,72,36055,36055
New York,Newburgh,31444,31444,31948,-0.00424346,Town,31578,725,43.364,41.5574,-74.0572,73,36119,36119
New York,Warwick,31398,31398,31940,-0.00447066,Town,31539,310,101.296,41.2598,-74.361,74,36119,36119
New York,Rotterdam,30863,30863,30531,0.00557148,Town,30692,865,35.681,42.8121,-74.012,75,36119,36119
New York,Wallkill,30827,30827,30553,-0.00493867,Town,30980,498,61.888,41.4894,-74.4005,76,36119,36119
New York,Cicero,30653,30653,31397,-0.00393189,Town,30774,633,48.42,43.1721,-76.0563,77,36055,36055
New York,Mamaroneck,30369,30369,31594,-0.00657507,Town,30570,4533,6.7,40.9216,-73.7439,78,36005,36005
New York,Pittsford,30158,30158,30590,-0.000695848,Town,30179,1301,23.183,43.0752,-77.5276,79,36055,36055
New York,Middletown,30067,30067,30279,-0.00139493,City,30109,5667,5.306,41.4449,-74.4236,80,36119,36119
New York,Port Chester,29922,29922,31576,-0.0109411,Village,30253,12853,2.328,41.0047,-73.6672,81,36119,36119
New York,North Tonawanda,29763,29763,30433,-0.00448206,City,29897,2949,10.093,43.0492,-78.8712,82,36029,36029
New York,Orchard Park,29685,29685,29669,-0.00111044,Town,29718,772,38.43,42.7528,-78.7397,83,36029,36029
New York,East Fishkill,29378,29378,29715,-0.0043381,Town,29506,519,56.558,41.5572,-73.7802,84,36119,36119
New York,Glenville,29270,29270,29282,0.000239209,Town,29263,594,49.28,42.8883,-73.9887,85,36119,36119
New York,Queensbury,29068,29068,29110,-0.00223115,Town,29133,466,62.352,43.3682,-73.6739,86,36119,36119
New York,East Hampton,29006,29006,28363,0.00418903,Town,28885,390,74.359,41.0922,-72.1056,87,36103,36103
New York,Chili,28643,28643,29126,-0.00541685,Town,28799,725,39.498,43.0856,-77.7452,88,36055,36055
New York,Saratoga Springs,28546,28546,28540,3.5032e-05,City,28545,1017,28.057,43.0677,-73.7781,89,36119,36119
New York,Gates,28443,28443,29372,-0.00611503,Town,28618,1871,15.199,43.152,-77.7134,90,36055,36055
New York,Newburgh,27880,27880,28772,-0.006344,City,28058,7325,3.806,41.5033,-74.0196,91,36119,36119
New York,Wappinger,27817,27817,28205,-0.00529233,Town,27965,1028,27.072,41.5874,-73.8911,92,36119,36119
New York,Glen Cove,27653,27653,28218,-0.00406973,City,27766,4153,6.658,40.8848,-73.6448,93,36059,36059
New York,Jamestown,27497,27497,28667,-0.00843821,City,27731,3090,8.9,42.0976,-79.2361,94,36029,36029
New York,New Windsor,27413,27413,27741,-0.00688331,Town,27603,804,34.078,41.4746,-74.1109,95,36119,36119
New York,Lindenhurst,26892,26892,27091,-0.00148522,Village,26932,7177,3.747,40.6858,-73.3716,96,36059,36059
New York,Halfmoon,26437,26437,25710,0.000189164,Town,26432,811,32.582,42.8609,-73.7305,97,36119,36119
New York,Elmira,26082,26082,26316,-0.00179877,City,26129,3597,7.252,42.0934,-76.8096,98,36055,36055
New York,Ossining,26000,26000,27355,-0.0103156,Village,26271,8210,3.167,41.1535,-73.8706,99,36119,36119
New York,Peekskill,25520,25520,25324,0.00153055,City,25481,5875,4.344,41.2874,-73.9236,100,36119,36119
New York,Auburn,25401,25401,26855,-0.0113265,City,25692,3048,8.335,42.9338,-76.5672,101,36055,36055
New York,Le Ray,25394,25394,25499,-0.0047033,Town,25514,345,73.607,44.0787,-75.7958,102,36055,36055
New York,Rockville Centre,25364,25364,25898,-0.00420085,Village,25471,7802,3.251,40.664,-73.638,103,36059,36059
New York,Camillus,25127,25127,25364,-0.000715848,Town,25145,731,34.362,43.0662,-76.3133,104,36055,36055
New York,De Witt,24934,24934,26101,-0.00752299,Town,25123,740,33.699,43.0539,-76.0718,105,36055,36055
New York,Watertown,23897,23897,24546,-0.00541058,City,24027,2646,9.032,43.9733,-75.91,106,36055,36055
New York,Niskayuna,23754,23754,23246,0.0020248,Town,23706,1679,14.15,42.8031,-73.8735,107,36119,36119
New York,Southold,23684,23684,23735,-0.00357609,Town,23769,441,53.751,41.139,-72.3187,108,36103,36103
New York,Kingston,23627,23627,24001,-0.00316429,City,23702,3158,7.482,41.9301,-73.9968,109,36119,36119
New York,Montgomery,23378,23378,23236,0.0033907,Town,23299,465,50.256,41.5397,-74.21,110,36119,36119
New York,Lysander,22925,22925,23068,-0.00113285,Town,22951,371,61.714,43.1842,-76.3739,111,36055,36055
New York,Garden City,22876,22876,22773,0.000918836,Village,22855,4294,5.328,40.7258,-73.6454,112,36059,36059
New York,Fishkill,22266,22266,23184,-0.00442656,Town,22365,817,27.26,41.5155,-73.9238,113,36119,36119
New York,Onondaga,22250,22250,22816,-0.00264467,Town,22309,386,57.635,42.9808,-76.2234,114,36055,36055
New York,New Hartford,21988,21988,21801,-0.00104493,Town,22011,865,25.415,43.0578,-75.2818,115,36055,36055
New York,Mineola,21385,21385,20845,0.0050759,Village,21277,11553,1.851,40.747,-73.6394,116,36059,36059
New York,Grand Island,21351,21351,21444,-0.00219647,Town,21398,755,28.274,43.0179,-78.9627,117,36029,36029
New York,Hyde Park,21213,21213,20962,0.00207851,Town,21169,579,36.63,41.8133,-73.8955,118,36119,36119
New York,Monroe,21084,21084,21345,-0.00382707,Town,21165,1137,18.545,41.3041,-74.1952,119,36119,36119
New York,Ithaca,20783,20783,18461,-0.00526492,Town,20893,718,28.947,42.4139,-76.5402,120,36055,36055
New York,Somers,20609,20609,21430,-0.00856304,Town,20787,692,29.791,41.3044,-73.7226,121,36119,36119
New York,Milton,20533,20533,18796,0.0299458,Town,19936,575,35.69,43.0495,-73.8976,122,36119,36119
New York,Lockport,20259,20259,20504,-0.00491183,Town,20359,452,44.843,43.1493,-78.6888,123,36029,36029
New York,Lockport,20176,20176,20825,-0.00640205,City,20306,2402,8.4,43.1695,-78.6958,124,36029,36029
New York,Ogden,20076,20076,20283,-0.00139276,Town,20104,550,36.478,43.1703,-77.8144,125,36055,36055
New York,Saugerties,19914,19914,19011,0.0143126,Town,19633,308,64.577,42.0926,-73.9881,126,36119,36119
New York,Plattsburgh,19898,19898,19820,0.000804748,City,19882,3706,5.369,44.692,-73.4583,127,36119,36119
New York,Lynbrook,19878,19878,20360,-0.00480625,Village,19974,9875,2.013,40.6579,-73.6742,128,36059,36059
New York,Lackawanna,19372,19372,19924,-0.00564624,City,19482,2958,6.548,42.8184,-78.8328,129,36029,36029
New York,Mamaroneck,19171,19171,20075,-0.00935304,Village,19352,5974,3.209,40.9365,-73.7261,130,36005,36005
New York,Owego,18898,18898,18750,0.00302532,Town,18841,181,104.171,42.0858,-76.1952,131,36055,36055
New York,Horseheads,18438,18438,19297,-0.00534067,Town,18537,518,35.607,42.1577,-76.7789,132,36055,36055
New York,Wheatfield,18389,18389,18575,-0.00222463,Town,18430,659,27.912,43.0947,-78.8837,133,36029,36029
New York,Cohoes,18270,18270,18109,0.00175458,City,18238,4842,3.773,42.7729,-73.7078,134,36119,36119
New York,Southeast,18243,18243,18038,0.0012074,Town,18221,575,31.72,41.4082,-73.6008,135,36119,36119
New York,Blooming Grove,18155,18155,18747,-0.00824866,Town,18306,523,34.733,41.3943,-74.1829,136,36119,36119
New York,Amsterdam,18025,18025,18195,-0.00188272,City,18059,3069,5.873,42.9416,-74.1906,137,36119,36119
New York,Whitestown,17770,17770,18085,-0.00151711,Town,17797,650,27.318,43.1357,-75.3359,138,36055,36055
New York,Malta,17677,17677,17142,0.00506027,Town,17588,633,27.922,42.9823,-73.789,139,36119,36119
New York,Scarsdale,17545,17545,18188,-0.00572368,Town,17646,2628,6.675,40.9936,-73.7772,140,36119,36119
New York,New Castle,17522,17522,18247,-0.00550542,Town,17619,759,23.098,41.1825,-73.7729,141,36119,36119
New York,Scarsdale,17453,17453,18188,-0.00835227,Village,17600,2615,6.675,40.9936,-73.7772,142,36119,36119
New York,Wilton,17273,17273,17381,-0.00397878,Town,17342,482,35.837,43.1526,-73.727,143,36119,36119
New York,Cortland,17116,17116,17515,-0.00465224,City,17196,4395,3.894,42.6009,-76.1791,144,36055,36055
New York,Oswego,17093,17093,16915,0.00211057,City,17057,2245,7.614,43.4581,-76.5037,145,36055,36055
New York,Oneonta,16852,16852,13049,0.0472935,City,16091,3864,4.361,42.4548,-75.0669,146,36119,36119
New York,Massapequa Park,16676,16676,17050,-0.00447734,Village,16751,7608,2.192,40.6809,-73.4497,147,36059,36059
New York,Moreau,16575,16575,16264,-0.00288756,Town,16623,395,41.909,43.2474,-73.6657,148,36119,36119
New York,Geddes,16562,16562,17002,-0.00396921,Town,16628,1806,9.17,43.0767,-76.2245,149,36055,36055
New York,Thompson,16555,16555,16551,-0.00361119,Town,16615,197,84.089,41.6468,-74.677,150,36119,36119
New York,East Greenbush,16388,16388,16699,-0.00194884,Town,16420,682,24.02,42.6051,-73.7003,151,36119,36119
New York,LaGrange,16369,16369,15978,-0.00109843,Town,16387,410,39.877,41.6849,-73.7958,152,36119,36119
New York,Victor,16270,16270,15872,0.00655778,Town,16164,453,35.918,42.9892,-77.4281,153,36055,36055
New York,Bedford,16189,16189,17123,-0.00717527,Town,16306,432,37.508,41.2257,-73.6649,154,36119,36119
New York,Rye,15982,15982,16531,-0.00683569,City,16092,2731,5.853,40.9447,-73.6864,155,36119,36119
New York,Parma,15838,15838,16209,-0.00521324,Town,15921,377,42.016,43.2686,-77.7997,156,36055,36055
New York,Floral Park,15716,15716,16123,-0.00512756,Village,15797,11060,1.421,40.722,-73.7028,157,36059,36059
New York,Westbury,15692,15692,15809,-0.00146357,Village,15715,6695,2.344,40.7599,-73.5892,158,36059,36059
New York,Lewiston,15577,15577,15917,-0.0036459,Town,15634,420,37.121,43.1842,-78.9514,159,36029,36029
New York,Beacon,15493,15493,14322,0.0153352,City,15259,3269,4.739,41.5032,-73.9647,160,36119,36119
New York,New Paltz,15410,15410,14395,-0.00362085,Town,15466,455,33.875,41.764,-74.0895,161,36119,36119
New York,Batavia,15361,15361,15550,-0.00246769,City,15399,2957,5.195,42.9986,-78.1808,162,36055,36055
New York,Fallsburg,15195,15195,14051,0.0127299,Town,15004,196,77.622,41.7369,-74.6038,163,36119,36119
New York,Evans,15060,15060,15295,-0.00165728,Town,15085,363,41.53,42.6548,-79.005,164,36029,36029
New York,Farmington,14965,14965,14205,0.00706595,Town,14860,380,39.43,42.9895,-77.3087,165,36055,36055
New York,Potsdam,14758,14758,14909,-0.00202867,Town,14788,146,101.376,44.6817,-75.0371,166,36055,36055
New York,Tonawanda,14749,14749,15124,-0.00505936,City,14824,3878,3.803,43.0119,-78.8834,167,36029,36029
New York,Kenmore,14742,14742,15177,-0.00586688,Village,14829,10266,1.436,42.9646,-78.8713,168,36029,36029
New York,Depew,14717,14717,15152,-0.00587679,Village,14804,2899,5.076,42.9118,-78.7044,169,36029,36029
New York,Gloversville,14688,14688,15075,-0.00521503,City,14765,2911,5.046,43.0492,-74.3458,170,36119,36119
New York,Stony Point,14653,14653,14767,-0.00231497,Town,14687,529,27.7,41.2515,-74.0037,171,36119,36119
New York,Johnson City,14616,14616,15260,-0.00874873,Village,14745,3211,4.552,42.1253,-75.9634,172,36055,36055
New York,Sullivan,14581,14581,14784,-0.00218983,Town,14613,199,73.126,43.0907,-75.8836,173,36055,36055
New York,Glens Falls,14322,14322,14784,-0.00638268,City,14414,3719,3.851,43.3112,-73.6453,174,36119,36119
New York,Beekman,14236,14236,14114,0.00472863,Town,14169,471,30.204,41.6035,-73.6989,175,36119,36119
New York,Goshen,14072,14072,14461,-0.00908387,Town,14201,322,43.642,41.3812,-74.3525,176,36119,36119
New York,Van Buren,14046,14046,14331,-0.0034057,Town,14094,396,35.46,43.1199,-76.3548,177,36055,36055
New York,Aurora,13713,13713,13848,-0.00471766,Town,13778,377,36.394,42.7388,-78.6386,178,36029,36029
New York,Shawangunk,13622,13622,13386,0.00903704,Town,13500,243,56.056,41.6323,-74.2658,179,36119,36119
New York,Arcadia,13484,13484,13715,-0.00310513,Town,13526,259,52.033,43.0981,-77.0827,180,36055,36055
New York,Olean,13476,13476,13910,-0.00641451,City,13563,2284,5.9,42.0839,-78.4351,181,36029,36029
New York,Sweden,13378,13378,13250,0.00142226,Town,13359,397,33.68,43.1766,-77.9256,182,36055,36055
New York,North Greenbush,13318,13318,13289,0.002484,Town,13285,718,18.538,42.6733,-73.6689,183,36119,36119
New York,Dryden,13037,13037,13831,-0.0109248,Town,13181,139,93.641,42.4788,-76.3625,184,36055,36055
New York,Endicott,12927,12927,13637,-0.0108654,Village,13069,4047,3.194,42.0975,-76.0634,185,36055,36055
New York,Ballston,12865,12865,11882,0.00925708,Town,12747,435,29.576,42.9513,-73.8871,186,36119,36119
New York,Schodack,12826,12826,12943,-0.00109034,Town,12840,207,61.927,42.5314,-73.6832,187,36119,36119
New York,Kingsbury,12780,12780,12938,-0.00358646,Town,12826,322,39.673,43.3352,-73.5514,188,36119,36119
New York,Pomfret,12694,12694,13022,-0.00290629,Town,12731,290,43.827,42.4087,-79.3313,189,36029,36029
New York,Highlands,12669,12669,12912,-0.005573,Town,12740,417,30.416,41.3699,-74.0059,190,36119,36119
New York,Kent,12666,12666,12899,-0.00697765,Town,12755,313,40.531,41.4576,-73.7246,191,36119,36119
New York,Chester,12572,12572,12620,-0.00063593,Town,12580,502,25.049,41.3302,-74.277,192,36119,36119
New York,Wawarsing,12570,12570,12570,0.00215259,Town,12543,96,130.506,41.7469,-74.4196,193,36119,36119
New York,Mamakating,12550,12550,12645,-0.00444233,Town,12606,131,96.109,41.5866,-74.4952,194,36119,36119
New York,Ulster,12487,12487,12586,-0.00406763,Town,12538,466,26.802,41.971,-74.0047,195,36119,36119
New York,Pelham,12456,12456,13027,-0.00891152,Town,12568,5727,2.175,40.9005,-73.8071,196,36005,36005
New York,Cornwall,12448,12448,12859,-0.00781125,Town,12546,467,26.664,41.4142,-74.0613,197,36119,36119
New York,Brunswick,12403,12403,12580,-0.00128835,Town,12419,280,44.353,42.7458,-73.5851,198,36119,36119
New York,Patchogue,12313,12313,12373,-0.00097363,Village,12325,5448,2.26,40.7637,-73.0198,199,36103,36103
New York,Dunkirk,12250,12250,12729,-0.0077758,City,12346,2695,4.545,42.4806,-79.3329,200,36029,36029
New York,Haverstraw,12201,12201,12263,-0.000982559,Village,12213,6150,1.984,41.1782,-73.9433,201,36119,36119
New York,Geneva,12183,12183,12702,-0.00846423,City,12287,2891,4.214,42.8635,-76.9827,202,36055,36055
New York,Massena,12130,12130,12406,-0.00557468,Town,12198,274,44.345,44.962,-74.8346,203,36055,36055
New York,Woodbury,12066,12066,12187,-0.00412677,Town,12116,334,36.083,41.3275,-74.1021,204,36119,36119
New York,Babylon,12064,12064,12168,-0.00173769,Village,12085,5004,2.411,40.6937,-73.326,205,36059,36059
New York,German Flatts,12009,12009,12239,-0.00290601,Town,12044,356,33.695,42.9831,-74.9691,206,36119,36119
New York,Malone,11882,11882,12126,0.0218438,Town,11628,117,101.52,44.7729,-74.2816,207,36119,36119
New York,North Castle,11864,11864,12367,-0.00719665,Town,11950,500,23.735,41.1363,-73.6905,208,36119,36119
New York,Canandaigua,11750,11750,11128,0.0159965,Town,11565,207,56.816,42.8616,-77.3142,209,36055,36055
New York,Lewisboro,11715,11715,12211,-0.00905092,Town,11822,422,27.765,41.2661,-73.5883,210,36119,36119
New York,Plattsburgh,11708,11708,11861,-0.00450642,Town,11761,257,45.584,44.6923,-73.5165,211,36119,36119
New York,Sleepy Hollow,11627,11627,9964,0.0294847,Village,11294,5184,2.243,41.0975,-73.8696,212,36119,36119
New York,Tarrytown,11609,11609,11813,-0.00351931,Village,11650,3954,2.936,41.0652,-73.8663,213,36119,36119
New York,Elma,11608,11608,11709,-0.00163413,Town,11627,336,34.518,42.8283,-78.6476,214,36029,36029
New York,Putnam Valley,11560,11560,11741,-0.00695817,Town,11641,281,41.109,41.3954,-73.8391,215,36119,36119
New York,Woodbury,11507,11507,11519,-0.000173777,Village,11509,324,35.561,41.3275,-74.1021,216,36119,36119
New York,Lansing,11480,11480,11594,-0.00820734,Town,11575,190,60.49,42.5665,-76.532,217,36055,36055
New York,Patterson,11449,11449,11529,-0.00460789,Town,11502,355,32.208,41.4842,-73.5878,218,36119,36119
New York,Suffern,11292,11292,11414,-0.00212089,Village,11316,5385,2.097,41.112,-74.1414,219,36119,36119
New York,Canton,11259,11259,11794,-0.00819239,Town,11352,108,104.734,44.5744,-75.2108,220,36055,36055
New York,Bath,11237,11237,11398,-0.00398865,Town,11282,118,95.315,42.3224,-77.3166,221,36055,36055
New York,Dobbs Ferry,11198,11198,11475,-0.00488759,Village,11253,4622,2.423,41.01,-73.8686,222,36119,36119
New York,Catskill,11174,11174,11270,-0.00472076,Town,11227,185,60.437,42.2087,-73.9389,223,36119,36119
New York,Fulton,11166,11166,11371,-0.00365843,City,11207,2846,3.923,43.3192,-76.4197,224,36055,36055
New York,Red Hook,11122,11122,10942,0.000359776,Town,11118,308,36.127,42.0169,-73.888,225,36119,36119
New York,Lloyd,11044,11044,11138,-0.00261898,Town,11073,353,31.266,41.7139,-73.9951,226,36119,36119
New York,Lake Grove,11009,11009,11038,-0.000544711,Village,11015,3737,2.946,40.8578,-73.1168,227,36103,36103
New York,Great Neck,10937,10937,11111,-0.00318994,Village,10972,8261,1.324,40.8024,-73.7331,228,36081,36081
New York,Corning,10629,10629,10586,0.000847457,City,10620,3446,3.084,42.1482,-77.0564,229,36055,36055
New York,West Haverstraw,10586,10586,10675,-0.00169747,Village,10604,6974,1.518,41.2063,-73.9868,230,36119,36119
New York,Chestnut Ridge,10564,10564,10469,0.0018018,Village,10545,2134,4.951,41.0849,-74.0481,231,36119,36119
New York,Ontario,10490,10490,10455,-0.00123774,Town,10503,324,32.412,43.2455,-77.316,232,36055,36055
New York,Geneseo,10466,10466,10217,0.00316304,Town,10433,238,43.932,42.8066,-77.7796,233,36055,36055
New York,Chenango,10455,10455,10936,-0.00909866,Town,10551,309,33.834,42.2156,-75.9023,234,36055,36055
New York,Canandaigua,10442,10442,10537,-0.00181627,City,10461,2290,4.56,42.889,-77.2803,235,36055,36055
New York,Liberty,10385,10385,10161,0.000385319,Town,10381,130,79.583,41.8118,-74.7798,236,36119,36119
New York,Mount Kisco,10381,10381,10914,-0.00887913,Town,10474,3414,3.041,41.2017,-73.7283,237,36119,36119
New York,Mount Kisco,10335,10335,10914,-0.0110994,Village,10451,3399,3.041,41.2017,-73.7283,238,36119,36119
New York,Plattekill,10286,10286,10416,-0.00368074,Town,10324,293,35.111,41.6543,-74.0742,239,36119,36119
New York,Alden,10231,10231,9670,0.0149802,Town,10080,298,34.319,42.9073,-78.5206,240,36029,36029
New York,Airmont,10228,10228,10065,0.00323688,Village,10195,2241,4.565,41.0992,-74.0979,241,36119,36119
New York,Watervliet,10045,10045,10357,-0.00613436,City,10107,7485,1.342,42.7249,-73.707,242,36119,36119
New York,New Hyde Park,10035,10035,10269,-0.00466177,Village,10082,11834,0.848,40.7323,-73.6859,243,36059,36059
New York,Massena,9973,9973,10245,-0.00538546,Village,10027,2202,4.53,44.929,-74.893,244,36055,36055
New York,Lancaster,9967,9967,10166,-0.0039972,Village,10007,3667,2.718,42.9006,-78.6688,245,36029,36029
New York,East Rockaway,9961,9961,10083,-0.00240361,Village,9985,9785,1.018,40.6438,-73.6671,246,36059,36059
New York,Oneida,9945,9945,10317,-0.00738597,City,10019,451,22.053,43.0704,-75.6736,247,36055,36055
New York,New Square,9894,9894,9718,0.00355005,Village,9859,26959,0.367,41.141,-74.0294,248,36119,36119
New York,Philipstown,9763,9763,9822,-0.00499388,Town,9812,200,48.797,41.4124,-73.9214,249,36119,36119
New York,Hamburg,9739,9739,9751,-0.000205317,Village,9741,3929,2.479,42.7234,-78.8348,250,36029,36029
New York,Pleasant Valley,9707,9707,9792,-0.00246634,Town,9731,298,32.595,41.7706,-73.8045,251,36119,36119
New York,Stillwater,9694,9694,9042,0.00916094,Town,9606,235,41.191,42.9688,-73.6872,252,36119,36119
New York,Amityville,9653,9653,9463,0.00395216,Village,9615,4695,2.056,40.6698,-73.4158,253,36059,36059
New York,Rye Brook,9641,9641,9968,-0.00669689,Village,9706,2812,3.428,41.03,-73.6864,254,36119,36119
New York,Kirkland,9601,9601,9917,-0.00476832,Town,9647,284,33.762,43.0367,-75.3845,255,36055,36055
New York,Walworth,9476,9476,9244,0.00862161,Town,9395,280,33.853,43.1551,-77.3126,256,36055,36055
New York,Monroe,9469,9469,9488,-0.000422252,Village,9473,2711,3.493,41.3177,-74.1857,257,36119,36119
New York,Esopus,9453,9453,9552,-0.00295327,Town,9481,253,37.312,41.8333,-73.9854,258,36119,36119
New York,Herkimer,9393,9393,9550,-0.00497881,Town,9440,297,31.662,43.061,-75.0004,259,36119,36119
New York,Rensselaer,9375,9375,9212,0.00353243,City,9342,2949,3.179,42.6457,-73.7325,260,36119,36119
New York,Hastings,9362,9362,9337,0.000748262,Town,9355,205,45.645,43.3204,-76.1566,261,36055,36055
New York,New Paltz,9344,9344,7363,0.0442557,Village,8948,5303,1.762,41.7499,-74.0797,262,36119,36119
New York,Fredonia,9319,9319,9658,-0.00724406,Village,9387,1814,5.137,42.4407,-79.3319,263,36029,36029
New York,Macedon,9196,9196,9266,-0.00238663,Town,9218,238,38.684,43.0789,-77.3105,264,36055,36055
New York,New Scotland,9168,9168,9086,0.00350263,Town,9136,159,57.5,42.6035,-73.9392,265,36119,36119
New York,Manchester,9144,9144,9405,-0.00792015,Town,9217,242,37.818,42.987,-77.1941,266,36055,36055
New York,Mendon,9116,9116,9101,0.00451791,Town,9075,231,39.474,42.9825,-77.5556,267,36055,36055
New York,Newfane,9101,9101,9259,-0.00513774,Town,9148,176,51.823,43.2902,-78.6928,268,36029,36029
New York,Ogdensburg,8928,8928,9867,-0.0206231,City,9116,1801,4.956,44.7092,-75.4633,269,36055,36055
New York,Crawford,8913,8913,9110,-0.00635451,Town,8970,223,40.031,41.5714,-74.3157,270,36119,36119
New York,Newark,8895,8895,9075,-0.0040309,Village,8931,1641,5.419,43.042,-77.094,271,36055,36055
New York,Marlborough,8809,8809,8703,0.000795273,Town,8802,360,24.47,41.6363,-73.9871,272,36119,36119
New York,Southport,8760,8760,9572,-0.00815217,Town,8832,189,46.399,42.05,-76.8774,273,36055,36055
New York,Seneca Falls,8739,8739,9074,-0.00693182,Town,8800,361,24.218,42.9122,-76.7893,274,36055,36055
New York,Newstead,8594,8594,8690,-0.00278487,Town,8618,169,50.759,43.0168,-78.5214,275,36029,36029
New York,Oswego,8593,8593,7918,-0.00151057,Town,8606,314,27.333,43.4024,-76.555,276,36055,36055
New York,Lenox,8548,8548,8748,-0.0037296,Town,8580,236,36.267,43.1116,-75.757,277,36055,36055
New York,Farmingdale,8539,8539,8446,0.00223005,Village,8520,7805,1.094,40.7328,-73.4468,278,36059,36059
New York,Ellicott,8527,8527,8770,-0.00420413,Town,8563,280,30.489,42.133,-79.236,279,36029,36029
New York,Hamlin,8488,8488,8729,-0.00759967,Town,8553,196,43.249,43.3224,-77.9203,280,36055,36055
New York,Port Jervis,8449,8449,8738,-0.00681791,City,8507,3340,2.53,41.378,-74.6908,281,36061,36061
New York,Potsdam,8406,8406,8481,-0.00178126,Village,8421,1709,4.918,44.6708,-74.9835,282,36055,36055
New York,Marcy,8356,8356,8472,0.00481,Town,8316,254,32.89,43.1726,-75.2677,283,36055,36055
New York,Malverne,8336,8336,8538,-0.00477555,Village,8376,7879,1.058,40.6745,-73.6721,284,36059,36059
New York,Barton,8329,8329,8567,-0.00454165,Town,8367,140,59.418,42.0835,-76.4931,285,36055,36055
New York,Sand Lake,8290,8290,8338,0.0,Town,8290,237,35.049,42.6303,-73.5429,286,36119,36119
New York,Dover,8245,8245,8394,-0.00554818,Town,8291,149,55.182,41.6791,-73.5688,287,36119,36119
New York,Port Jefferson,8239,8239,7963,0.00672043,Village,8184,2690,3.063,40.9422,-73.0528,288,36103,36103
New York,Concord,8158,8158,8302,-0.00329872,Town,8185,117,69.937,42.5453,-78.703,289,36029,36029
New York,Hastings-on-Hudson,8147,8147,8546,-0.00972408,Village,8227,4117,1.979,40.988,-73.8812,290,36005,36005
New York,Pawling,8101,8101,7978,0.00384139,Town,8070,184,43.968,41.5686,-73.596,291,36119,36119
New York,Cortlandville,8096,8096,8403,-0.00650387,Town,8149,163,49.723,42.6035,-76.1176,292,36055,36055
New York,Croton-on-Hudson,8062,8062,8247,-0.00456847,Village,8099,1718,4.693,41.2097,-73.9012,293,36119,36119
New York,Sodus,8053,8053,8030,0.0,Town,8053,120,67.268,43.2181,-77.0494,294,36055,36055
New York,Johnstown,8047,8047,8177,-0.00322061,City,8073,1670,4.82,43.0073,-74.3751,295,36119,36119
New York,Vernon,8026,8026,8298,-0.00631423,Town,8077,200,40.138,43.0663,-75.5354,296,36055,36055
New York,Waterford,7962,7962,8208,-0.00896191,Town,8034,1212,6.567,42.8042,-73.6873,297,36119,36119
New York,Greenfield,7960,7960,8005,-0.00450225,Town,7996,118,67.396,43.138,-73.8723,298,36119,36119
New York,Hornell,7926,7926,8233,-0.00763741,City,7987,2417,3.279,42.333,-77.6632,299,36055,36055
New York,Kinderhook,7919,7919,8202,-0.0134546,Town,8027,249,31.806,42.4113,-73.6827,300,36119,36119
New York,Schroeppel,7910,7910,7960,-0.00151477,Town,7922,187,42.201,43.2576,-76.2764,301,36055,36055
New York,Boston,7871,7871,7947,-0.00354475,Town,7899,220,35.821,42.6528,-78.7555,302,36029,36029
New York,Erwin,7830,7830,8071,-0.005209,Town,7871,203,38.655,42.1382,-77.1409,303,36055,36055
New York,Geneseo,7819,7819,7598,0.00565916,Village,7775,2744,2.849,42.799,-77.8095,304,36055,36055
New York,Great Neck Plaza,7787,7787,7447,0.00880943,Village,7719,25039,0.311,40.7869,-73.7262,305,36081,36081
New York,North Elba,7740,7740,7478,0.00912647,Town,7670,51,151.694,44.2066,-74.0461,306,36119,36119
New York,Niagara,7611,7611,7881,-0.00730403,Town,7667,803,9.484,43.1154,-78.981,307,36029,36029
New York,Le Roy,7575,7575,7645,0.00331126,Town,7550,180,42.086,42.9927,-77.9662,308,36055,36055
New York,Colonie,7529,7529,7761,-0.00607261,Village,7575,2322,3.242,42.7209,-73.8317,309,36119,36119
New York,Baldwinsville,7527,7527,7806,-0.00738494,Village,7583,2360,3.19,43.1597,-76.3385,310,36055,36055
New York,Ilion,7499,7499,7669,-0.00451347,Village,7533,3008,2.493,43.0113,-75.0397,311,36119,36119
New York,Coxsackie,7482,7482,8216,-0.00677021,Town,7533,203,36.872,42.3457,-73.8633,312,36119,36119
New York,Eden,7473,7473,7567,-0.00240288,Town,7491,188,39.786,42.6548,-78.8822,313,36029,36029
New York,Big Flats,7407,7407,7771,-0.00763666,Town,7464,167,44.485,42.1385,-76.9138,314,36055,36055
New York,Royalton,7395,7395,7508,-0.00336927,Town,7420,106,69.966,43.1564,-78.5562,315,36029,36029
New York,Williston Park,7390,7390,7562,-0.00457974,Village,7424,11805,0.626,40.7588,-73.6466,316,36059,36059
New York,Rochester,7388,7388,7280,0.0016269,Town,7376,83,89.303,41.813,-74.2706,317,36119,36119
New York,Rhinebeck,7378,7378,7586,-0.0120514,Town,7468,207,35.728,41.9265,-73.9019,318,36119,36119
New York,Busti,7376,7376,7539,-0.00243441,Town,7394,153,48.206,42.0505,-79.3258,319,36029,36029
New York,Livonia,7371,7371,7491,-0.00405351,Town,7401,193,38.262,42.809,-77.6536,320,36055,36055
New York,Wawayanda,7359,7359,7520,-0.00513722,Town,7397,212,34.704,41.3829,-74.4677,321,36119,36119
New York,Hudson Falls,7350,7350,7414,-0.00176558,Village,7363,3949,1.861,43.3047,-73.5816,322,36119,36119
New York,Allegany,7324,7324,7490,-0.00367297,Town,7351,103,70.942,42.0913,-78.5319,323,36029,36029
New York,Deerpark,7294,7294,7489,-0.00613162,Town,7339,110,66.498,41.4503,-74.6686,324,36119,36119
New York,Palmyra,7291,7291,7394,-0.00423381,Town,7322,218,33.435,43.0802,-77.1891,325,36055,36055
New York,Schaghticoke,7255,7255,7393,-0.0028862,Town,7276,146,49.74,42.884,-73.6107,326,36119,36119
New York,Nyack,7248,7248,7237,0.000276014,Village,7246,9413,0.77,41.0929,-73.9152,327,36119,36119
New York,Cedarhurst,7241,7241,7350,-0.00302905,Village,7263,10727,0.675,40.6252,-73.7278,328,36081,36081
New York,Northport,7233,7233,7332,-0.00275748,Village,7253,3141,2.303,40.904,-73.345,329,36059,36059
New York,East Hills,7218,7218,7242,-0.000692233,Village,7223,3167,2.279,40.7958,-73.6292,330,36059,36059
New York,Monticello,7210,7210,7237,-0.000693,Village,7215,1767,4.081,41.6525,-74.6878,331,36119,36119
New York,Herkimer,7201,7201,7286,-0.00235522,Village,7218,2782,2.588,43.0281,-74.9933,332,36119,36119
New York,Scotia,7193,7193,7262,-0.00194255,Village,7207,4261,1.688,42.832,-73.9604,333,36119,36119
New York,Waterloo,7189,7189,7363,-0.00553327,Town,7229,332,21.668,42.9194,-76.9126,334,36055,36055
New York,Coeymans,7180,7180,7253,-0.000278473,Town,7182,143,50.182,42.4913,-73.8751,335,36119,36119
New York,Briarcliff Manor,7176,7176,7533,-0.00979716,Village,7247,1197,5.995,41.1403,-73.8475,336,36119,36119
New York,Brockport,7109,7109,7113,-0.000140646,Village,7110,3270,2.174,43.2133,-77.9408,337,36055,36055
New York,Pleasantville,7096,7096,7493,-0.0110105,Village,7175,3829,1.853,41.134,-73.7841,338,36119,36119
New York,Pendleton,7059,7059,7027,0.0032689,Town,7036,261,27.086,43.1044,-78.7646,339,36029,36029
New York,Pelham,7029,7029,7301,-0.00762389,Village,7083,8551,0.822,40.9111,-73.8077,340,36005,36005
New York,Skaneateles,7024,7024,7113,-0.00241443,Town,7041,165,42.608,42.9184,-76.4024,341,36055,36055
New York,Avon,7006,7006,6917,0.00315006,Town,6984,170,41.215,42.8982,-77.7206,342,36055,36055
New York,Pompey,6983,6983,7069,-0.00257106,Town,7001,105,66.423,42.9201,-75.9877,343,36055,36055
New York,Albion,6952,6952,7528,0.00476948,Town,6919,275,25.257,43.2263,-78.2094,344,36055,36055
New York,Walden,6947,6947,6867,0.00230847,Village,6931,3458,2.009,41.56,-74.1882,345,36119,36119
New York,Wellsville,6870,6870,7046,-0.00564481,Town,6909,187,36.646,42.1184,-77.9253,346,36055,36055
New York,Manorhaven,6868,6868,6950,-0.00232423,Village,6884,14644,0.469,40.8388,-73.7108,347,36005,36005
New York,Canton,6852,6852,7381,-0.0152343,Village,6958,1653,4.145,44.6,-75.1666,348,36055,36055
New York,Frankfort,6852,6852,6992,-0.00276525,Town,6871,188,36.433,43.0407,-75.1369,349,36119,36119
New York,Milo,6844,6844,6816,0.000438532,Town,6841,178,38.434,42.6105,-77.0079,350,36055,36055
New York,Williamson,6808,6808,6849,-0.000440463,Town,6811,197,34.64,43.2456,-77.194,351,36055,36055
New York,Hanover,6798,6798,6963,-0.00322581,Town,6820,138,49.158,42.4874,-79.1142,352,36029,36029
New York,Tuckahoe,6789,6789,7066,-0.00803624,Village,6844,11296,0.601,40.9531,-73.8229,353,36005,36005
New York,Corinth,6785,6785,6512,0.0120823,Town,6704,120,56.764,43.2286,-73.9222,354,36119,36119
New York,North Syracuse,6784,6784,6731,0.0016241,Village,6773,3414,1.987,43.1339,-76.1304,355,36055,36055
New York,Lawrence,6716,6716,6793,-0.00222849,Village,6731,1806,3.718,40.6029,-73.7144,356,36059,36059
New York,Clarkson,6699,6699,6901,-0.00608309,Town,6740,202,33.179,43.2451,-77.9325,357,36055,36055
New York,Scriba,6674,6674,6612,0.00496913,Town,6641,165,40.571,43.4572,-76.4197,358,36055,36055
New York,Cazenovia,6664,6664,6729,-0.000749737,Town,6669,133,49.943,42.9159,-75.862,359,36055,36055
New York,Bayville,6626,6626,6768,-0.00420799,Village,6654,4554,1.455,40.9073,-73.5612,360,36059,36059
New York,Hoosick,6621,6621,6702,-0.000301977,Town,6623,105,63.032,42.8768,-73.3515,361,36119,36119
New York,Peru,6618,6618,6772,-0.0040632,Town,6645,84,78.886,44.5811,-73.5637,362,36119,36119
New York,Cairo,6612,6612,6660,-0.00421687,Town,6640,111,59.83,42.299,-74.0157,363,36119,36119
New York,Gouverneur,6610,6610,6485,0.00746837,Town,6561,93,71.201,44.3551,-75.4898,364,36055,36055
New York,Elmira,6488,6488,6831,-0.00825436,Town,6542,292,22.209,42.0953,-76.7789,365,36055,36055
New York,Granby,6477,6477,6520,-0.000925497,Town,6483,145,44.546,43.2897,-76.4417,366,36055,36055
New York,Norwich,6471,6471,7005,-0.0162663,City,6578,3047,2.124,42.5333,-75.5228,367,36055,36055
New York,Phelps,6468,6468,6644,-0.00812759,Town,6521,100,64.951,42.9571,-77.0473,368,36055,36055
New York,Warwick,6432,6432,6659,-0.00694766,Village,6477,2651,2.426,41.2552,-74.3547,369,36119,36119
New York,Larchmont,6413,6413,6612,-0.00619867,Village,6453,5851,1.096,40.926,-73.752,370,36005,36005
New York,Ridgeway,6401,6401,6578,-0.0046649,Town,6431,128,50.026,43.2624,-78.3767,371,36029,36029
New York,Hamilton,6390,6390,6377,0.000783085,Town,6385,154,41.365,42.7925,-75.4894,372,36055,36055
New York,Solvay,6385,6385,6632,-0.00761579,Village,6434,3951,1.616,43.0571,-76.2123,373,36055,36055
New York,Porter,6362,6362,6500,-0.00547131,Town,6397,192,33.055,43.2579,-78.9702,374,36029,36029
New York,Johnstown,6336,6336,6779,0.0,Town,6336,90,70.362,43.0443,-74.3983,375,36119,36119
New York,Mount Hope,6327,6327,6462,-0.00954915,Town,6388,252,25.134,41.4563,-74.527,376,36119,36119
New York,Cobleskill,6304,6304,6092,-0.00110917,Town,6311,206,30.605,42.6875,-74.4422,377,36119,36119
New York,Batavia,6296,6296,6303,0.00334661,Town,6275,131,48.187,42.997,-78.2279,378,36055,36055
New York,Irvington,6275,6275,6630,-0.0111882,Village,6346,2249,2.79,41.0343,-73.867,379,36119,36119
New York,Bronxville,6257,6257,6624,-0.0115324,Village,6330,6437,0.972,40.9395,-73.8264,380,36005,36005
New York,Horseheads,6221,6221,6585,-0.0115983,Village,6294,1598,3.893,42.1686,-76.8297,381,36055,36055
New York,Wesley Hills,6191,6191,6130,0.00194206,Village,6179,1847,3.352,41.1576,-74.079,382,36119,36119
New York,Woodstock,6164,6164,6282,-0.00500403,Town,6195,92,67.289,42.0555,-74.1654,383,36119,36119
New York,Granville,6135,6135,6203,-0.00324939,Town,6155,110,55.618,43.422,-73.306,384,36119,36119
New York,Fenton,6121,6121,6408,-0.00890544,Town,6176,187,32.775,42.2015,-75.8033,385,36055,36055
New York,Hurley,6091,6091,6175,-0.00294647,Town,6109,204,29.911,41.9588,-74.1233,386,36119,36119
New York,Mayfield,6088,6088,6129,-0.000492529,Town,6091,104,58.385,43.1248,-74.2628,387,36119,36119
New York,East Rochester,6064,6064,6323,-0.00769105,Town,6111,4611,1.315,43.1122,-77.4872,388,36055,36055
New York,East Rochester,6048,6048,6323,-0.00901196,Village,6103,4599,1.315,43.1122,-77.4872,389,36055,36055
New York,Wappingers Falls,6008,6008,6103,-0.00315248,Village,6027,5360,1.121,41.5982,-73.9169,390,36119,36119
New York,Homer,5985,5985,6289,-0.00959788,Town,6043,119,50.221,42.662,-76.1702,391,36055,36055
New York,Alfred,5955,5955,6129,0.00676247,Town,5915,189,31.476,42.2333,-77.7951,392,36055,36055
New York,Lee,5945,5945,6158,-0.00635133,Town,5983,132,45.053,43.3252,-75.5186,393,36055,36055
New York,East Aurora,5935,5935,5974,-0.00134612,Village,5943,2364,2.511,42.7668,-78.617,394,36029,36029
New York,Duanesburg,5920,5920,5859,0.00390029,Town,5897,84,70.784,42.778,-74.1727,395,36119,36119
New York,Marcellus,5909,5909,6060,-0.00454852,Town,5936,182,32.471,42.9424,-76.3235,396,36055,36055
New York,Claverack,5906,5906,6056,-0.00672721,Town,5946,124,47.559,42.2188,-73.6899,397,36119,36119
New York,Kaser,5851,5851,5470,0.0131602,Village,5775,34017,0.172,41.1213,-74.0686,398,36119,36119
New York,Fort Edward,5838,5838,5962,-0.00764916,Town,5883,219,26.616,43.2306,-73.5592,399,36119,36119
New York,Medina,5837,5837,6009,-0.00579118,Village,5871,1769,3.299,43.2197,-78.3879,400,36029,36029
New York,Westmoreland,5833,5833,5924,-0.00256498,Town,5848,135,43.136,43.1215,-75.4391,401,36055,36055
New York,Verona,5815,5815,5963,-0.00308589,Town,5833,84,69.25,43.1592,-75.6271,402,36055,36055
New York,Hilton,5794,5794,6036,-0.00821636,Village,5842,3244,1.786,43.29,-77.7926,403,36055,36055
New York,Albion,5788,5788,5642,0.0050356,Village,5759,1982,2.92,43.246,-78.1902,404,36055,36055
New York,Saratoga,5772,5772,5814,-0.00465597,Town,5799,142,40.562,43.0542,-73.6437,405,36119,36119
New York,Webster,5758,5758,5735,0.000869111,Village,5753,2614,2.203,43.2164,-77.4219,406,36055,36055
New York,Corning,5739,5739,5901,-0.00433727,Town,5764,156,36.85,42.1493,-77.0142,407,36055,36055
New York,Brownville,5736,5736,5828,-0.00451232,Town,5762,97,58.922,44.0269,-76.0834,408,36055,36055
New York,Richland,5735,5735,5619,0.0008726,Town,5730,100,57.251,43.5508,-76.1654,409,36055,36055
New York,Goshen,5725,5725,5744,-0.000698202,Village,5729,1724,3.32,41.4016,-74.3269,410,36119,36119
New York,Hudson,5708,5708,5913,-0.00713167,City,5749,2645,2.158,42.2519,-73.786,411,36119,36119
New York,Perry,5707,5707,5805,-0.0036662,Town,5728,157,36.383,42.7537,-78.0111,412,36055,36055
New York,Cambria,5694,5694,5738,-0.00175316,Town,5704,143,39.71,43.1766,-78.8203,413,36029,36029
New York,Marbletown,5693,5693,5657,-0.000702123,Town,5697,105,54.471,41.8739,-74.1642,414,36119,36119
New York,Salamanca,5684,5684,5931,-0.00854701,City,5733,948,5.994,42.1647,-78.7413,415,36029,36029
New York,Amsterdam,5683,5683,5562,0.00833925,Town,5636,192,29.642,42.9556,-74.1661,416,36119,36119
New York,Wilson,5675,5675,5834,-0.00682534,Town,5714,115,49.405,43.2727,-78.8129,417,36029,36029
New York,Volney,5645,5645,5659,0.000177179,Town,5644,117,48.245,43.3604,-76.3697,418,36055,36055
New York,Kings Point,5629,5629,5611,0.000711111,Village,5625,1676,3.359,40.8179,-73.7393,419,36005,36005
New York,Rosendale,5611,5611,5778,-0.00725407,Town,5652,281,19.979,41.8471,-74.0795,420,36119,36119
New York,Washingtonville,5609,5609,5723,-0.00408381,Village,5632,2210,2.538,41.4285,-74.1586,421,36119,36119
New York,Champlain,5609,5609,5736,-0.00426061,Town,5633,110,51.193,44.9663,-73.4369,422,36119,36119
New York,Gardiner,5585,5585,5610,-0.00267857,Town,5600,129,43.435,41.6916,-74.1883,423,36119,36119
New York,Riga,5541,5541,5573,-0.00018044,Town,5542,158,34.961,43.0773,-77.8726,424,36055,36055
New York,Wilna,5524,5524,5696,-0.0100358,Town,5580,71,77.978,44.0555,-75.5887,425,36055,36055
New York,Windsor,5523,5523,5780,-0.0100376,Town,5579,60,91.803,42.0638,-75.6724,426,36119,36119
New York,Bath,5502,5502,5594,-0.00326087,Village,5520,1735,3.172,42.3361,-77.3169,427,36055,36055
New York,Lyons,5500,5500,5660,-0.00614384,Town,5534,147,37.484,43.0944,-77.0041,428,36055,36055
New York,Williamsville,5488,5488,5413,0.00274073,Village,5473,4362,1.258,42.9582,-78.7395,429,36029,36029
New York,Hamptonburgh,5476,5476,5478,-0.00345769,Town,5495,205,26.758,41.4493,-74.2448,430,36119,36119
New York,Watertown,5421,5421,5833,-0.00440771,Town,5445,152,35.69,43.9328,-75.919,431,36055,36055
New York,Pelham Manor,5419,5419,5726,-0.0111314,Village,5480,4005,1.353,40.8931,-73.8059,432,36005,36005
New York,New Hempstead,5397,5397,5451,-0.00203402,Village,5408,1899,2.842,41.1457,-74.051,433,36119,36119
New York,Pittstown,5393,5393,5525,-0.00351072,Town,5412,87,61.646,42.8634,-73.5185,434,36119,36119
New York,Elbridge,5360,5360,5469,-0.00316161,Town,5377,143,37.558,43.0535,-76.4372,435,36055,36055
New York,Beekmantown,5356,5356,5501,-0.00538533,Town,5385,89,60.425,44.7882,-73.5029,436,36119,36119
New York,Sidney,5353,5353,5529,-0.0110844,Town,5413,107,49.929,42.3067,-75.276,437,36119,36119
New York,Groton,5349,5349,5705,-0.0130996,Town,5420,108,49.406,42.5834,-76.3599,438,36055,36055
New York,Malone,5339,5339,5491,-0.00558763,Village,5369,1712,3.119,44.8482,-74.2896,439,36055,36055
New York,Mexico,5327,5327,5260,0.00320151,Town,5310,115,46.272,43.4551,-76.2046,440,36055,36055
New York,North Hills,5318,5318,5447,-0.00486527,Village,5344,1929,2.757,40.7765,-73.6778,441,36059,36059
New York,Fairport,5281,5281,5460,-0.00677074,Village,5317,3342,1.58,43.0995,-77.4431,442,36055,36055
New York,Attica,5259,5259,5617,0.0156431,Town,5178,147,35.748,42.8206,-78.2456,443,36029,36029
New York,Warsaw,5246,5246,5290,-0.00228224,Town,5258,148,35.418,42.7382,-78.1317,444,36055,36055
New York,Kirkwood,5230,5230,5479,-0.00909435,Town,5278,170,30.707,42.0914,-75.7986,445,36055,36055
New York,Liberty,5201,5201,5023,0.00696999,Village,5165,1984,2.621,41.7966,-74.7432,446,36119,36119
New York,Harrietstown,5193,5193,5262,-0.0017301,Town,5202,26,196.951,44.218,-74.2066,447,36119,36119
New York,Old Westbury,5192,5192,4294,0.0359138,Village,5012,606,8.572,40.7865,-73.5975,448,36059,36059
New York,Delhi,5161,5161,4780,-0.00289799,Town,5176,80,64.198,42.2724,-74.9075,449,36119,36119
New York,Ghent,5146,5146,5301,-0.00828676,Town,5189,114,45.132,42.315,-73.649,450,36119,36119
New York,North Dansville,5129,5129,5311,-0.0085057,Town,5173,520,9.859,42.5583,-77.6915,451,36055,36055
New York,Marilla,5107,5107,5181,-0.00370659,Town,5126,186,27.519,42.8245,-78.5283,452,36029,36029
New York,Broadalbin,5101,5101,5135,0.000784775,Town,5097,161,31.722,43.0763,-74.1524,453,36119,36119
New York,North Salem,5092,5092,5155,-0.000588812,Town,5095,238,21.369,41.3337,-73.6145,454,36119,36119
New York,Walton,5082,5082,5255,-0.0108992,Town,5138,52,96.834,42.1735,-75.127,455,36119,36119
New York,Vienna,5074,5074,5253,-0.00607248,Town,5105,83,61.447,43.2322,-75.772,456,36055,36055
New York,Northumberland,5071,5071,5235,-0.0103435,Town,5124,157,32.299,43.1623,-73.6283,457,36119,36119
New York,Tupper Lake,5055,5055,5143,-0.00295858,Town,5070,43,117.352,44.2436,-74.4668,458,36119,36119
New York,Mechanicville,5039,5039,5163,-0.00493681,City,5064,6006,0.839,42.9041,-73.6889,459,36119,36119
New York,Penn Yan,5026,5026,5116,-0.0035686,Village,5044,2094,2.4,42.6607,-77.0531,460,36055,36055
New York,Elmsford,5002,5002,5254,-0.00989707,Village,5052,4732,1.057,41.0541,-73.8143,461,36119,36119
New York,Island Park,4996,4996,4945,0.00200562,Village,4986,11227,0.445,40.6052,-73.6553,462,36059,36059
New York,Candor,4960,4960,5138,-0.00361591,Town,4978,52,94.993,42.2229,-76.3161,463,36055,36055
New York,Sea Cliff,4951,4951,5060,-0.00442389,Village,4973,4440,1.115,40.8462,-73.6504,464,36059,36059
New York,Maine,4945,4945,5164,-0.0088194,Town,4989,109,45.539,42.1961,-76.0166,465,36055,36055
New York,Dickinson,4940,4940,5076,-0.0020202,Town,4950,1037,4.765,42.1299,-75.9097,466,36055,36055
New York,Greene,4940,4940,5286,-0.0137752,Town,5009,66,75.083,42.3082,-75.754,467,36055,36055
New York,Oneonta,4901,4901,5058,-0.00729188,Town,4937,149,32.913,42.4251,-75.0999,468,36119,36119
New York,Pound Ridge,4870,4870,5062,-0.00591958,Town,4899,218,22.31,41.2124,-73.5838,469,36119,36119
New York,Lowville,4856,4856,4871,-0.00205508,Town,4866,128,37.869,43.8139,-75.5182,470,36055,36055
New York,Adams,4848,4848,4946,-0.00635376,Town,4879,115,42.231,43.8449,-76.054,471,36055,36055
New York,Hector,4837,4837,4885,-0.00268041,Town,4850,47,102.368,42.4583,-76.7838,472,36055,36055
New York,Schuyler Falls,4835,4835,4842,0.0010352,Town,4830,131,36.962,44.6597,-73.5844,473,36119,36119
New York,LaFayette,4823,4823,4903,-0.00268817,Town,4836,123,39.274,42.9076,-76.1033,474,36055,36055
New York,Saranac Lake,4813,4813,4958,-0.00598926,Village,4842,1653,2.911,44.3259,-74.1309,475,36119,36119
New York,Ardsley,4812,4812,5071,-0.0106908,Village,4864,3643,1.321,41.0135,-73.8393,476,36119,36119
New York,Ballston Spa,4811,4811,5116,-0.0125205,Village,4872,3005,1.601,43.0056,-73.8545,477,36119,36119
New York,Shelby,4804,4804,4873,-0.001455,Town,4811,104,46.389,43.1733,-78.3868,478,36029,36029
New York,Greenwich,4802,4802,4859,-0.0035277,Town,4819,110,43.663,43.1475,-73.4759,479,36119,36119
New York,Flower Hill,4799,4799,4779,0.000834202,Village,4795,2977,1.612,40.8075,-73.6756,480,36059,36059
New York,Conklin,4768,4768,5000,-0.00914381,Town,4812,195,24.467,42.0407,-75.835,481,36055,36055
New York,Constantia,4762,4762,4777,-0.000209951,Town,4763,84,56.766,43.2588,-75.9637,482,36055,36055
New York,Newfield,4762,4762,5088,-0.012443,Town,4822,81,58.831,42.3371,-76.6102,483,36055,36055
New York,Chittenango,4757,4757,4889,-0.00543592,Village,4783,1915,2.484,43.0461,-75.8748,484,36055,36055
New York,Wheatland,4746,4746,4888,-0.00815047,Town,4785,156,30.411,43.0092,-77.8159,485,36055,36055
New York,Minisink,4726,4726,4616,0.00361011,Town,4709,205,23.001,41.3241,-74.5412,486,36119,36119
New York,Murray,4710,4710,4812,-0.00296359,Town,4724,152,31.06,43.2585,-78.0571,487,36055,36055
New York,Southampton,4686,4686,4538,0.0064433,Village,4656,719,6.518,40.8766,-72.4031,488,36103,36103
New York,Colesville,4654,4654,4855,-0.00894378,Town,4696,59,78.356,42.1795,-75.6504,489,36119,36119
New York,Cobleskill,4625,4625,4260,0.0160369,Village,4552,1297,3.565,42.679,-74.4852,490,36119,36119
New York,Camden,4625,4625,4780,-0.0051624,Town,4649,86,54.023,43.3451,-75.7743,491,36055,36055
New York,Alfred,4622,4622,5039,-0.0176408,Village,4705,3884,1.19,42.2543,-77.7896,492,36055,36055
New York,Montebello,4608,4608,4648,-0.0017331,Village,4616,1066,4.321,41.1308,-74.1101,493,36119,36119
New York,Waterloo,4607,4607,4849,-0.0103115,Village,4655,2136,2.157,42.9046,-76.859,494,36055,36055
New York,Ticonderoga,4605,4605,4789,-0.0066868,Town,4636,57,81.434,43.8364,-73.5532,495,36119,36119
New York,Greenville,4603,4603,4677,-0.00432619,Town,4623,153,30.036,41.3737,-74.5982,496,36119,36119
New York,Ulysses,4581,4581,4863,-0.0120768,Town,4637,139,32.889,42.513,-76.6173,497,36055,36055
New York,Clayton,4568,4568,4731,-0.00954033,Town,4612,55,82.517,44.2043,-76.0797,498,36055,36055
New York,Manlius,4526,4526,4693,-0.00723843,Village,4559,2485,1.821,43.0014,-75.9822,499,36055,36055
New York,Union Vale,4522,4522,4567,-0.00374532,Town,4539,122,37.007,41.6984,-73.6955,500,36119,36119
New York,Wellsville,4521,4521,4633,-0.00484262,Village,4543,1865,2.424,42.1207,-77.9457,501,36055,36055
New York,Marion,4484,4484,4562,-0.0044405,Town,4504,154,29.147,43.166,-77.1914,502,36055,36055
New York,Little Falls,4472,4472,4581,-0.00489542,City,4494,1165,3.838,43.0448,-74.8567,503,36119,36119
New York,Champion,4458,4458,4543,-0.00624164,Town,4486,101,44.031,43.9732,-75.7061,504,36055,36055
New York,Nassau,4455,4455,4541,-0.00223964,Town,4465,100,44.444,42.5479,-73.5446,505,36119,36119
New York,Washington,4436,4436,4495,-0.00381765,Town,4453,76,58.03,41.7915,-73.6772,506,36119,36119
New York,Hannibal,4434,4434,4516,-0.00337154,Town,4449,99,44.655,43.3109,-76.5498,507,36055,36055
New York,Westfield,4426,4426,4553,-0.00360198,Town,4442,94,47.024,42.2683,-79.5998,508,36029,36029
New York,Binghamton,4412,4412,4599,-0.00764732,Town,4446,175,25.275,42.0351,-75.9055,509,36055,36055
New York,Menands,4405,4405,4544,-0.00631626,Village,4433,1439,3.062,42.6912,-73.7262,510,36119,36119
New York,Canastota,4403,4403,4550,-0.00654332,Village,4432,1318,3.34,43.0841,-75.7555,511,36055,36055
New York,Owego,4396,4396,3645,0.0353274,Village,4246,1725,2.548,42.1046,-76.2622,512,36055,36055
New York,Boonville,4379,4379,4512,-0.00612801,Town,4406,61,71.833,43.4592,-75.2851,513,36055,36055
New York,Mount Morris,4374,4374,4410,0.00390177,Town,4357,87,50.201,42.6649,-77.9045,514,36055,36055
New York,Galen,4368,4368,4410,0.0,Town,4368,73,59.477,43.0651,-76.8803,515,36055,36055
New York,Bethel,4367,4367,3952,0.0309254,Town,4236,51,85.266,41.6888,-74.8548,516,36119,36119
New York,Norfolk,4347,4347,4460,-0.00480769,Town,4368,77,56.74,44.8379,-74.9357,517,36055,36055
New York,Moriah,4337,4337,4641,-0.00641466,Town,4365,67,64.494,44.055,-73.5326,518,36119,36119
New York,Poestenkill,4299,4299,4312,0.000698324,Town,4296,133,32.355,42.7002,-73.5225,519,36119,36119
New York,Greenport,4296,4296,4461,-0.00945354,Town,4337,231,18.607,42.2301,-73.7955,520,36119,36119
New York,Dansville,4292,4292,4427,-0.00625145,Village,4319,1646,2.608,42.5625,-77.6969,521,36055,36055
New York,Lisbon,4289,4289,4219,0.00374444,Town,4273,40,108.28,44.6965,-75.3057,522,36055,36055
New York,Tioga,4276,4276,4430,-0.00558139,Town,4300,73,58.443,42.1062,-76.3689,523,36055,36055
New York,Charlton,4267,4267,4332,-0.00628784,Town,4294,130,32.774,42.9585,-73.9906,524,36119,36119
New York,Olive,4254,4254,4222,0.000941176,Town,4250,73,58.45,41.9472,-74.2655,525,36119,36119
New York,Trenton,4219,4219,4288,-0.000947193,Town,4223,97,43.376,43.2602,-75.2064,526,36055,36055
New York,Waverly,4205,4205,4367,-0.00755251,Village,4237,1841,2.284,42.0127,-76.54,527,36055,36055
New York,Le Roy,4200,4200,4362,-0.00756144,Village,4232,1561,2.69,42.978,-77.9909,528,36055,36055
New York,Jerusalem,4194,4194,4388,-0.00237869,Town,4204,72,58.645,42.6129,-77.1579,529,36055,36055
New York,Pembroke,4187,4187,4259,0.000717017,Town,4184,101,41.627,43.0015,-78.3854,530,36029,36029
New York,Minden,4178,4178,4164,0.000958313,Town,4174,82,50.996,42.9314,-74.6965,531,36119,36119
New York,Brutus,4177,4177,4308,-0.00642245,Town,4204,189,22.106,43.0456,-76.5464,532,36055,36055
New York,Arcade,4161,4161,4180,-0.00502152,Town,4182,89,46.956,42.5714,-78.37,533,36029,36029
New York,Paris,4152,4152,4325,-0.0071736,Town,4182,132,31.476,42.973,-75.2721,534,36055,36055
New York,Ellenville,4141,4141,4223,-0.00384893,Village,4157,476,8.693,41.7047,-74.3622,535,36119,36119
New York,Springville,4118,4118,4210,-0.00435203,Village,4136,1119,3.68,42.5081,-78.6694,536,36029,36029
New York,Fayetteville,4109,4109,4261,-0.00724813,Village,4139,2368,1.735,43.0308,-75.9984,537,36055,36055
New York,Hamilton,4098,4098,4102,-0.000243961,Village,4099,1643,2.494,42.8285,-75.553,538,36055,36055
New York,Collins,4063,4063,5673,-0.00974896,Town,4103,85,47.966,42.4918,-78.8683,539,36029,36029
New York,Amenia,4051,4051,3769,0.0183509,Town,3978,94,43.295,41.823,-73.5539,540,36119,36119
New York,Gorham,4044,4044,4101,-0.00443131,Town,4062,83,48.847,42.7975,-77.1979,541,36055,36055
New York,Lima,4030,4030,4149,-0.00738916,Town,4060,126,31.891,42.8959,-77.6087,542,36055,36055
New York,Clinton,4028,4028,4036,-0.00272345,Town,4039,106,38.147,41.8643,-73.8196,543,36119,36119
New York,Caledonia,4024,4024,4147,-0.00813409,Town,4057,92,43.875,42.959,-77.8152,544,36055,36055
New York,West Monroe,4022,4022,4086,-0.00346878,Town,4036,119,33.746,43.3056,-76.0891,545,36055,36055
New York,Unadilla,4016,4016,4105,-0.00520188,Town,4037,87,46.273,42.3685,-75.3316,546,36119,36119
New York,Ellery,4014,4014,4123,-0.00347567,Town,4028,85,47.454,42.1899,-79.3536,547,36029,36029
New York,Oswegatchie,3995,3995,4148,0.00200652,Town,3987,61,65.499,44.6302,-75.4907,548,36055,36055
New York,Chazy,3990,3990,4087,-0.0052356,Town,4011,74,54.153,44.8565,-73.4607,549,36119,36119
New York,Warrensburg,3968,3968,3956,0.00303337,Town,3956,63,63.486,43.503,-73.7969,550,36119,36119
New York,Whitehall,3967,3967,4012,-0.00326633,Town,3980,69,57.16,43.5391,-73.3851,551,36119,36119
New York,Eaton,3955,3955,4282,0.0,Town,3955,89,44.628,42.8901,-75.63,552,36055,36055
New York,Chatham,3950,3950,4101,-0.00952858,Town,3988,74,53.227,42.4256,-73.5821,553,36119,36119
New York,Chautauqua,3948,3948,3977,-0.00202224,Town,3956,59,67.398,42.2418,-79.5062,554,36029,36029
New York,Chester,3940,3940,4079,-0.00705645,Village,3968,1834,2.148,41.3569,-74.2769,555,36119,36119
New York,Lansing,3937,3937,3732,0.0105236,Village,3896,854,4.61,42.4902,-76.4865,556,36055,36055
New York,Hornellsville,3932,3932,4012,-0.00278975,Town,3943,92,42.884,42.3344,-77.6771,557,36055,36055
New York,Wolcott,3928,3928,4002,-0.00430925,Town,3945,101,39.05,43.2736,-76.7655,558,36055,36055
New York,Athens,3918,3918,3920,-0.00305343,Town,3930,149,26.246,42.2765,-73.8592,559,36119,36119
New York,Pomona,3916,3916,3831,0.00436009,Village,3899,1632,2.399,41.1892,-74.0543,560,36119,36119
New York,Fort Ann,3897,3897,5733,-0.122692,Town,4442,36,109.116,43.483,-73.5312,561,36119,36119
New York,Deerfield,3881,3881,3978,-0.00410572,Town,3897,118,32.941,43.1851,-75.1511,562,36055,36055
New York,Portland,3867,3867,4162,-0.0127649,Town,3917,114,34.02,42.3702,-79.4602,563,36029,36029
New York,Stockholm,3864,3864,3819,0.00285492,Town,3853,41,93.897,44.7456,-74.8559,564,36055,36055
New York,Hopewell,3853,3853,3929,-0.00464996,Town,3871,108,35.676,42.8935,-77.1959,565,36055,36055
New York,Cayuga Heights,3827,3827,4072,-0.0126419,Village,3876,2166,1.767,42.4677,-76.4884,566,36055,36055
New York,Saugerties,3818,3818,3893,-0.00391338,Village,3833,2140,1.784,42.0742,-73.9419,567,36119,36119
New York,Sherburne,3811,3811,3952,-0.00832683,Town,3843,88,43.554,42.694,-75.4812,568,36055,36055
New York,Sandy Creek,3808,3808,3811,-0.000262536,Town,3809,90,42.284,43.6307,-76.1236,569,36055,36055
New York,South Blooming Grove,3797,3797,3904,-0.00550026,Village,3818,812,4.676,41.3737,-74.167,570,36119,36119
New York,Saranac,3784,3784,3852,-0.00394841,Town,3799,33,114.841,44.6543,-73.8099,571,36119,36119
New York,Hartland,3759,3759,3866,-0.00660677,Town,3784,72,52.378,43.2581,-78.5547,572,36029,36029
New York,Catskill,3741,3741,3796,-0.00293177,Village,3752,1641,2.28,42.2149,-73.8587,573,36119,36119
New York,Montgomery,3730,3730,3805,-0.00400534,Village,3745,2653,1.406,41.5213,-74.2387,574,36119,36119
New York,Elmira Heights,3705,3705,3934,-0.0122634,Village,3751,3233,1.146,42.1267,-76.8256,575,36055,36055
New York,South Glens Falls,3701,3701,3740,-0.00215691,Village,3709,2725,1.358,43.2944,-73.6336,576,36119,36119
New York,Sloan,3695,3695,3770,-0.00404313,Village,3710,4737,0.78,42.8922,-78.7915,577,36029,36029
New York,Yorkshire,3693,3693,3824,-0.00752486,Town,3721,100,36.896,42.4792,-78.5201,578,36029,36029
New York,Greenville,3677,3677,3759,-0.0080928,Town,3707,95,38.788,42.3971,-74.0148,579,36119,36119
New York,Tuxedo,3677,3677,3797,-0.00782515,Town,3706,79,46.8,41.242,-74.1717,580,36119,36119
New York,Wayland,3672,3672,3723,-0.00163132,Town,3678,95,38.747,42.5246,-77.5979,581,36055,36055
New York,Islandia,3668,3668,3565,0.00575816,Village,3647,1657,2.214,40.8069,-73.1711,582,36103,36103
New York,Alexandria,3660,3660,3730,-0.00597501,Town,3682,50,72.576,44.3199,-75.8784,583,36055,36055
New York,Floyd,3656,3656,3728,-0.00272777,Town,3666,106,34.616,43.2389,-75.3241,584,36055,36055
New York,Stanford,3646,3646,3675,-0.00300793,Town,3657,74,49.577,41.8988,-73.6731,585,36119,36119
New York,Spencerport,3637,3637,3681,-0.00246846,Village,3646,2632,1.382,43.1884,-77.8074,586,36055,36055
New York,Sidney,3629,3629,3706,-0.00411635,Village,3644,1525,2.38,42.3083,-75.3978,587,36119,36119
New York,Warsaw,3622,3622,3639,-0.000827586,Village,3625,872,4.153,42.7428,-78.1408,588,36055,36055
New York,Gouverneur,3616,3616,3618,0.0,Village,3616,1650,2.192,44.3366,-75.466,589,36055,36055
New York,Canajoharie,3615,3615,3651,-0.00138122,Town,3620,85,42.603,42.8654,-74.6149,590,36119,36119
New York,Argyle,3608,3608,3641,-0.00248825,Town,3617,64,56.536,43.2322,-73.479,591,36119,36119
New York,Minoa,3606,3606,3685,-0.00441745,Village,3622,2730,1.321,43.0742,-76.0083,592,36055,36055
New York,Highland Falls,3601,3601,3715,-0.00634658,Village,3624,3292,1.094,41.3646,-73.9689,593,36119,36119
New York,Dix,3568,3568,3754,-0.00723428,Town,3594,98,36.257,42.3344,-76.8992,594,36055,36055
New York,Livingston,3561,3561,3612,-0.00863029,Town,3592,93,38.163,42.1389,-73.7971,595,36119,36119
New York,East Bloomfield,3561,3561,3640,-0.00697156,Town,3586,107,33.195,42.8994,-77.4224,596,36055,36055
New York,Otsego,3553,3553,3635,-0.00670953,Town,3577,66,53.89,42.7592,-74.9632,597,36119,36119
New York,Perry,3551,3551,3633,-0.00448556,Village,3567,1490,2.383,42.7178,-78.0053,598,36055,36055
New York,Perth,3536,3536,3576,-0.00141203,Town,3541,136,26.086,43.0054,-74.204,599,36119,36119
New York,Whitesboro,3530,3530,3682,-0.00842697,Village,3560,3362,1.05,43.124,-75.2967,600,36055,36055
New York,Oxford,3528,3528,3595,0.000283527,Town,3527,59,60.063,42.3971,-75.5962,601,36055,36055
New York,North Collins,3522,3522,3502,0.00256191,Town,3513,82,42.855,42.5734,-78.8591,602,36029,36029
New York,Lloyd Harbor,3519,3519,3563,-0.00255102,Village,3528,377,9.332,40.9215,-73.4434,603,36059,36059
New York,Lake George,3513,3513,3498,0.00342759,Town,3501,118,29.804,43.4343,-73.7226,604,36119,36119
New York,Mohawk,3509,3509,3565,-0.00284172,Town,3519,101,34.681,42.9561,-74.4018,605,36119,36119
New York,Fayette,3505,3505,3649,-0.0093273,Town,3538,64,54.819,42.8429,-76.8586,606,36055,36055
New York,Muttontown,3498,3498,3483,0.000858369,Village,3495,578,6.057,40.8254,-73.5363,607,36059,36059
New York,Newark Valley,3496,3496,3635,-0.00483917,Town,3513,69,50.37,42.2349,-76.1641,608,36055,36055
New York,Avon,3475,3475,3380,0.00549769,Village,3456,1105,3.146,42.9128,-77.7465,609,36055,36055
New York,Galway,3469,3469,3523,-0.00658648,Town,3492,79,43.821,43.0322,-74.0321,610,36119,36119
New York,Palermo,3433,3433,3465,-0.00203488,Town,3440,85,40.464,43.3674,-76.2595,611,36055,36055
New York,Dannemora,3430,3430,4031,0.0544113,Town,3253,58,59.081,44.7598,-73.8243,612,36119,36119
New York,Owasco,3424,3424,3550,-0.00753623,Town,3450,164,20.881,42.8938,-76.4933,613,36055,36055
New York,Norwich,3420,3420,3581,-0.0089829,Town,3451,82,41.963,42.5109,-75.4859,614,36119,36119
New York,Delhi,3411,3411,2781,0.0383562,Village,3285,1074,3.176,42.2774,-74.9155,615,36119,36119
New York,Geneva,3405,3405,3471,-0.00786713,Town,3432,177,19.222,42.8334,-77.0055,616,36055,36055
New York,Carroll,3373,3373,3459,-0.00383934,Town,3386,101,33.455,42.0398,-79.0987,617,36029,36029
New York,Rush,3371,3371,3484,-0.00940347,Town,3403,111,30.332,42.9713,-77.6731,618,36055,36055
New York,Mooers,3369,3369,3454,-0.00560803,Town,3388,39,87.47,44.9564,-73.6584,619,36119,36119
New York,Clarendon,3361,3361,3305,0.0065888,Town,3339,95,35.219,43.1744,-78.0563,620,36055,36055
New York,Portville,3351,3351,3502,-0.00916617,Town,3382,94,35.627,42.059,-78.3499,621,36029,36029
New York,Starkey,3340,3340,3391,-0.00357995,Town,3352,102,32.831,42.5237,-76.9448,622,36055,36055
New York,Sennett,3335,3335,3304,0.0106061,Town,3300,116,28.82,42.9776,-76.5184,623,36055,36055
New York,Rockland,3328,3328,3285,-0.00030039,Town,3329,35,94.156,41.9628,-74.789,624,36119,36119
New York,Neversink,3322,3322,3369,-0.00687593,Town,3345,40,82.773,41.866,-74.5905,625,36119,36119
New York,Lowville,3320,3320,3337,-0.000902798,Village,3323,1750,1.897,43.7866,-75.4878,626,36055,36055
New York,Shelter Island,3318,3318,3253,0.00393343,Town,3305,272,12.197,41.0656,-72.3196,627,36103,36103
New York,Tupper Lake,3295,3295,3377,-0.00483238,Village,3311,1576,2.091,44.2298,-74.4619,628,36119,36119
New York,Ellisburg,3278,3278,3339,-0.00606428,Town,3298,38,85.22,43.7473,-76.1132,629,36055,36055
New York,Richmond,3269,3269,3353,-0.0066849,Town,3291,77,42.432,42.7922,-77.5244,630,36055,36055
New York,Danby,3249,3249,3397,-0.00793893,Town,3275,61,53.553,42.3316,-76.4725,631,36055,36055
New York,Palmyra,3246,3246,3318,-0.00429448,Village,3260,2410,1.347,43.0609,-77.2297,632,36055,36055
New York,Schuyler,3239,3239,3301,-0.00246381,Town,3247,81,39.874,43.1125,-75.0964,633,36119,36119
New York,Carthage,3230,3230,3315,-0.0052356,Village,3247,1332,2.425,43.9829,-75.603,634,36055,36055
New York,White Creek,3229,3229,3271,-0.00370256,Town,3241,67,47.92,42.9931,-73.3222,635,36119,36119
New York,Holland,3228,3228,3276,-0.00339611,Town,3239,90,35.772,42.6704,-78.5242,636,36029,36029
New York,Pamelia,3224,3224,3325,-0.00738916,Town,3248,95,34.101,44.0558,-75.9092,637,36055,36055
New York,Middletown,3216,3216,3331,-0.0104615,Town,3250,33,96.678,42.1604,-74.6281,638,36119,36119
New York,Westerlo,3213,3213,3186,0.0024961,Town,3205,56,57.793,42.5003,-74.0503,639,36119,36119
New York,Hounsfield,3207,3207,3260,-0.00558139,Town,3225,66,48.95,43.9089,-76.3072,640,36055,36055
New York,Palatine,3201,3201,3197,0.00125117,Town,3197,78,41.071,42.9512,-74.5368,641,36119,36119
New York,Canisteo,3201,3201,3285,-0.00435459,Town,3215,59,54.351,42.2352,-77.5279,642,36055,36055
New York,Enfield,3199,3199,3338,-0.00713842,Town,3222,87,36.733,42.4417,-76.6205,643,36055,36055
New York,Veteran,3195,3195,3342,-0.00622084,Town,3215,83,38.327,42.2472,-76.7935,644,36055,36055
New York,Great Neck Estates,3193,3193,2927,0.016879,Village,3140,4168,0.766,40.7865,-73.7402,645,36081,36081
New York,Croghan,3193,3193,3193,-0.000938673,Town,3196,18,178.951,43.9659,-75.3377,646,36055,36055
New York,Middleburgh,3179,3179,3117,0.00505849,Town,3163,65,49.111,42.6212,-74.3126,647,36119,36119
New York,Ravena,3177,3177,3267,-0.0056338,Village,3195,2164,1.468,42.4755,-73.8112,648,36119,36119
New York,Bennington,3175,3175,3227,-0.00470219,Town,3190,58,54.979,42.8173,-78.3876,649,36029,36029
New York,Copake,3174,3174,3347,-0.0133665,Town,3217,78,40.774,42.1313,-73.5473,650,36119,36119
New York,Colden,3172,3172,3122,0.00316255,Town,3162,89,35.635,42.6481,-78.6464,651,36029,36029
New York,Caroline,3168,3168,3318,-0.00876095,Town,3196,58,54.765,42.3576,-76.3352,652,36055,36055
New York,Gaines,3164,3164,3219,-0.00471846,Town,3179,92,34.419,43.2758,-78.1981,653,36055,36055
New York,Brightwaters,3160,3160,3182,-0.00126422,Village,3164,3271,0.966,40.7164,-73.2615,654,36059,36059
New York,New York Mills,3139,3139,3266,-0.00790139,Village,3164,2660,1.18,43.1007,-75.2931,655,36055,36055
New York,Fort Edward,3133,3133,3162,-0.00191144,Village,3139,1778,1.762,43.2686,-73.5826,656,36119,36119
New York,Sterling,3116,3116,3220,-0.00795925,Town,3141,69,45.442,43.3151,-76.6587,657,36055,36055
New York,Hoosick Falls,3115,3115,3204,-0.00574529,Village,3133,1949,1.598,42.9009,-73.35,658,36119,36119
New York,Maybrook,3112,3112,3162,-0.00320307,Village,3122,2298,1.354,41.488,-74.2125,659,36119,36119
New York,New Baltimore,3112,3112,3213,-0.0101781,Town,3144,75,41.421,42.4198,-73.8624,660,36119,36119
New York,Cuba,3110,3110,3120,0.000965561,Town,3107,89,35.1,42.2085,-78.2434,661,36029,36029
New York,Au Sable,3110,3110,3183,-0.0048,Town,3125,80,38.897,44.5036,-73.5336,662,36119,36119
New York,York,3109,3109,3179,-0.00607417,Town,3128,63,49.047,42.864,-77.8899,663,36055,36055
New York,Port Washington North,3106,3106,3175,-0.00448718,Village,3120,6484,0.479,40.843,-73.7001,664,36059,36059
New York,Lake Luzerne,3106,3106,3074,0.00452781,Town,3092,59,52.916,43.3111,-73.8014,665,36119,36119
New York,Schoharie,3101,3101,3119,-0.00257317,Town,3109,104,29.83,42.6823,-74.3105,666,36119,36119
New York,Chester,3097,3097,3083,0.00323939,Town,3087,37,84.205,43.6858,-73.8753,667,36119,36119
New York,Oakfield,3094,3094,3145,0.0012945,Town,3090,133,23.309,43.0849,-78.2746,668,36029,36029
New York,Tuxedo,3078,3078,3160,-0.0051713,Village,3094,70,44.143,41.242,-74.1717,669,36119,36119
New York,Bergen,3068,3068,3123,0.00130548,Town,3064,111,27.559,43.0962,-77.9555,670,36055,36055
New York,Callicoon,3066,3066,2992,0.00327225,Town,3056,63,48.591,41.8358,-74.9241,671,36119,36119
New York,Campbell,3057,3057,3156,-0.00553025,Town,3074,75,40.685,42.23,-77.1664,672,36055,36055
New York,Roslyn,3050,3050,2900,0.00993377,Village,3020,4729,0.645,40.7998,-73.6504,673,36059,36059
New York,Manheim,3030,3030,3080,-0.00230491,Town,3037,104,29.136,43.0579,-74.7994,674,36119,36119
New York,Moravia,3009,3009,3225,-0.00823995,Town,3034,104,28.884,42.7367,-76.4129,675,36055,36055
New York,Orchard Park,3007,3007,3091,-0.00562169,Village,3024,2224,1.352,42.7622,-78.7414,676,36029,36029
New York,Homer,3006,3006,3183,-0.0115094,Village,3041,1562,1.925,42.6372,-76.1854,677,36055,36055
New York,Sloatsburg,3003,3003,3025,-0.00133023,Village,3007,1202,2.499,41.162,-74.1909,678,36119,36119
New York,Darien,2998,2998,3009,0.00301104,Town,2989,63,47.389,42.9087,-78.3821,679,36029,36029
New York,Louisville,2991,2991,3046,-0.00233489,Town,2998,62,48.525,44.9077,-75.0122,680,36055,36055
New York,Wales,2987,2987,3008,-0.00167112,Town,2992,84,35.574,42.7394,-78.5176,681,36029,36029
New York,New Haven,2986,2986,2926,0.00234978,Town,2979,96,31.099,43.4716,-76.3176,682,36055,36055
New York,Hunter,2980,2980,3045,-0.00732845,Town,3002,33,89.891,42.1655,-74.1524,683,36119,36119
New York,Cornwall-on-Hudson,2971,2971,3063,-0.00602208,Village,2989,1495,1.987,41.4335,-74.0151,684,36119,36119
New York,North East,2966,2966,2972,-0.00101044,Town,2969,69,43.214,41.9458,-73.5466,685,36119,36119
New York,East Syracuse,2956,2956,3071,-0.00772071,Village,2979,1895,1.56,43.0638,-76.0698,686,36055,36055
New York,Bainbridge,2954,2954,3052,-0.0077259,Town,2977,86,34.308,42.2966,-75.4767,687,36119,36119
New York,Greenwood Lake,2953,2953,3028,-0.00505391,Village,2968,1459,2.024,41.2211,-74.2876,688,36119,36119
New York,Brookville,2945,2945,2950,-0.000339443,Village,2946,746,3.947,40.8079,-73.5701,689,36059,36059
New York,Rutland,2942,2942,3020,-0.00775717,Town,2965,65,45.208,43.944,-75.7862,690,36055,36055
New York,Sherrill,2940,2940,3070,-0.00876601,City,2966,1272,2.311,43.0704,-75.5992,691,36055,36055
New York,Benton,2940,2940,2981,-0.00101937,Town,2943,71,41.473,42.722,-77.0497,692,36055,36055
New York,Green Island,2919,2919,2989,-0.00477327,Village,2933,3908,0.747,42.7479,-73.6925,693,36119,36119
New York,Green Island,2917,2917,2989,-0.00511596,Town,2932,3905,0.747,42.7479,-73.6925,694,36119,36119
New York,Lakewood,2916,2916,2996,-0.00545703,Village,2932,1488,1.96,42.0991,-79.3201,695,36029,36029
New York,Davenport,2898,2898,2943,-0.00821355,Town,2922,56,51.563,42.4544,-74.9018,696,36119,36119
New York,Westfield,2870,2870,2995,-0.00863558,Village,2895,758,3.784,42.3218,-79.5748,697,36029,36029
New York,Akron,2865,2865,2909,-0.00313152,Village,2874,1424,2.012,43.018,-78.4978,698,36029,36029
New York,Walton,2859,2859,2918,-0.00417973,Village,2871,1854,1.542,42.1698,-75.1305,699,36119,36119
New York,Spencer,2855,2855,2963,-0.00557297,Town,2871,58,49.115,42.2219,-76.4693,700,36055,36055
New York,Honeoye Falls,2846,2846,2793,0.00388007,Village,2835,1119,2.543,42.9547,-77.5911,701,36055,36055
New York,Moira,2839,2839,2912,-0.00595238,Town,2856,63,45.228,44.8296,-74.5588,702,36055,36055
New York,Altona,2833,2833,2624,0.0563013,Town,2682,28,100.981,44.8417,-73.6705,703,36119,36119
New York,Florida,2825,2825,2930,-0.00737878,Village,2846,1255,2.251,41.3306,-74.3542,704,36119,36119
New York,Sag Harbor,2807,2807,2752,0.00393419,Village,2796,1571,1.787,40.9943,-72.2885,705,36103,36103
New York,Mount Morris,2804,2804,2891,-0.00602623,Village,2821,1369,2.048,42.7237,-77.8752,706,36055,36055
New York,Carlton,2796,2796,2822,-0.00107181,Town,2799,64,43.606,43.3399,-78.207,707,36055,36055
New York,Lake Success,2790,2790,2822,-0.00214592,Village,2796,1508,1.85,40.7639,-73.7111,708,36059,36059
New York,Shandaken,2790,2790,2863,-0.00711744,Town,2810,23,119.784,42.0651,-74.3463,709,36119,36119
New York,Voorheesville,2780,2780,2839,-0.00429799,Village,2792,1300,2.139,42.6537,-73.9343,710,36119,36119
New York,New Bremen,2774,2774,2785,-0.00143988,Town,2778,50,55.752,43.852,-75.3683,711,36055,36055
New York,Sands Point,2751,2751,2710,0.00291651,Village,2743,652,4.22,40.8534,-73.7036,712,36005,36005
New York,Ovid,2744,2744,2845,-0.00759494,Town,2765,89,30.861,42.65,-76.796,713,36055,36055
New York,Munsey Park,2741,2741,2800,-0.00435888,Village,2753,5312,0.516,40.799,-73.6798,714,36059,36059
New York,Stephentown,2740,2740,2785,-0.00254823,Town,2747,47,57.889,42.5545,-73.4108,715,36119,36119
New York,Orleans,2732,2732,2782,-0.00582242,Town,2748,38,71.253,44.224,-75.9547,716,36055,36055
New York,Florida,2731,2731,2662,0.00626382,Town,2714,54,50.126,42.895,-74.201,717,36119,36119
New York,Cape Vincent,2730,2730,2678,0.0388128,Town,2628,49,56.278,44.1148,-76.291,718,36055,36055
New York,Cazenovia,2719,2719,2769,-0.00366435,Village,2729,1441,1.887,42.9279,-75.8513,719,36055,36055
New York,Hancock,2718,2718,2756,-0.00548847,Town,2733,17,158.99,41.9587,-75.1846,720,36119,36119
New York,Madison,2710,2710,2751,-0.00257637,Town,2717,66,40.79,42.8924,-75.5006,721,36055,36055
New York,Milford,2703,2703,2820,-0.0095273,Town,2729,59,46.121,42.5461,-74.9791,722,36119,36119
New York,Corinth,2701,2701,2558,0.0108533,Village,2672,2531,1.067,43.2457,-73.8303,723,36119,36119
New York,Coxsackie,2693,2693,2753,-0.00443623,Village,2705,1241,2.17,42.3576,-73.808,724,36119,36119
New York,Franklinville,2693,2693,2798,-0.00737191,Town,2713,52,51.812,42.3044,-78.498,725,36029,36029
New York,Thomaston,2692,2692,2756,-0.00480591,Village,2705,6663,0.404,40.7875,-73.7152,726,36059,36059
New York,Triangle,2688,2688,2805,-0.00848395,Town,2711,71,37.875,42.3555,-75.9285,727,36055,36055
New York,West Bloomfield,2688,2688,2748,-0.00665188,Town,2706,106,25.461,42.892,-77.5013,728,36055,36055
New York,Afton,2677,2677,2764,-0.00778354,Town,2698,58,46.069,42.2263,-75.5268,729,36119,36119
New York,Sardinia,2676,2676,2715,-0.00335195,Town,2685,53,50.212,42.5572,-78.5316,730,36029,36029
New York,Castile,2669,2669,2721,-0.00558867,Town,2684,72,37.118,42.6644,-78.0218,731,36055,36055
New York,Berne,2664,2664,2686,-0.000750187,Town,2666,42,64.03,42.6039,-74.1304,732,36119,36119
New York,Guilford,2656,2656,2731,-0.0063599,Town,2673,43,61.716,42.402,-75.4507,733,36119,36119
New York,Glen,2651,2651,2536,0.0133792,Town,2616,69,38.618,42.9009,-74.3512,734,36119,36119
New York,Otego,2642,2642,2749,-0.0101161,Town,2669,58,45.633,42.456,-75.1919,735,36119,36119
New York,Victor,2634,2634,2729,-0.0071617,Village,2653,1928,1.366,42.9821,-77.4098,736,36055,36055
New York,Denmark,2627,2627,2640,-0.00152033,Town,2631,52,50.658,43.9046,-75.6234,737,36055,36055
New York,Nunda,2623,2623,2686,-0.00568612,Town,2638,71,37.094,42.5722,-77.8829,738,36055,36055
New York,Tully,2616,2616,2670,-0.00190767,Town,2621,101,25.874,42.8084,-76.137,739,36055,36055
New York,Lisle,2598,2598,2685,-0.00650096,Town,2615,55,46.893,42.3798,-76.0508,740,36055,36055
New York,Theresa,2595,2595,2640,-0.00688863,Town,2613,40,65.121,44.262,-75.7744,741,36055,36055
New York,Seneca,2595,2595,2642,-0.00269024,Town,2602,52,50.314,42.8331,-77.0738,742,36055,36055
New York,Annsville,2591,2591,2637,-0.00115651,Town,2594,43,60.202,43.3452,-75.6147,743,36055,36055
New York,Alden,2588,2588,2603,-0.00115785,Village,2591,952,2.718,42.8989,-78.4946,744,36029,36029
New York,Knox,2581,2581,2632,-0.00270479,Town,2588,62,41.762,42.6854,-74.1056,745,36119,36119
New York,Harriman,2576,2576,2658,-0.00617284,Village,2592,2566,1.004,41.3091,-74.1441,746,36119,36119
New York,Durham,2576,2576,2630,-0.00808625,Town,2597,52,49.314,42.3736,-74.1531,747,36119,36119
New York,Salem,2574,2574,2605,-0.00348432,Town,2583,49,52.362,43.1601,-73.323,748,36119,36119
New York,East Williston,2573,2573,2638,-0.00502707,Village,2586,4522,0.569,40.7608,-73.6336,749,36059,36059
New York,Kendall,2563,2563,2611,-0.00388651,Town,2573,78,32.86,43.3291,-78.0517,750,36055,36055
New York,St. Johnsville,2560,2560,2582,-0.00078064,Town,2562,152,16.842,43.0046,-74.6828,751,36119,36119
New York,Brasher,2545,2545,2620,-0.00547089,Town,2559,28,91.105,44.8882,-74.7237,752,36055,36055
New York,Yorkville,2544,2544,2654,-0.00857366,Village,2566,3791,0.671,43.1124,-75.274,753,36055,36055
New York,Silver Creek,2542,2542,2644,-0.0078064,Village,2562,2212,1.149,42.5412,-79.169,754,36029,36029
New York,Pierrepont,2539,2539,2518,0.00197316,Town,2534,42,60.232,44.5273,-75.012,755,36055,36055
New York,Greenport,2537,2537,2596,-0.00470773,Village,2549,2671,0.95,41.1024,-72.3668,756,36103,36103
New York,Blasdell,2532,2532,2537,-0.000394788,Village,2533,2253,1.124,42.7965,-78.8324,757,36029,36029
New York,Stockport,2530,2530,2670,-0.0136452,Town,2565,217,11.648,42.3169,-73.7553,758,36119,36119
New York,Somerset,2521,2521,2595,-0.00669819,Town,2538,68,37.108,43.3357,-78.5481,759,36029,36029
New York,Jay,2506,2506,2484,0.00440882,Town,2495,37,67.661,44.3776,-73.6965,760,36119,36119
New York,Skaneateles,2503,2503,2545,-0.00318598,Village,2511,1759,1.423,42.9473,-76.4285,761,36055,36055
New York,Aurelius,2503,2503,2606,-0.00832013,Town,2524,83,30.244,42.9291,-76.6684,762,36055,36055
New York,Rhinebeck,2502,2502,2707,-0.0161227,Village,2543,1661,1.506,41.9288,-73.9103,763,36119,36119
New York,Brewster,2495,2495,2507,-0.000800961,Village,2497,5081,0.491,41.3962,-73.6163,764,36119,36119
New York,Sheridan,2494,2494,2566,-0.00439122,Town,2505,67,37.28,42.4897,-79.2256,765,36029,36029
New York,Northampton,2493,2493,2473,0.00241255,Town,2487,118,21.105,43.1576,-74.1713,766,36119,36119
New York,Yates,2492,2492,2554,-0.00479233,Town,2504,67,37.387,43.3395,-78.3883,767,36029,36029
New York,Piermont,2491,2491,2510,-0.00160321,Village,2495,3701,0.673,41.0419,-73.9108,768,36119,36119
New York,Mentz,2485,2485,2111,0.0565476,Town,2352,147,16.922,43.0406,-76.6336,769,36055,36055
New York,Lewiston,2482,2482,2527,-0.00361301,Village,2491,2263,1.097,43.1719,-79.0407,770,36029,36029
New York,Whitehall,2470,2470,2490,-0.00161681,Village,2474,438,5.639,43.546,-73.4338,771,36119,36119
New York,New Berlin,2465,2465,2519,-0.00524617,Town,2478,53,46.134,42.592,-75.3866,772,36119,36119
New York,Richmondville,2464,2464,2469,-0.00162075,Town,2468,82,30.16,42.6387,-74.5491,773,36119,36119
New York,Alexander,2452,2452,2476,0.00450635,Town,2441,69,35.457,42.9206,-78.2501,774,36029,36029
New York,Catlin,2447,2447,2535,-0.00407,Town,2457,64,37.989,42.2312,-76.8955,775,36055,36055
New York,Chesterfield,2444,2444,2472,0.000409332,Town,2443,31,79.033,44.4536,-73.4487,776,36119,36119
New York,New Lebanon,2441,2441,2513,-0.00691619,Town,2458,68,35.829,42.4706,-73.4448,777,36119,36119
New York,Barker,2433,2433,2503,-0.00450082,Town,2444,59,41.409,42.265,-75.9113,778,36055,36055
New York,Attica,2424,2424,2481,-0.00451745,Village,2435,1390,1.744,42.8639,-78.2797,779,36029,36029
New York,Gowanda,2415,2415,2517,-0.00821355,Village,2435,1516,1.593,42.4604,-78.9345,780,36029,36029
New York,Granville,2408,2408,2427,-0.00165837,Village,2412,1555,1.549,43.4134,-73.2645,781,36119,36119
New York,Pine Plains,2393,2393,2218,0.0222127,Town,2341,78,30.585,41.9719,-73.6468,782,36119,36119
New York,Stafford,2386,2386,2428,0.00125892,Town,2383,77,31.097,42.9903,-78.0842,783,36055,36055
New York,Virgil,2380,2380,2424,-0.00125892,Town,2383,50,47.371,42.5204,-76.1644,784,36055,36055
New York,Cato,2377,2377,2440,-0.00460637,Town,2388,71,33.643,43.1202,-76.5368,785,36055,36055
New York,Otisco,2371,2371,2369,0.0016899,Town,2367,80,29.458,42.8623,-76.2275,786,36055,36055
New York,Parish,2371,2371,2392,-0.00168421,Town,2375,57,41.725,43.4035,-76.056,787,36055,36055
New York,Randolph,2369,2369,2466,-0.00920117,Town,2391,66,36.043,42.1342,-78.9994,788,36029,36029
New York,Fleming,2367,2367,2469,-0.0100376,Town,2391,108,21.819,42.8745,-76.5776,789,36055,36055
New York,Mohawk,2353,2353,2415,-0.00507399,Village,2365,2683,0.877,43.0094,-75.0071,790,36119,36119
New York,Naples,2333,2333,2399,-0.00681141,Town,2349,59,39.702,42.6246,-77.4325,791,36055,36055
New York,De Kalb,2333,2333,2369,-0.00213858,Town,2338,28,82.523,44.4759,-75.3654,792,36055,36055
New York,Pulaski,2331,2331,2176,0.0134783,Village,2300,659,3.536,43.5655,-76.126,793,36055,36055
New York,Lumberland,2326,2326,2243,0.0082358,Town,2307,50,46.539,41.4924,-74.8122,794,36119,36119
New York,Sheldon,2314,2314,2357,-0.00558659,Town,2327,49,47.373,42.7461,-78.3766,795,36029,36029
New York,Addison,2312,2312,2393,-0.00644607,Town,2327,91,25.545,42.1322,-77.2344,796,36055,36055
New York,Romulus,2299,2299,2895,-0.00691145,Town,2315,61,37.793,42.7133,-76.8303,797,36055,36055
New York,Nichols,2299,2299,2344,-0.000869187,Town,2301,68,33.783,42.0344,-76.3482,798,36055,36055
New York,Machias,2290,2290,2308,0.00131176,Town,2287,57,40.429,42.3978,-78.5069,799,36029,36029
New York,Conesus,2290,2290,2310,-0.0008726,Town,2292,70,32.891,42.7035,-77.6411,800,36055,36055
New York,Russia,2286,2286,2265,0.00395257,Town,2277,40,56.962,43.3021,-75.0687,801,36119,36119
New York,Milan,2285,2285,2254,0.00131464,Town,2282,63,36.124,41.9781,-73.783,802,36119,36119
New York,Lake Placid,2277,2277,2272,0.000439367,Village,2276,1673,1.361,44.2842,-73.9864,803,36119,36119
New York,Byron,2277,2277,2296,0.00352578,Town,2269,71,32.212,43.0848,-78.067,804,36055,36055
New York,Ripley,2274,2274,2318,-0.00175593,Town,2278,47,48.782,42.2346,-79.7084,805,36029,36029
New York,Laurens,2273,2273,2303,-0.00350723,Town,2281,54,42.049,42.5357,-75.1181,806,36119,36119
New York,Chemung,2270,2270,2353,-0.00569426,Town,2283,46,49.497,42.0556,-76.6055,807,36055,36055
New York,Frankfort,2266,2266,2323,-0.00483092,Village,2277,2235,1.014,43.0378,-75.0716,808,36119,36119
New York,Waddington,2249,2249,2235,0.00222816,Town,2244,44,51.606,44.8313,-75.192,809,36055,36055
New York,Pavilion,2246,2246,2287,0.00133749,Town,2243,63,35.623,42.9071,-78.0115,810,36055,36055
New York,Sangerfield,2246,2246,2330,-0.00619469,Town,2260,73,30.802,42.8916,-75.3802,811,36055,36055
New York,Rose,2246,2246,2295,-0.00487373,Town,2257,66,33.896,43.1596,-76.9002,812,36055,36055
New York,Easton,2244,2244,2274,-0.00310973,Town,2251,36,62.276,43.0297,-73.5359,813,36119,36119
New York,Franklin,2243,2243,2285,-0.00796108,Town,2261,28,81.247,42.3304,-75.1105,814,36119,36119
New York,Brookfield,2235,2235,2245,-0.000447227,Town,2236,29,77.815,42.808,-75.3433,815,36119,36119
New York,Bristol,2234,2234,2285,-0.00445633,Town,2244,61,36.694,42.8081,-77.4256,816,36055,36055
New York,Oyster Bay Cove,2231,2231,2253,-0.00178971,Village,2235,533,4.184,40.8605,-73.5054,817,36059,36059
New York,Caneadea,2229,2229,2270,-0.00535475,Town,2241,63,35.649,42.3924,-78.1364,818,36029,36029
New York,Springwater,2220,2220,2287,-0.0080429,Town,2238,42,53.105,42.6231,-77.5739,819,36055,36055
New York,Churchville,2219,2219,2158,0.00543725,Village,2207,1865,1.19,43.1023,-77.8816,820,36055,36055
New York,Liverpool,2218,2218,2297,-0.00716204,Village,2234,2953,0.751,43.1056,-76.2097,821,36055,36055
New York,Montour,2215,2215,2320,-0.0098346,Town,2237,119,18.579,42.3399,-76.8265,822,36055,36055
New York,Roxbury,2214,2214,2246,-0.00672948,Town,2229,25,87.114,42.3156,-74.5278,823,36119,36119
New York,Highland,2209,2209,2191,-0.00225836,Town,2214,44,50.057,41.5688,-74.8867,824,36119,36119
New York,Falconer,2206,2206,2293,-0.00764732,Village,2223,2044,1.079,42.1191,-79.1969,825,36029,36029
New York,Westhampton Beach,2204,2204,2174,0.00272975,Village,2198,750,2.94,40.807,-72.6451,826,36103,36103
New York,Lyme,2203,2203,2285,-0.00988764,Town,2225,39,55.87,44.0248,-76.2287,827,36055,36055
New York,North Harmony,2202,2202,2193,0.00364631,Town,2194,52,42.102,42.1256,-79.4633,828,36029,36029
New York,Bellport,2195,2195,2195,0.0,Village,2195,1514,1.45,40.7509,-72.9413,829,36103,36103
New York,Bangor,2191,2191,2230,-0.00454339,Town,2201,51,43.118,44.8375,-74.4301,830,36055,36055
New York,Phoenix,2187,2187,2222,-0.00319052,Village,2194,1868,1.171,43.2309,-76.2958,831,36055,36055
New York,Rouses Point,2186,2186,2245,-0.00545951,Village,2198,1249,1.75,44.9912,-73.3637,832,36119,36119
New York,Poland,2177,2177,2209,0.00137994,Town,2174,60,36.504,42.1301,-79.1208,833,36029,36029
New York,Cohocton,2177,2177,2262,-0.00684306,Town,2192,39,56.08,42.52,-77.4816,834,36055,36055
New York,Delaware,2176,2176,2198,-0.00502972,Town,2187,62,34.895,41.7549,-75.0004,835,36119,36119
New York,Johnsburg,2173,2173,2142,0.00835267,Town,2155,11,204.229,43.6143,-74.0671,836,36119,36119
New York,Buchanan,2165,2165,2290,-0.0114155,Village,2190,1530,1.415,41.2632,-73.945,837,36119,36119
New York,Freedom,2160,2160,2258,-0.00962861,Town,2181,54,40.367,42.4714,-78.3775,838,36029,36029
New York,Hartford,2151,2151,2185,-0.00416667,Town,2160,50,43.373,43.3557,-73.4132,839,36119,36119
New York,Elba,2148,2148,2155,0.00467727,Town,2138,60,35.649,43.0932,-78.1714,840,36055,36055
New York,Clifton Springs,2145,2145,2205,-0.00556328,Village,2157,1447,1.482,42.9608,-77.1348,841,36055,36055
New York,Sanford,2144,2144,2231,-0.00832562,Town,2162,24,90.083,42.0928,-75.4952,842,36119,36119
New York,Canisteo,2136,2136,2225,-0.00835655,Village,2154,2287,0.934,42.2704,-77.6057,843,36055,36055
New York,Fowler,2136,2136,2135,-0.00280112,Town,2142,36,59.181,44.2756,-75.4032,844,36055,36055
New York,Springport,2130,2130,2226,-0.00930232,Town,2150,99,21.41,42.8527,-76.6723,845,36055,36055
New York,Fishkill,2125,2125,2164,-0.00375059,Village,2133,2554,0.832,41.5339,-73.8931,846,36119,36119
New York,Clyde,2119,2119,2166,-0.00422932,Village,2128,964,2.198,43.0842,-76.8704,847,36055,36055
New York,Amity,2117,2117,2169,-0.00329567,Town,2124,61,34.481,42.2261,-78.0033,848,36055,36055
New York,Camden,2106,2106,2198,-0.00847458,Village,2124,865,2.436,43.3365,-75.7477,849,36055,36055
New York,Persia,2106,2106,2213,-0.0112676,Town,2130,101,20.893,42.4197,-78.9177,850,36029,36029
New York,Newport,2097,2097,2142,-0.00285307,Town,2103,66,32.008,43.1755,-75.0387,851,36119,36119
New York,Grafton,2096,2096,2052,0.00575816,Town,2084,47,44.721,42.7645,-73.4564,852,36119,36119
New York,Old Brookville,2087,2087,2082,0.000479386,Village,2086,524,3.982,40.8365,-73.6051,853,36059,36059
New York,Princetown,2085,2085,2021,0.00870827,Town,2067,87,23.967,42.8101,-74.0784,854,36119,36119
New York,Providence,2082,2082,2072,0.000480538,Town,2081,47,43.996,43.1173,-74.0445,855,36119,36119
New York,Lima,2078,2078,2130,-0.00478927,Village,2088,1545,1.345,42.9069,-77.6123,856,36055,36055
New York,Ira,2073,2073,2143,-0.0057554,Town,2085,60,34.795,43.2093,-76.5309,857,36055,36055
New York,Morristown,2068,2068,2079,-0.000966183,Town,2070,45,45.725,44.5392,-75.63,858,36055,36055
New York,Groveland,2065,2065,2190,-0.00577756,Town,2077,53,39.135,42.7096,-77.7687,859,36055,36055
New York,Albion,2060,2060,2018,0.00340964,Town,2053,44,47.286,43.4893,-76.0309,860,36055,36055
New York,Urbana,2060,2060,2108,-0.00193798,Town,2064,50,40.948,42.4101,-77.2265,861,36055,36055
New York,Caledonia,2056,2056,2116,-0.00580271,Village,2068,980,2.098,42.9755,-77.8571,862,36055,36055
New York,Groton,2056,2056,2201,-0.0139089,Village,2085,1184,1.737,42.5834,-76.3599,863,36055,36055
New York,Hinsdale,2055,2055,2112,-0.00772574,Town,2071,53,38.731,42.1668,-78.3723,864,36029,36029
New York,Covert,2052,2052,2150,-0.00917431,Town,2071,65,31.385,42.5844,-76.6966,865,36055,36055
New York,Harmony,2045,2045,2113,-0.00486618,Town,2055,45,45.058,42.0496,-79.4581,866,36029,36029
New York,Canajoharie,2036,2036,2078,-0.00391389,Village,2044,1530,1.331,42.8991,-74.5679,867,36119,36119
New York,Pawling,2031,2031,1991,0.00395452,Village,2023,1039,1.954,41.5636,-73.5993,868,36119,36119
New York,Hume,2030,2030,2073,-0.00392542,Town,2038,53,37.944,42.4822,-78.1218,869,36055,36055
New York,Worcester,2028,2028,2107,-0.00879765,Town,2046,43,46.71,42.5826,-74.724,870,36119,36119
New York,Richfield,2024,2024,2060,-0.00442695,Town,2033,66,30.858,42.8513,-75.0477,871,36119,36119
New York,Caton,2024,2024,2040,0.000989119,Town,2022,54,37.598,42.0466,-77.0243,872,36055,36055
New York,Bolton,2019,2019,2010,0.00347912,Town,2012,32,63.597,43.5794,-73.6576,873,36119,36119
New York,Waterford,2018,2018,2037,-0.00197824,Village,2022,7131,0.283,42.7921,-73.6788,874,36119,36119
New York,Leicester,2009,2009,2076,-0.00839092,Town,2026,59,33.837,42.7603,-77.9045,875,36055,36055
New York,Augusta,2005,2005,2023,0.0,Town,2005,72,27.683,42.9772,-75.5022,876,36055,36055
New York,Angola,2003,2003,2047,-0.00447316,Village,2012,1414,1.417,42.6379,-79.0295,877,36029,36029
New York,Parishville,1999,1999,2037,-0.00398605,Town,2007,20,98.115,44.5505,-74.7849,878,36055,36055
New York,Cold Spring,1997,1997,1987,0.00100251,Village,1995,3362,0.594,41.4192,-73.9547,879,36119,36119
New York,Dolgeville,1993,1993,2045,-0.00499251,Village,2003,1113,1.791,43.1067,-74.78,880,36119,36119
New York,Stockton,1993,1993,2043,-0.0025025,Town,1998,42,47.156,42.2995,-79.3567,881,36029,36029
New York,Boonville,1990,1990,2032,-0.004004,Village,1998,1151,1.729,43.4809,-75.3296,882,36055,36055
New York,Upper Nyack,1987,1987,2009,-0.00200904,Village,1991,1618,1.228,41.121,-73.9108,883,36119,36119
New York,Crown Point,1980,1980,2039,-0.00302115,Town,1986,26,76.123,43.9638,-73.5833,884,36119,36119
New York,Fort Plain,1976,1976,2013,-0.00353,Village,1983,1469,1.345,42.9327,-74.6268,885,36119,36119
New York,Root,1976,1976,2015,-0.00353,Town,1983,39,50.651,42.843,-74.4862,886,36119,36119
New York,Gainesville,1970,1970,2006,-0.00505051,Town,1980,55,35.603,42.6507,-78.1253,887,36055,36055
New York,Bolivar,1966,1966,2027,-0.00656897,Town,1979,55,35.868,42.0162,-78.1321,888,36029,36029
New York,Prattsburgh,1966,1966,1979,0.0,Town,1966,38,51.666,42.5369,-77.3324,889,36055,36055
New York,Stamford,1964,1964,1993,-0.00707786,Town,1978,40,48.505,42.339,-74.6663,890,36119,36119
New York,Scottsville,1961,1961,2046,-0.00859454,Village,1978,1811,1.083,43.0223,-77.7534,891,36055,36055
New York,Fabius,1960,1960,2003,-0.00305188,Town,1966,42,46.501,42.8197,-75.9852,892,36055,36055
New York,Clermont,1953,1953,2055,-0.0131379,Town,1979,109,17.996,42.0859,-73.8547,893,36119,36119
New York,Great Valley,1937,1937,1991,-0.00360082,Town,1944,39,50.121,42.2003,-78.6375,894,36029,36029
New York,Stockbridge,1936,1936,1986,-0.00462725,Town,1945,61,31.529,42.9861,-75.5914,895,36055,36055
New York,Brant,1935,1935,1914,0.00259067,Town,1930,80,24.314,42.5948,-79.0247,896,36029,36029
New York,Red Hook,1933,1933,1972,-0.00412159,Village,1941,1832,1.055,41.9958,-73.8765,897,36119,36119
New York,Marathon,1932,1932,2032,-0.0097386,Town,1951,77,24.937,42.4285,-76.003,898,36055,36055
New York,Java,1928,1928,1964,-0.00515996,Town,1938,41,47.118,42.6566,-78.3852,899,36029,36029
New York,Avoca,1927,1927,1988,-0.00516262,Town,1937,53,36.251,42.4243,-77.4488,900,36055,36055
New York,Philadelphia,1923,1923,1965,-0.00568769,Town,1934,51,37.667,44.1426,-75.7048,901,36055,36055
New York,Hadley,1922,1922,1976,-0.0087674,Town,1939,48,39.705,43.3374,-73.9059,902,36119,36119
New York,Hartwick,1918,1918,1946,-0.00363636,Town,1925,48,40.085,42.6457,-75.0151,903,36119,36119
New York,Friendship,1916,1916,1938,-0.00208333,Town,1920,53,36.215,42.2147,-78.1307,904,36029,36029
New York,New Albion,1914,1914,1977,-0.00674624,Town,1927,53,36.129,42.3068,-78.8897,905,36029,36029
New York,Laurel Hollow,1913,1913,1938,-0.00260688,Village,1918,647,2.958,40.8567,-73.4775,906,36059,36059
New York,Arcade,1908,1908,1950,-0.00417536,Village,1916,740,2.578,42.5317,-78.4399,907,36029,36029
New York,Stewart Manor,1905,1905,1954,-0.00522193,Village,1915,9431,0.202,40.7201,-73.6854,908,36059,36059
New York,Cambridge,1900,1900,1948,-0.00627615,Town,1912,52,36.401,43.0078,-73.4461,909,36119,36119
New York,Marshall,1888,1888,1959,-0.00683851,Town,1901,58,32.802,42.9671,-75.3862,910,36055,36055
New York,Ashford,1887,1887,1966,-0.00892857,Town,1904,37,51.238,42.4538,-78.6517,911,36029,36029
New York,Winfield,1883,1883,1894,0.0,Town,1883,80,23.639,42.8971,-75.1659,912,36119,36119
New York,Nelson,1880,1880,1889,-0.0015932,Town,1883,44,43.061,42.8857,-75.7451,913,36055,36055
New York,Edmeston,1874,1874,1902,-0.00372142,Town,1881,42,44.301,42.7229,-75.2603,914,36119,36119
New York,Russell,1873,1873,1873,-0.00159915,Town,1876,19,96.504,44.402,-75.1407,915,36055,36055
New York,New Hartford,1872,1872,1847,0.00267809,Village,1867,3024,0.619,43.071,-75.2886,916,36055,36055
New York,Germantown,1869,1869,1936,-0.00901379,Town,1886,154,12.103,42.1368,-73.8705,917,36119,36119
New York,Locke,1860,1860,1877,-0.00534759,Town,1870,77,24.305,42.6546,-76.4193,918,36055,36055
New York,Lattingtown,1845,1845,1892,-0.00485437,Village,1854,492,3.747,40.8946,-73.5953,919,36059,36059
New York,Phelps,1845,1845,1872,-0.0027027,Village,1850,1595,1.157,42.9581,-77.0621,920,36055,36055
New York,Rensselaerville,1843,1843,1826,0.00272035,Town,1838,30,61.464,42.4795,-74.1786,921,36119,36119
New York,Schroon,1843,1843,1878,-0.00162513,Town,1846,14,132.678,43.8554,-73.7616,922,36119,36119
New York,Huron,1843,1843,1865,-0.00162513,Town,1846,47,39.393,43.2461,-76.8914,923,36055,36055
New York,Middlefield,1842,1842,1877,-0.00486224,Town,1851,29,63.334,42.697,-74.856,924,36119,36119
New York,Willsboro,1835,1835,1903,-0.00380022,Town,1842,43,42.712,44.3855,-73.3987,925,36119,36119
New York,Salisbury,1831,1831,1827,0.00164114,Town,1828,17,107.366,43.2221,-74.8007,926,36119,36119
New York,Central Square,1826,1826,1860,-0.00381888,Village,1833,958,1.906,43.286,-76.1419,927,36055,36055
New York,Cooperstown,1826,1826,1853,-0.00273075,Village,1831,1117,1.635,42.6989,-74.9307,928,36119,36119
New York,Webb,1822,1822,1796,0.00441014,Town,1814,4,451.403,43.8218,-75.0401,929,36055,36055
New York,Stuyvesant,1821,1821,1926,-0.0140769,Town,1847,73,25.004,42.3955,-73.7555,930,36119,36119
New York,Youngstown,1817,1817,1859,-0.00438356,Village,1825,1681,1.081,43.2496,-79.0422,931,36029,36029
New York,Potter,1816,1816,1847,-0.0021978,Town,1820,49,37.246,42.7141,-77.1807,932,36055,36055
New York,Lincoln,1812,1812,1826,-0.00110254,Town,1814,73,24.963,43.0322,-75.7338,933,36055,36055
New York,Olean,1810,1810,1883,-0.00821918,Town,1825,61,29.598,42.0613,-78.4245,934,36029,36029
New York,Dryden,1809,1809,1943,-0.0147059,Village,1836,1030,1.756,42.4908,-76.3014,935,36055,36055
New York,Barre,1803,1803,1833,-0.00166113,Town,1806,33,55.04,43.179,-78.2114,936,36055,36055
New York,Esperance,1800,1800,1805,-0.00166389,Town,1803,92,19.666,42.7533,-74.3136,937,36119,36119
New York,Clymer,1799,1799,1763,0.00615213,Town,1788,50,36.114,42.049,-79.5824,938,36029,36029
New York,Dansville,1798,1798,1827,-0.00277315,Town,1803,37,48.368,42.4646,-77.6617,939,36055,36055
New York,Butler,1798,1798,1820,-0.00277315,Town,1803,48,37.09,43.1771,-76.765,940,36055,36055
New York,Berlin,1793,1793,1808,0.0,Town,1793,30,59.596,42.6602,-73.3727,941,36119,36119
New York,Cambridge,1790,1790,1805,-0.00167317,Village,1793,1037,1.726,43.028,-73.3813,942,36119,36119
New York,Western,1785,1785,1826,-0.0027933,Town,1790,35,51.206,43.35,-75.4107,943,36055,36055
New York,Throop,1784,1784,1828,-0.00390843,Town,1791,96,18.586,42.9836,-76.6189,944,36055,36055
New York,Watson,1782,1782,1793,-0.00112108,Town,1784,16,114.242,43.8297,-75.2368,945,36055,36055
New York,Westville,1781,1781,1763,0.00338028,Town,1775,51,34.807,44.9405,-74.3835,946,36055,36055
New York,Lawrence,1780,1780,1717,0.0107893,Town,1761,37,47.61,44.7456,-74.6763,947,36055,36055
New York,Ellenburg,1768,1768,1835,-0.00729927,Town,1781,17,106.569,44.8118,-73.8649,948,36119,36119
New York,Oakfield,1765,1765,1825,-0.00675295,Village,1777,2670,0.661,43.065,-78.271,949,36029,36029
New York,Genoa,1764,1764,1818,-0.00675676,Town,1776,45,39.598,42.6474,-76.5694,950,36055,36055
New York,Bethany,1763,1763,1781,0.00284414,Town,1758,49,36.055,42.9196,-78.1268,951,36055,36055
New York,Hebron,1762,1762,1784,-0.00339366,Town,1768,31,56.112,43.2585,-73.3491,952,36119,36119
New York,Hillsdale,1759,1759,1829,-0.0112423,Town,1779,37,47.726,42.2292,-73.5214,953,36119,36119
New York,Upper Brookville,1758,1758,1770,-0.00113636,Village,1760,409,4.299,40.8475,-73.5629,954,36059,36059
New York,Remsen,1757,1757,1762,0.0011396,Town,1755,50,35.47,43.3662,-75.1459,955,36055,36055
New York,Colchester,1756,1756,1774,-0.00678733,Town,1768,13,136.79,42.0399,-74.9535,956,36119,36119
New York,Carlisle,1754,1754,1768,-0.00284252,Town,1759,51,34.117,42.7394,-74.4393,957,36119,36119
New York,Lindley,1754,1754,1807,-0.00454029,Town,1762,47,37.515,42.0376,-77.1495,958,36055,36055
New York,Oppenheim,1753,1753,1746,0.000570776,Town,1752,31,56.134,43.0822,-74.672,959,36119,36119
New York,Valatie,1749,1749,1649,0.0115674,Village,1729,1395,1.254,42.4131,-73.6778,960,36119,36119
New York,Stillwater,1745,1745,1752,-0.000572737,Village,1746,1387,1.258,42.9465,-73.6393,961,36119,36119
New York,West Carthage,1745,1745,1767,-0.00228702,Village,1749,1334,1.308,43.9736,-75.6216,962,36055,36055
New York,Watkins Glen,1742,1742,1856,-0.0130312,Village,1765,1117,1.56,42.3806,-76.867,963,36055,36055
New York,Weedsport,1740,1740,1809,-0.00798175,Village,1754,1783,0.976,43.0481,-76.5636,964,36055,36055
New York,Village Branch,1738,1738,1765,-0.00286862,Village,1743,1829,0.95,40.8534,-73.1822,965,36103,36103
New York,Erin,1733,1733,1803,-0.00573723,Town,1743,39,44.247,42.1841,-76.6717,966,36055,36055
New York,Chateaugay,1732,1732,1739,0.00115607,Town,1730,35,49.794,44.9305,-74.0763,967,36119,36119
New York,Marcellus,1730,1730,1792,-0.00688863,Village,1742,2707,0.639,42.9837,-76.3405,968,36055,36055
New York,Maryland,1729,1729,1750,-0.00345821,Town,1735,33,52.406,42.551,-74.866,969,36119,36119
New York,South Floral Park,1726,1726,1738,-0.00115741,Village,1728,17794,0.097,40.7135,-73.7004,970,36059,36059
New York,Quogue,1722,1722,1659,0.00760679,Village,1709,413,4.168,40.8214,-72.5989,971,36103,36103
New York,Conquest,1722,1722,1789,-0.00806452,Town,1736,49,35.222,43.1175,-76.6569,972,36055,36055
New York,Windham,1715,1715,1714,-0.00348635,Town,1721,38,45.2,42.318,-74.2166,973,36119,36119
New York,Dannemora,1713,1713,3287,-0.155325,Village,2028,1419,1.207,44.7197,-73.7185,974,36119,36119
New York,Conewango,1712,1712,1790,-0.00983227,Town,1729,47,36.117,42.2254,-79.0065,975,36029,36029
New York,Holley,1708,1708,1763,-0.00639907,Village,1719,1347,1.268,43.2247,-78.0292,976,36055,36055
New York,Morris,1706,1706,1728,-0.00350467,Town,1712,44,39.067,42.5428,-75.2641,977,36119,36119
New York,Madrid,1706,1706,1736,-0.0040864,Town,1713,32,52.984,44.7708,-75.1285,978,36055,36055
New York,Painted Post,1702,1702,1769,-0.00758017,Village,1715,1336,1.274,42.1638,-77.0924,979,36055,36055
New York,Jackson,1693,1693,1713,-0.00353149,Town,1699,46,37.146,43.0805,-73.3833,980,36119,36119
New York,Atlantic Beach,1692,1692,1704,-0.00118064,Village,1694,3854,0.439,40.5861,-73.7251,981,36059,36059
New York,Sharon,1691,1691,1693,0.0,Town,1691,43,39.062,42.7769,-74.6132,982,36119,36119
New York,Sodus,1689,1689,1719,-0.00353982,Village,1695,1795,0.941,43.2371,-77.0628,983,36055,36055
New York,St. Johnsville,1686,1686,1713,-0.00295683,Village,1691,1920,0.878,43.0006,-74.676,984,36119,36119
New York,West Turin,1681,1681,1683,-0.00059453,Town,1682,16,102.503,43.5933,-75.5075,985,36055,36055
New York,Clayton,1679,1679,1733,-0.00650888,Village,1690,1048,1.602,44.2375,-76.0827,986,36055,36055
New York,Wayland,1679,1679,1744,-0.00768322,Village,1692,1486,1.13,42.5628,-77.5959,987,36055,36055
New York,Reading,1679,1679,1716,-0.00178359,Town,1682,62,27.15,42.4198,-76.9386,988,36055,36055
New York,Middleport,1672,1672,1731,-0.00712589,Village,1684,1917,0.872,43.2117,-78.4757,989,36029,36029
New York,Adams,1671,1671,1688,-0.00179211,Village,1674,1156,1.445,43.8102,-76.023,990,36055,36055
New York,Dundee,1670,1670,1715,-0.00536033,Village,1679,1515,1.102,42.5236,-76.9774,991,36055,36055
New York,Greenwich,1661,1661,1675,-0.00180288,Village,1664,1130,1.47,43.0865,-73.4967,992,36119,36119
New York,Ledyard,1661,1661,1704,0.00666667,Town,1650,46,36.112,42.7453,-76.674,993,36055,36055
New York,Gerry,1660,1660,1782,-0.0142518,Town,1684,46,36.128,42.2273,-79.2308,994,36029,36029
New York,Ephratah,1660,1660,1672,0.0,Town,1660,42,39.17,43.0385,-74.567,995,36119,36119
New York,Hornby,1650,1650,1679,-0.0060241,Town,1660,40,40.85,42.2351,-77.0291,996,36055,36055
New York,Antwerp,1647,1647,1679,-0.0066345,Town,1658,16,105.958,44.2214,-75.6018,997,36055,36055
