state,city,population,pop2025,pop2020,growth,type,pop2024,densityMi,areaMi,lat,lng,rank,fips_code,geo_id
New Mexico,Albuquerque,557198,557198,564888.0,-0.00275264,City,558736,2975,187.266,35.1048,-106.647,1,35001,35001
New Mexico,Las Cruces,117021,117021,111698.0,0.00918452,City,115956,1521,76.933,32.3264,-106.79,2,35013,35013
New Mexico,Rio Rancho,114811,114811,104433.0,0.0184149,City,112735,1111,103.361,35.2851,-106.699,3,35001,35001
New Mexico,Santa Fe,90125,90125,87729.0,0.00534324,City,89646,1725,52.233,35.662,-105.982,4,35049,35049
New Mexico,Roswell,46229,46229,48429.0,-0.0094281,City,46669,1556,29.716,33.3734,-104.529,5,35005,35005
New Mexico,Farmington,46061,46061,46500.0,-0.00190687,City,46149,1337,34.461,36.7538,-108.181,6,35045,35045
New Mexico,Hobbs,38538,38538,40657.0,-0.0108824,City,38962,1460,26.404,32.7291,-103.161,7,35025,35025
New Mexico,Clovis,37011,37011,38513.0,-0.00804052,City,37311,1567,23.625,34.4386,-103.194,8,35009,35009
New Mexico,South Valley,36757,36757,39150.0,-0.0075868,CDP,37038,1267,29.019,35.0086,-106.682,9,35001,35001
New Mexico,Alamogordo,31516,31516,30936.0,0.00369427,City,31400,1461,21.572,32.8836,-105.964,10,35035,35035
New Mexico,Carlsbad,30977,30977,32282.0,-0.00835521,City,31238,979,31.652,32.4008,-104.241,11,35015,35015
New Mexico,Los Lunas,20256,20256,17313.0,0.0299486,Village,19667,995,20.361,34.8009,-106.789,12,35061,35061
New Mexico,Gallup,19548,19548,21805.0,-0.0225511,City,19999,968,20.19,35.5138,-108.744,13,35031,35031
New Mexico,Sunland Park,18283,18283,16798.0,0.0165128,City,17986,1241,14.735,31.8236,-106.6,14,35013,35013
New Mexico,Chaparral,15455,15455,13744.0,0.00357143,CDP,15400,262,59.064,32.0443,-106.406,15,35013,35013
New Mexico,Deming,14481,14481,14786.0,-0.00419475,City,14542,866,16.715,32.2631,-107.752,16,35029,35029
New Mexico,Los Alamos,13820,13820,12978.0,0.00875912,CDP,13700,1244,11.108,35.894,-106.29,17,35028,35028
New Mexico,Las Vegas,12723,12723,13177.0,-0.00710161,City,12814,1476,8.622,35.6048,-105.217,18,35047,35047
New Mexico,Artesia,11964,11964,12868.0,-0.0149033,City,12145,1056,11.331,32.8522,-104.425,19,35015,35015
New Mexico,Portales,11681,11681,12125.0,-0.0075616,City,11770,1455,8.026,34.1773,-103.355,20,35041,35041
New Mexico,North Valley,11237,11237,13331.0,-0.000533665,CDP,11243,1618,6.946,35.1731,-106.623,21,35001,35001
New Mexico,Lovington,10937,10937,11687.0,-0.0135294,City,11087,976,11.209,32.9445,-103.349,22,35025,35025
New Mexico,Española,10367,10367,10526.0,-0.00307722,City,10399,1261,8.222,36.004,-106.07,23,35028,35028
New Mexico,Bernalillo,9172,9172,9026.0,0.00317183,Town,9143,1744,5.258,35.3124,-106.554,24,35001,35001
New Mexico,Silver City,9153,9153,9712.0,-0.0120885,Town,9265,905,10.119,32.7786,-108.269,25,35017,35017
New Mexico,Grants,8908,8908,9127.0,-0.0049151,City,8952,600,14.858,35.1542,-107.832,26,35006,35006
New Mexico,Anthony,8739,8739,8706.0,0.000801649,City,8732,3238,2.699,32.0131,-106.598,27,35013,35013
New Mexico,Corrales,8688,8688,8507.0,0.00416089,Village,8652,805,10.789,35.2396,-106.627,28,35001,35001
New Mexico,Shiprock,8270,8270,8588.0,-0.000241779,CDP,8272,612,13.511,36.7907,-108.696,29,35045,35045
New Mexico,Socorro,8149,8149,8679.0,-0.0128407,City,8255,564,14.454,34.0545,-106.906,30,35053,35053
New Mexico,Ruidoso,7636,7636,7703.0,-0.00169957,Village,7649,473,16.132,33.3495,-105.669,31,35027,35027
New Mexico,Belen,7541,7541,7373.0,0.00452911,City,7507,397,19.011,34.7666,-106.809,32,35061,35061
New Mexico,Bloomfield,7311,7311,7405.0,-0.00259209,City,7330,394,18.548,36.7433,-107.974,33,35045,35045
New Mexico,Santa Teresa,6931,6931,6553.0,0.0265107,CDP,6752,783,8.85,31.8714,-106.673,34,35013,35013
New Mexico,Zuni Pueblo,6911,6911,6822.0,0.00596798,CDP,6870,547,12.623,35.0694,-108.856,35,35031,35031
New Mexico,Taos,6385,6385,6490.0,-0.00327818,Town,6406,1057,6.039,36.3871,-105.58,36,35055,35055
New Mexico,Edgewood,6095,6095,6182.0,-0.00278141,Town,6112,107,56.796,35.1313,-106.22,37,35057,35057
New Mexico,Aztec,6087,6087,6194.0,-0.00343811,City,6108,357,17.062,36.8159,-107.97,38,35045,35045
New Mexico,Crouch Mesa,6042,6042,4626.0,0.0712766,CDP,5640,292,20.674,36.748,-108.085,39,35045,35045
New Mexico,North Hobbs,5981,5981,5860.0,0.00656345,CDP,5942,230,26.041,32.7733,-103.123,40,35025,35025
New Mexico,Truth Consequences,5970,5970,6045.0,-0.00250626,City,5985,213,27.996,33.2376,-107.276,41,35051,35051
New Mexico,Raton,5943,5943,6030.0,-0.00285235,City,5960,747,7.961,36.885,-104.44,42,35007,35007
New Mexico,Los Ranchos Albuquerque,5790,5790,5885.0,-0.00327079,Village,5809,1301,4.452,35.162,-106.646,43,35001,35001
New Mexico,White Rock,5559,5559,5845.0,-0.00197487,CDP,5570,787,7.066,35.8086,-106.208,44,35028,35028
New Mexico,Eldorado Santa Fe,5306,5306,5510.0,-0.0102593,CDP,5361,255,20.781,35.5272,-105.934,45,35049,35049
New Mexico,El Cerro Mission,5084,5084,4808.0,0.00553797,CDP,5056,864,5.883,34.7687,-106.645,46,35061,35061
New Mexico,Tucumcari,5031,5031,5260.0,-0.00906047,City,5077,529,9.507,35.1703,-103.705,47,35037,35037
New Mexico,Rio Communities,4890,4890,4932.0,-0.00163332,City,4898,636,7.694,34.6452,-106.716,48,35061,35061
New Mexico,Kirtland AFB,4796,4796,4279.0,0.0714924,CDP,4476,880,5.448,35.0477,-106.561,49,35001,35001
New Mexico,Meadow Lake,4754,4754,4266.0,0.000631446,CDP,4751,412,11.541,34.8031,-106.57,50,35061,35061
New Mexico,Los Chaves,4688,4688,4965.0,-0.0107618,CDP,4739,410,11.436,34.7335,-106.761,51,35061,35061
New Mexico,Lee Acres,4608,4608,5318.0,-0.0176935,CDP,4691,446,10.323,36.7048,-108.062,52,35045,35045
New Mexico,Paradise Hills,4487,4487,4918.0,0.0033542,CDP,4472,4386,1.023,35.1981,-106.702,53,35001,35001
New Mexico,Holloman AFB,4464,4464,3943.0,0.0215103,CDP,4370,356,12.553,32.846,-106.096,54,35035,35035
New Mexico,Bosque Farms,4111,4111,4023.0,0.00439775,Village,4093,1045,3.935,34.8536,-106.701,55,35061,35061
New Mexico,La Cienega,3980,3980,3728.0,0.00251889,CDP,3970,341,11.661,35.5794,-106.113,56,35049,35049
New Mexico,Placitas,3838,3838,4506.0,-0.0194175,CDP,3914,130,29.44,35.3226,-106.443,57,35001,35001
New Mexico,Peralta,3476,3476,3356.0,0.00695249,Town,3452,782,4.443,34.8283,-106.686,58,35061,35061
New Mexico,Vado,3434,3434,3189.0,0.0046811,CDP,3418,1153,2.978,32.1279,-106.657,59,35013,35013
New Mexico,El Cerro,3317,3317,3138.0,0.00759417,CDP,3292,781,4.246,34.7805,-106.696,60,35061,35061
New Mexico,Center Point,3220,3220,2726.0,0.0715474,CDP,3005,350,9.193,36.871,-107.955,61,35045,35045
New Mexico,Sandia Heights,3208,3208,3111.0,0.000311817,CDP,3207,1739,1.845,35.1743,-106.488,62,35001,35001
New Mexico,Crownpoint,2959,2959,3018.0,0.0154427,CDP,2914,44,67.506,35.7343,-108.155,63,35031,35031
New Mexico,Chimayo,2900,2900,2779.0,-0.00616861,CDP,2918,375,7.736,35.9986,-105.945,64,35049,35049
New Mexico,Eunice,2862,2862,3067.0,-0.0141233,City,2903,699,4.094,32.4361,-103.149,65,35025,35025
New Mexico,Cannon AFB,2791,2791,2527.0,0.0130671,CDP,2755,476,5.863,34.3821,-103.317,66,35009,35009
New Mexico,Santa Rosa,2715,2715,2850.0,-0.00984683,City,2742,543,4.999,34.9361,-104.675,67,35019,35019
New Mexico,San Rafael,2669,2669,1757.0,0.0450274,CDP,2554,169,15.804,35.0982,-107.905,68,35006,35006
New Mexico,La Mesilla,2627,2627,2656.0,0.022179,CDP,2570,590,4.454,35.9419,-106.064,69,35028,35028
New Mexico,Tularosa,2627,2627,2556.0,0.00535783,Village,2613,932,2.819,33.075,-106.017,70,35035,35035
New Mexico,Ruidoso Downs,2537,2537,2641.0,-0.00820954,City,2558,669,3.79,33.3312,-105.597,71,35027,35027
New Mexico,Clayton,2536,2536,2648.0,-0.00860047,Town,2558,325,7.808,36.446,-103.149,72,35059,35059
New Mexico,Thoreau,2485,2485,2068.0,0.0167758,CDP,2444,63,39.472,35.4235,-108.2,73,35031,35031
New Mexico,Tres Arroyos,2475,2475,2159.0,0.0714286,CDP,2310,268,9.233,35.6798,-106.04,74,35049,35049
New Mexico,Milan,2455,2455,2459.0,-0.000407166,Village,2456,557,4.41,35.1968,-107.892,75,35006,35006
New Mexico,Agua Fria,2454,2454,2997.0,-0.00928542,CDP,2477,1012,2.424,35.6616,-106.015,76,35049,35049
New Mexico,Pojoaque,2443,2443,2094.0,0.0145349,CDP,2408,559,4.368,35.8962,-106.01,77,35049,35049
New Mexico,La Plata,2426,2426,2078.0,0.0524946,CDP,2305,109,22.162,36.8964,-108.201,78,35045,35045
New Mexico,Flora Vista,2385,2385,2187.0,0.00548061,CDP,2372,482,4.952,36.8031,-108.09,79,35045,35045
New Mexico,University Park,2382,2382,2917.0,-0.048342,CDP,2503,1552,1.535,32.2767,-106.746,80,35013,35013
New Mexico,Angustura,2355,2355,2050.0,0.0714286,CDP,2198,494,4.771,36.7128,-107.917,81,35045,35045
New Mexico,West Hammond,2315,2315,2738.0,-0.0136344,CDP,2347,254,9.106,36.682,-108.044,82,35045,35045
New Mexico,Picacho Hills,2278,2278,1770.0,0.0714958,CDP,2126,703,3.241,32.3158,-106.878,83,35013,35013
New Mexico,Boles Acres,2262,2262,2311.0,0.0189189,CDP,2220,185,12.24,32.82,-105.978,84,35035,35035
New Mexico,Ranchos Taos,2262,2262,2086.0,-0.00745941,CDP,2279,641,3.527,36.3619,-105.602,85,35055,35055
New Mexico,Nambe,2252,2252,1970.0,0.0130454,CDP,2223,259,8.695,35.8984,-105.967,86,35049,35049
New Mexico,San Ysidro,2234,2234,2527.0,0.0044964,CDP,2224,845,2.645,32.3568,-106.813,87,35013,35013
New Mexico,Little Walnut Village,2181,2181,1886.0,0.0712181,CDP,2036,372,5.86,32.8256,-108.287,88,35017,35017
New Mexico,Navajo,2178,2178,1818.0,0.0168067,CDP,2142,967,2.253,35.9024,-109.032,89,35031,35031
New Mexico,Dulce,2141,2141,2584.0,-0.0183402,CDP,2181,167,12.826,36.9538,-107.0,90,35039,35039
New Mexico,Jemez Pueblo,2140,2140,1976.0,0.0108644,CDP,2117,1047,2.044,35.6066,-106.732,91,35043,35043
New Mexico,Lordsburg,2122,2122,2324.0,-0.0185014,City,2162,252,8.425,32.3438,-108.702,92,35023,35023
New Mexico,Moriarty,2054,2054,1944.0,0.0108268,City,2032,296,6.935,35.0034,-106.044,93,35057,35057
New Mexico,Jal,2042,2042,2199.0,-0.0149542,City,2073,423,4.823,32.1148,-103.19,94,35025,35025
New Mexico,Bayard,2028,2028,2118.0,-0.00879765,City,2046,2132,0.951,32.7582,-108.134,95,35017,35017
New Mexico,South River,1980,1980,2248.0,0.0714286,CDP,1848,232,8.533,36.7859,-108.058,96,35045,35045
New Mexico,Valencia,1967,1967,1995.0,-0.00756811,CDP,1982,991,1.984,34.8053,-106.687,97,35061,35061
New Mexico,Barton,1923,1923,1451.0,0.0719064,CDP,1794,210,9.157,35.0653,-106.257,98,35057,35057
New Mexico,Santo Domingo Pueblo,1912,1912,2281.0,-0.0184805,CDP,1948,938,2.038,35.5224,-106.368,99,35028,35028
New Mexico,Las Campanas,1901,1901,1128.0,0.0715896,CDP,1774,182,10.434,35.7159,-106.058,100,35049,35049
New Mexico,La Luz,1898,1898,1799.0,0.00689655,CDP,1885,178,10.684,32.9716,-105.94,101,35035,35035
New Mexico,Tano Road,1882,1882,1596.0,0.071144,CDP,1757,163,11.544,35.7374,-105.982,102,35049,35049
New Mexico,Arroyo Seco,1876,1876,2311.0,0.00320856,CDP,1870,275,6.826,36.5215,-105.586,103,35055,35055
New Mexico,Gamerco,1861,1861,1646.0,0.0713874,CDP,1737,1945,0.957,35.57,-108.764,104,35031,35031
New Mexico,Rio Rancho Estates,1841,1841,1586.0,0.0715949,CDP,1718,27,68.353,35.3004,-106.799,105,35001,35001
New Mexico,Las Maravillas,1838,1838,1960.0,0.00767544,CDP,1824,1820,1.01,34.7349,-106.665,106,35061,35061
New Mexico,Thunder Mountain,1827,1827,1652.0,0.0709261,CDP,1706,413,4.421,35.1017,-106.224,107,35057,35057
New Mexico,El Valle Arroyo Seco,1820,1820,1807.0,0.0139276,CDP,1795,355,5.131,35.9526,-106.026,108,35049,35049
New Mexico,Keeler Farm,1819,1819,1794.0,0.0196188,CDP,1784,160,11.391,32.3161,-107.76,109,35029,35029
New Mexico,High Rolls,1805,1805,1370.0,0.0373563,CDP,1740,117,15.413,32.9337,-105.803,110,35035,35035
New Mexico,Questa,1796,1796,1798.0,0.0,Village,1796,254,7.077,36.7124,-105.599,111,35055,35055
New Mexico,Mesilla,1786,1786,1801.0,-0.00167691,Town,1789,314,5.679,32.2693,-106.809,112,35013,35013
New Mexico,Talpa,1754,1754,1245.0,0.0384843,CDP,1689,1338,1.311,36.3401,-105.592,113,35055,35055
New Mexico,Radium Springs,1646,1646,1487.0,-0.00242424,CDP,1650,276,5.966,32.4782,-106.903,114,35013,35013
New Mexico,La Villita,1641,1641,312.0,0.0288401,CDP,1595,1209,1.357,36.1012,-106.055,115,35028,35028
New Mexico,El Rancho,1592,1592,1406.0,0.0172524,CDP,1565,758,2.099,35.8928,-106.086,116,35028,35028
New Mexico,Santa Clara,1588,1588,1637.0,-0.00625782,Village,1598,798,1.99,32.78,-108.149,117,35017,35017
New Mexico,Hatch,1581,1581,1548.0,0.00444727,Village,1574,526,3.005,32.6731,-107.162,118,35051,35051
New Mexico,Paraje,1508,1508,793.0,0.0328767,CDP,1460,270,5.576,35.0444,-107.468,119,35006,35006
New Mexico,Upper Fruitland,1501,1501,1601.0,-0.00727513,CDP,1512,196,7.653,36.72,-108.321,120,35045,35045
New Mexico,Jarales,1494,1494,2207.0,-0.0416934,CDP,1559,171,8.72,34.6155,-106.761,121,35061,35061
New Mexico,Taos Pueblo,1494,1494,1443.0,0.0163265,CDP,1470,96,15.6,36.4657,-105.563,122,35055,35055
New Mexico,Church Rock,1462,1462,1354.0,0.0152778,CDP,1440,80,18.341,35.5692,-108.573,123,35031,35031
New Mexico,Sandia Knolls,1460,1460,1516.0,0.0110803,CDP,1444,521,2.803,35.1604,-106.299,124,35001,35001
New Mexico,Columbus,1457,1457,1439.0,0.00275292,Village,1453,312,4.666,31.8274,-107.642,125,35029,35029
New Mexico,Elephant Butte,1437,1437,1451.0,-0.00208333,City,1440,344,4.179,33.1824,-107.222,126,35051,35051
New Mexico,Iyanbito,1399,1399,964.0,0.0712098,CDP,1306,147,9.54,35.516,-108.488,127,35031,35031
New Mexico,White Sands,1399,1399,1368.0,-0.0113074,CDP,1415,331,4.224,32.3804,-106.479,128,35013,35013
New Mexico,Capitan,1389,1389,1399.0,-0.00143781,Village,1391,426,3.259,33.5392,-105.598,129,35027,35027
New Mexico,Mesita,1386,1386,1169.0,0.0281899,CDP,1348,186,7.471,35.0058,-107.316,130,35006,35006
New Mexico,Doña Ana,1377,1377,1375.0,0.00805271,CDP,1366,2155,0.639,32.3939,-106.818,131,35013,35013
New Mexico,Pecos,1376,1376,1386.0,-0.00145138,Village,1378,775,1.775,35.5757,-105.678,132,35049,35049
New Mexico,Atoka,1331,1331,1275.0,0.0129376,CDP,1314,197,6.76,32.778,-104.394,133,35015,35015
New Mexico,Estancia,1321,1321,1255.0,0.00993884,Town,1308,214,6.168,34.7643,-106.039,134,35057,35057
New Mexico,Loving,1290,1290,1389.0,-0.0152672,Village,1310,1070,1.206,32.2862,-104.098,135,35015,35015
New Mexico,La Huerta,1281,1281,1489.0,0.00156372,CDP,1279,845,1.516,32.4488,-104.222,136,35015,35015
New Mexico,Indian Hills,1273,1273,810.0,0.0200321,CDP,1248,223,5.711,34.9832,-106.14,137,35057,35057
New Mexico,Ponderosa Pine,1259,1259,998.0,0.00398724,CDP,1254,156,8.072,34.9709,-106.34,138,35057,35057
New Mexico,Black Rock,1243,1243,1298.0,-0.00400641,CDP,1248,712,1.746,35.0809,-108.798,139,35031,35031
New Mexico,Waterflow,1239,1239,1552.0,-0.0228707,CDP,1268,153,8.11,36.7554,-108.469,140,35045,35045
New Mexico,Cañoncito,1230,1230,1199.0,0.0714286,CDP,1148,124,9.91,35.5352,-105.839,141,35049,35049
New Mexico,El Duende,1214,1214,681.0,0.0279424,CDP,1181,826,1.469,36.0684,-106.13,142,35028,35028
New Mexico,Hurley,1212,1212,1257.0,-0.00737101,Town,1221,1188,1.02,32.6985,-108.131,143,35017,35017
New Mexico,Berino,1202,1202,1704.0,-0.0131363,CDP,1218,1279,0.94,32.069,-106.622,144,35013,35013
New Mexico,San Felipe Pueblo,1186,1186,1767.0,-0.0646688,CDP,1268,99,11.983,35.4383,-106.413,145,35043,35043
New Mexico,Livingston Wheeler,1185,1185,444.0,0.0331299,CDP,1147,717,1.652,32.3917,-104.203,146,35015,35015
New Mexico,Ohkay Owingeh,1180,1180,1220.0,0.00169779,CDP,1178,307,3.839,36.0453,-106.046,147,35028,35028
New Mexico,Tesuque,1172,1172,828.0,0.0138408,CDP,1156,207,5.658,35.7486,-105.921,148,35049,35049
New Mexico,Angel Fire,1165,1165,1192.0,-0.0042735,Village,1170,40,28.805,36.378,-105.259,149,35055,35055
New Mexico,Spencerville,1153,1153,1592.0,-0.00603448,CDP,1160,219,5.255,36.8296,-108.062,150,35045,35045
New Mexico,Algodones,1125,1125,976.0,0.0190217,CDP,1104,154,7.307,35.3707,-106.489,151,35001,35001
New Mexico,Skyline-Ganipa,1109,1109,1173.0,-0.00716204,CDP,1117,142,7.806,35.0361,-107.616,152,35006,35006
New Mexico,Rock Springs,1107,1107,1166.0,0.0336134,CDP,1071,88,12.587,35.6188,-108.835,153,35031,35031
New Mexico,Santa Ana Pueblo,1105,1105,944.0,0.0307836,CDP,1072,149,7.396,35.3523,-106.515,154,35001,35001
New Mexico,Alamo,1080,1080,816.0,0.0,CDP,1080,28,39.174,34.4184,-107.512,155,35053,35053
New Mexico,Dixon,1080,1080,483.0,0.00934579,CDP,1070,94,11.534,36.1796,-105.891,156,35055,35055
New Mexico,Dexter,1039,1039,1076.0,-0.00669216,Town,1046,1425,0.729,33.1948,-104.369,157,35005,35005
New Mexico,El Rito,1017,1017,682.0,0.0139581,CDP,1003,248,4.109,36.3326,-106.174,158,35028,35028
New Mexico,La Puebla,998,998,1061.0,-0.0128586,CDP,1011,352,2.837,35.9882,-106.001,159,35049,35049
New Mexico,Valle Vista,995,995,664.0,0.0710441,CDP,929,3713,0.268,35.584,-106.058,160,35049,35049
New Mexico,Sunlit Hills,981,981,637.0,0.0709607,CDP,916,262,3.751,35.5957,-105.921,161,35049,35049
New Mexico,Fairacres,965,965,1213.0,0.00941422,CDP,956,458,2.108,32.3047,-106.837,162,35013,35013
New Mexico,Logan,953,953,968.0,-0.00313807,Village,956,90,10.596,35.3555,-103.453,163,35037,35037
New Mexico,Cedar Hill,952,952,901.0,0.00740741,CDP,945,101,9.4,36.946,-107.883,164,35045,35045
New Mexico,Carrizozo,949,949,976.0,-0.00524109,Town,954,114,8.361,33.6433,-105.841,165,35027,35027
New Mexico,Arenas Valley,944,944,1224.0,-0.0396745,CDP,983,232,4.067,32.7756,-108.203,166,35017,35017
New Mexico,Pinedale,944,944,569.0,0.0715096,CDP,881,92,10.31,35.6071,-108.426,167,35031,35031
New Mexico,Santa Clara Pueblo,942,942,873.0,-0.00527983,CDP,947,466,2.02,35.9708,-106.102,168,35028,35028
New Mexico,Hagerman,940,940,975.0,-0.00739176,Town,947,693,1.356,33.1158,-104.332,169,35005,35005
New Mexico,Zia Pueblo,940,940,845.0,0.0151188,CDP,926,35,27.03,35.53,-106.717,170,35043,35043
New Mexico,Las Tusas,936,936,406.0,0.0709382,CDP,874,739,1.266,35.2731,-108.126,171,35006,35006
New Mexico,Twin Lakes,936,936,1119.0,-0.00847458,CDP,944,104,9.018,35.6834,-108.771,172,35031,35031
New Mexico,Santa Fe Foothills,934,934,920.0,0.0711009,CDP,872,113,8.278,35.628,-105.898,173,35049,35049
New Mexico,Isleta,931,931,688.0,0.0713464,CDP,869,1274,0.731,34.9043,-106.699,174,35061,35061
New Mexico,Mountainair,928,928,877.0,0.0108932,Town,918,587,1.581,34.5212,-106.239,175,35057,35057
New Mexico,Springer,924,924,931.0,-0.00108108,Town,925,419,2.204,36.3654,-104.6,176,35007,35007
New Mexico,Cedar Grove,921,921,790.0,0.0132013,CDP,909,72,12.766,35.1772,-106.167,177,35057,35057
New Mexico,Cedar Crest,909,909,887.0,-0.00328947,CDP,912,291,3.125,35.1147,-106.38,178,35001,35001
New Mexico,Texico,908,908,943.0,-0.00765027,City,915,1098,0.827,34.3892,-103.051,179,35009,35009
New Mexico,Chama,906,906,920.0,-0.00330033,Village,909,314,2.881,36.8901,-106.584,180,35039,35039
New Mexico,Ventura,893,893,780.0,0.0323699,CDP,865,164,5.46,32.2438,-107.683,181,35029,35029
New Mexico,Hernandez,891,891,931.0,-0.00446927,CDP,895,525,1.696,36.0569,-106.118,182,35028,35028
New Mexico,Tortugas,885,885,762.0,0.0714286,CDP,826,4447,0.199,32.2697,-106.755,183,35013,35013
New Mexico,San Jose,882,882,750.0,0.0137931,CDP,870,488,1.809,36.0367,-106.1,184,35028,35028
New Mexico,La Cueva,868,868,463.0,0.0716049,CDP,810,113,7.679,35.5776,-105.734,185,35049,35049
New Mexico,Prewitt,861,861,759.0,0.0708955,CDP,804,62,13.824,35.3683,-108.075,186,35031,35031
New Mexico,Fort Sumner,853,853,877.0,-0.00582751,Village,858,257,3.315,34.4869,-104.218,187,35011,35011
New Mexico,Williams Acres,853,853,711.0,0.071608,CDP,796,1057,0.807,35.4969,-108.87,188,35031,35031
New Mexico,Chamita,834,834,863.0,-0.00239234,CDP,836,217,3.851,36.0693,-106.094,189,35028,35028
New Mexico,Mora,827,827,696.0,0.0134804,CDP,816,103,8.035,35.9635,-105.331,190,35033,35033
New Mexico,Salem,820,820,586.0,-0.00966183,CDP,828,627,1.308,32.7121,-107.206,191,35051,35051
New Mexico,Sunshine,812,812,274.0,0.0330789,CDP,786,46,17.635,32.1344,-107.784,192,35029,35029
New Mexico,La Union,810,810,907.0,-0.0240964,CDP,830,196,4.142,31.9508,-106.662,193,35013,35013
New Mexico,Acomita Lake,806,806,753.0,0.0333333,CDP,780,206,3.916,35.0689,-107.615,194,35006,35006
New Mexico,Tome,800,800,1585.0,-0.0815155,CDP,871,145,5.524,34.739,-106.725,195,35061,35061
New Mexico,North Light Plant,791,791,860.0,0.0326371,CDP,766,366,2.162,36.867,-108.033,196,35045,35045
New Mexico,Cimarron,788,788,790.0,0.0,Village,788,372,2.117,36.5083,-104.91,197,35007,35007
New Mexico,Adelino,782,782,1110.0,-0.00255102,CDP,784,262,2.984,34.7064,-106.732,198,35061,35061
New Mexico,Mescalero,779,779,1127.0,-0.0453431,CDP,816,44,17.888,33.1346,-105.8,199,35035,35035
New Mexico,Paa-Ko,775,775,685.0,0.0719225,CDP,723,134,5.804,35.1998,-106.334,200,35001,35001
New Mexico,San Ildefonso Pueblo,772,772,816.0,0.0225166,CDP,755,175,4.417,35.8883,-106.129,201,35028,35028
New Mexico,White Cliffs,763,763,489.0,0.0716292,CDP,712,1779,0.429,35.549,-108.664,202,35031,35031
New Mexico,Magdalena,761,761,806.0,-0.0116883,Village,770,122,6.224,34.1095,-107.232,203,35053,35053
New Mexico,Cloudcroft,760,760,754.0,0.00131752,Village,759,465,1.636,32.9522,-105.732,204,35035,35035
New Mexico,Butterfield Park,745,745,513.0,0.0719424,CDP,695,1656,0.45,32.4052,-106.646,205,35013,35013
New Mexico,Yah-ta-hey,739,739,627.0,0.0137174,CDP,729,215,3.435,35.6291,-108.793,206,35031,35031
New Mexico,Peñasco,738,738,648.0,0.0137363,CDP,728,607,1.216,36.1703,-105.691,207,35055,35055
New Mexico,Tyrone,736,736,472.0,0.00960219,CDP,729,2197,0.335,32.7099,-108.303,208,35017,35017
New Mexico,San Antonito,719,719,837.0,-0.0230978,CDP,736,294,2.444,35.1575,-106.348,209,35001,35001
New Mexico,McCartys Village,718,718,484.0,0.0716418,CDP,670,224,3.207,35.0613,-107.663,210,35006,35006
New Mexico,Canova,707,707,575.0,0.0583832,CDP,668,837,0.845,36.1678,-105.989,211,35028,35028
New Mexico,Los Luceros,687,687,619.0,-0.0213675,CDP,702,419,1.639,36.1144,-106.037,212,35028,35028
New Mexico,Peña Blanca,683,683,812.0,-0.00146199,CDP,684,99,6.887,35.5709,-106.332,213,35028,35028
New Mexico,Brimhall Nizhoni,681,681,353.0,0.0493066,CDP,649,42,16.308,35.7917,-108.63,214,35031,35031
New Mexico,Cañada Alamos,680,680,618.0,0.0240964,CDP,664,185,3.679,35.5927,-105.86,215,35049,35049
New Mexico,Rio Lucio,679,679,522.0,0.0287879,CDP,660,645,1.052,36.1922,-105.72,216,35055,35055
New Mexico,Conejo,676,676,283.0,0.0713154,CDP,631,355,1.904,35.6287,-105.942,217,35049,35049
New Mexico,Chamberino,670,670,687.0,-0.0247453,CDP,687,219,3.058,32.0364,-106.678,218,35013,35013
New Mexico,Tatum,664,664,706.0,-0.0119048,Town,672,419,1.585,33.2554,-103.311,219,35025,35025
New Mexico,Sundance,658,658,553.0,0.0716612,CDP,614,189,3.475,35.5105,-108.64,220,35031,35031
New Mexico,Happy Valley,656,656,780.0,0.0139104,CDP,647,306,2.145,32.4279,-104.29,221,35015,35015
New Mexico,Tohatchi,653,653,855.0,-0.015083,CDP,663,101,6.468,35.8434,-108.752,222,35031,35031
New Mexico,Polvadera,649,649,626.0,0.0400641,CDP,624,670,0.969,34.202,-106.917,223,35053,35053
New Mexico,Cuba,642,642,632.0,0.003125,Village,640,197,3.264,36.0146,-106.968,224,35043,35043
New Mexico,La Hacienda,639,639,442.0,-0.00776397,CDP,644,472,1.353,32.206,-107.725,225,35029,35029
New Mexico,La Mesa,630,630,642.0,-0.010989,CDP,637,265,2.373,32.1244,-106.709,226,35013,35013
New Mexico,Morningside,624,624,634.0,0.0280066,CDP,607,6638,0.094,32.861,-104.397,227,35015,35015
New Mexico,Rowe,624,624,513.0,0.0229508,CDP,610,102,6.112,35.4922,-105.672,228,35049,35049
New Mexico,Sedillo,620,620,625.0,-0.0189873,CDP,632,226,2.746,35.087,-106.288,229,35001,35001
New Mexico,Cedro,614,614,616.0,0.0199336,CDP,602,114,5.392,35.0181,-106.351,230,35001,35001
New Mexico,Napi Headquarters,603,603,717.0,-0.0147059,CDP,612,135,4.451,36.6505,-108.215,231,35045,35045
New Mexico,Seboyeta,600,600,173.0,0.048951,CDP,572,225,2.672,35.1989,-107.383,232,35006,35006
New Mexico,Melrose,591,591,620.0,-0.0100503,Village,597,350,1.69,34.4295,-103.629,233,35009,35009
New Mexico,Pecan Park,589,589,448.0,0.0709091,CDP,550,5505,0.107,32.2704,-107.674,234,35029,35029
New Mexico,Lemitar,584,584,475.0,0.0299824,CDP,567,426,1.371,34.155,-106.912,235,35053,35053
New Mexico,Glorieta,579,579,772.0,0.0175747,CDP,569,76,7.649,35.584,-105.763,236,35049,35049
New Mexico,Kirtland,572,572,582.0,-0.00348432,Town,574,332,1.722,36.7589,-108.367,237,35045,35045
New Mexico,Totah Vista,570,570,366.0,0.0714286,CDP,532,997,0.572,36.7107,-108.206,238,35045,35045
New Mexico,Mimbres,566,566,404.0,-0.0104895,CDP,572,162,3.486,32.8392,-107.96,239,35017,35017
New Mexico,Midway,564,564,638.0,-0.0456853,CDP,591,227,2.485,33.2973,-104.451,240,35005,35005
New Mexico,Tecolotito,562,562,549.0,0.0407407,CDP,540,782,0.719,35.2307,-105.163,241,35047,35047
New Mexico,Ojo Encino,556,556,406.0,0.0712909,CDP,519,853,0.652,35.9525,-107.344,242,35043,35043
New Mexico,Pueblo Sandia Village,551,551,554.0,0.0222635,CDP,539,486,1.134,35.2537,-106.571,243,35001,35001
New Mexico,Tesuque Pueblo,543,543,448.0,0.0402299,CDP,522,247,2.198,35.809,-105.975,244,35049,35049
New Mexico,Red River,533,533,542.0,-0.00373832,Town,535,525,1.015,36.7098,-105.418,245,35055,35055
New Mexico,Torreon,530,530,389.0,0.0271318,CDP,516,38,13.882,35.7932,-107.212,246,35043,35043
New Mexico,Hyde Park,525,525,410.0,0.0714286,CDP,490,247,2.123,35.7112,-105.887,247,35049,35049
New Mexico,Cuyamungue,520,520,465.0,0.003861,CDP,518,446,1.166,35.8648,-106.01,248,35049,35049
New Mexico,Laguna,508,508,737.0,-0.0879713,CDP,557,53,9.553,35.0474,-107.402,249,35006,35006
New Mexico,La Madera,504,504,402.0,0.0723404,CDP,470,38,13.095,35.2345,-106.334,250,35001,35001
New Mexico,Placitas,500,500,409.0,-0.00990099,CDP,505,3759,0.133,32.6655,-107.17,251,35051,35051
New Mexico,Peak Place,497,497,458.0,0.0163599,CDP,489,381,1.306,35.7912,-105.943,252,35049,35049
New Mexico,Paguate,496,496,560.0,0.0101833,CDP,491,102,4.869,35.1564,-107.401,253,35006,35006
New Mexico,Pinehill,489,489,462.0,0.0723684,CDP,456,138,3.535,34.8922,-108.422,254,35006,35006
New Mexico,Villanueva,484,484,339.0,0.0364026,CDP,467,67,7.256,35.2659,-105.36,255,35047,35047
New Mexico,Carnuel,474,474,1037.0,-0.0971429,CDP,525,89,5.318,35.0612,-106.457,256,35001,35001
New Mexico,Cochiti,473,473,483.0,-0.00838574,CDP,477,607,0.779,35.6104,-106.35,257,35028,35028
New Mexico,Fort Wingate,472,472,273.0,0.0702948,CDP,441,234,2.015,35.4708,-108.544,258,35031,35031
New Mexico,Mesquite,468,468,892.0,-0.0841487,CDP,511,571,0.819,32.167,-106.688,259,35013,35013
New Mexico,Costilla,466,466,89.0,0.0378619,CDP,449,154,3.026,36.9785,-105.535,260,35055,35055
New Mexico,Williamsburg,462,462,464.0,0.0,Village,462,951,0.486,33.1159,-107.294,261,35051,35051
New Mexico,Tijeras,461,461,465.0,-0.0021645,Village,462,407,1.132,35.0862,-106.378,262,35001,35001
New Mexico,Newcomb,459,459,535.0,0.0177384,CDP,451,47,9.679,36.2852,-108.712,263,35031,35031
New Mexico,Sandia Park,454,454,247.0,0.0318182,CDP,440,626,0.725,35.1648,-106.366,264,35001,35001
New Mexico,San Miguel,454,454,1006.0,-0.0938124,CDP,501,198,2.291,32.1535,-106.727,265,35013,35013
New Mexico,Puerto Luna,453,453,226.0,0.0461894,CDP,433,32,14.19,34.8297,-104.622,266,35019,35019
New Mexico,Lobo Canyon,446,446,323.0,0.0721154,CDP,416,104,4.3,35.2238,-107.721,267,35006,35006
New Mexico,Turley,442,442,403.0,0.0702179,CDP,413,96,4.628,36.7367,-107.792,268,35045,35045
New Mexico,Cochiti Lake,440,440,444.0,-0.0200445,CDP,449,354,1.243,35.6478,-106.343,269,35028,35028
New Mexico,Blanco,437,437,465.0,0.00691244,CDP,434,71,6.145,36.7618,-107.77,270,35045,35045
New Mexico,Homer C Jones,436,436,2.0,0.0712531,CDP,407,1751,0.249,35.3078,-108.097,271,35006,35006
New Mexico,Jaconita,433,433,307.0,0.0164319,CDP,426,642,0.674,35.8856,-106.061,272,35049,35049
New Mexico,Fruitland,430,430,610.0,0.0723192,CDP,401,220,1.958,36.7435,-108.395,273,35045,35045
New Mexico,Timberlake,426,426,355.0,0.0703518,CDP,398,36,11.795,35.2012,-108.484,274,35031,35031
New Mexico,Lybrook,425,425,322.0,0.070529,CDP,397,110,3.881,36.2241,-107.558,275,35045,35045
New Mexico,Cuartelez,424,424,93.0,-0.00702576,CDP,427,310,1.367,35.9928,-106.02,276,35028,35028
New Mexico,Tierra Amarilla,411,411,455.0,0.00488997,CDP,409,153,2.688,36.7059,-106.565,277,35039,35039
New Mexico,Cotton City,406,406,355.0,0.00495049,CDP,404,16,25.819,32.1105,-108.88,278,35023,35023
New Mexico,La Jara,399,399,272.0,0.0310078,CDP,387,28,14.252,36.1055,-106.942,279,35039,35039
New Mexico,Ramah,396,396,505.0,0.00507614,CDP,394,32,12.267,35.1264,-108.506,280,35031,35031
New Mexico,Cuyamungue Grant,395,395,267.0,0.0286458,CDP,384,155,2.55,35.8464,-105.995,281,35049,35049
New Mexico,Sagar,395,395,217.0,0.0704607,CDP,369,211,1.869,35.2474,-108.767,282,35031,35031
New Mexico,Rodey,391,391,648.0,0.0025641,CDP,390,699,0.559,32.6538,-107.136,283,35051,35051
New Mexico,Sheep Springs,391,391,397.0,0.0235602,CDP,382,76,5.126,36.1592,-108.691,284,35031,35031
New Mexico,Vadito,385,385,307.0,0.0212202,CDP,377,447,0.862,36.1929,-105.675,285,35055,35055
New Mexico,Nenahnezad,376,376,470.0,-0.050505,CDP,396,107,3.506,36.7308,-108.434,286,35045,35045
New Mexico,Seama,374,374,298.0,-0.0157895,CDP,380,58,6.487,35.0508,-107.54,287,35006,35006
New Mexico,Chamisal,370,370,364.0,0.010929,CDP,366,225,1.641,36.1725,-105.746,288,35055,35055
New Mexico,Lake Arthur,370,370,380.0,-0.00537634,Town,372,695,0.532,32.9994,-104.364,289,35005,35005
New Mexico,San Pablo,360,360,1022.0,-0.0769231,CDP,390,296,1.217,32.2507,-106.763,290,35013,35013
New Mexico,Highland Meadows,358,358,460.0,-0.0478723,CDP,376,52,6.925,34.9386,-107.166,291,35061,35061
New Mexico,Sausal,357,357,801.0,-0.116337,CDP,404,159,2.249,34.6803,-106.759,292,35061,35061
New Mexico,Naschitti,354,354,492.0,0.0114286,CDP,350,141,2.506,36.0626,-108.68,293,35031,35031
New Mexico,Ojo Sarco,351,351,185.0,0.070122,CDP,328,103,3.409,36.1249,-105.784,294,35055,35055
New Mexico,Cruzville,349,349,223.0,0.0705521,CDP,326,137,2.553,33.811,-108.668,295,35003,35003
New Mexico,Jacona,347,347,375.0,-0.011396,CDP,351,410,0.847,35.8887,-106.039,296,35049,35049
New Mexico,Becenti,344,344,243.0,0.0716511,CDP,321,367,0.938,35.8123,-108.171,297,35031,35031
New Mexico,Navajo Dam,342,342,378.0,0.0118343,CDP,338,28,12.068,36.8729,-107.623,298,35045,35045
New Mexico,Ensenada,341,341,210.0,0.0492308,CDP,325,234,1.458,36.7309,-106.537,299,35039,35039
New Mexico,Gallina,338,338,308.0,0.0730159,CDP,315,54,6.295,36.2349,-106.828,300,35039,35039
New Mexico,Monterey Park,338,338,1097.0,-0.195238,CDP,420,128,2.645,34.7511,-106.653,301,35061,35061
New Mexico,Glen Acres,331,331,194.0,0.0279503,CDP,322,335,0.988,32.375,-108.716,302,35023,35023
New Mexico,Pueblitos,329,329,205.0,-0.0861111,CDP,360,155,2.127,34.6121,-106.781,303,35061,35061
New Mexico,Nageezi,327,327,266.0,0.00925926,CDP,324,23,14.098,36.2463,-107.751,304,35045,35045
New Mexico,Ojo Amarillo,325,325,529.0,-0.0819209,CDP,354,165,1.965,36.6941,-108.37,305,35045,35045
New Mexico,San Lorenzo,325,325,149.0,0.0726073,CDP,303,186,1.747,32.8054,-107.92,306,35017,35017
New Mexico,Cañon,324,324,173.0,-0.00307692,CDP,325,20,16.111,35.6718,-106.753,307,35043,35043
New Mexico,Reserve,322,322,294.0,0.0189873,Village,316,578,0.557,33.709,-108.761,308,35003,35003
New Mexico,Las Palomas,317,317,115.0,0.0325733,CDP,307,198,1.603,33.0589,-107.298,309,35051,35051
New Mexico,Eagle Nest,314,314,319.0,-0.0031746,Village,315,70,4.484,36.547,-105.261,310,35055,35055
New Mexico,Madrid,308,308,321.0,0.0232558,CDP,301,222,1.39,35.4033,-106.154,311,35049,35049
New Mexico,Ribera,308,308,501.0,-0.0253165,CDP,316,122,2.517,35.37,-105.444,312,35047,35047
New Mexico,Middle Mesa,305,305,168.0,0.0701754,CDP,285,45,6.708,36.98,-107.507,313,35045,35045
New Mexico,Arroyo Hondo,286,286,586.0,0.071161,CDP,267,90,3.173,35.6103,-105.945,314,35049,35049
New Mexico,Jamestown,286,286,129.0,0.071161,CDP,267,105,2.729,35.4693,-108.44,315,35031,35031
New Mexico,Edith Enclave,285,285,,0.0714286,CDP,266,188,1.513,35.2112,-106.586,316,35001,35001
New Mexico,Hanover,283,283,155.0,0.0253623,CDP,276,203,1.397,32.8148,-108.09,317,35017,35017
New Mexico,Pleasanton,283,283,350.0,0.0404412,CDP,272,186,1.523,33.2798,-108.881,318,35017,35017
New Mexico,Broadview,281,281,54.0,0.0725191,CDP,262,75,3.755,35.2257,-107.876,319,35006,35006
New Mexico,Bluewater,280,280,226.0,0.0727969,CDP,261,24,11.762,35.3243,-108.206,320,35031,35031
New Mexico,Rosedale,279,279,259.0,-0.0278746,CDP,287,158,1.766,32.7647,-108.243,321,35017,35017
New Mexico,Crystal,278,278,331.0,-0.0106762,CDP,281,61,4.55,36.03,-108.989,322,35031,35031
New Mexico,Chupadero,266,266,256.0,-0.0220588,CDP,272,147,1.806,35.8144,-105.92,323,35049,35049
New Mexico,Rincon,266,266,494.0,0.0,CDP,266,252,1.055,32.6725,-107.076,324,35051,35051
New Mexico,Wagon Mound,265,265,264.0,0.0,Village,265,262,1.012,36.0047,-104.709,325,35047,35047
New Mexico,Rio Chiquito,264,264,76.0,0.0731707,CDP,246,246,1.075,35.9949,-105.907,326,35049,35049
New Mexico,Truchas,260,260,260.0,-0.0714286,CDP,280,38,6.929,36.0367,-105.813,327,35049,35049
New Mexico,Vaughn,258,258,280.0,-0.0152672,Town,262,46,5.599,34.6072,-105.213,328,35019,35019
New Mexico,McIntosh,257,257,792.0,-0.239645,CDP,338,11,23.288,34.8819,-106.056,329,35057,35057
New Mexico,Casa Colorada,256,256,125.0,-0.00389105,CDP,257,46,5.519,34.5509,-106.74,330,35061,35061
New Mexico,Quemado,256,256,173.0,0.00787401,CDP,254,143,1.79,34.3406,-108.506,331,35003,35003
New Mexico,Sanostee,252,252,428.0,-0.0307692,CDP,260,56,4.535,36.4305,-108.863,332,35045,35045
New Mexico,Soham,250,250,132.0,0.0121457,CDP,247,162,1.547,35.4169,-105.498,333,35049,35049
New Mexico,Mount Taylor,249,249,271.0,0.0732759,CDP,232,131,1.908,35.1241,-107.807,334,35006,35006
New Mexico,Twin Forks,247,247,315.0,0.0122951,CDP,244,60,4.129,32.9385,-105.646,335,35035,35035
New Mexico,San Pedro,244,244,100.0,0.0166667,CDP,240,25,9.764,35.228,-106.185,336,35001,35001
New Mexico,Crestview,241,241,201.0,0.0711111,CDP,225,185,1.302,35.4878,-108.857,337,35031,35031
New Mexico,East Pecos,241,241,545.0,-0.123636,CDP,275,67,3.598,35.5766,-105.65,338,35049,35049
New Mexico,Chical,238,238,205.0,0.0347826,CDP,230,293,0.811,34.8658,-106.667,339,35061,35061
New Mexico,Nadine,237,237,233.0,-0.0365854,CDP,246,21,11.393,32.6105,-103.103,340,35025,35025
New Mexico,Encinal,235,235,266.0,0.00858369,CDP,233,79,2.965,35.1112,-107.465,341,35006,35006
New Mexico,Velarde,233,233,189.0,-0.0717131,CDP,251,91,2.553,36.1593,-105.959,342,35028,35028
New Mexico,Torreon,231,231,187.0,0.0,CDP,231,28,8.282,34.7242,-106.301,343,35057,35057
New Mexico,La Madera,229,229,21.0,0.0223214,CDP,224,52,4.439,36.3767,-106.043,344,35055,35055
New Mexico,North San Ysidro,228,228,47.0,0.0224215,CDP,223,99,2.298,35.4746,-105.566,345,35049,35049
New Mexico,Alcalde,223,223,217.0,-0.0176211,CDP,227,432,0.516,36.0854,-106.058,346,35028,35028
New Mexico,Pueblo Pintado,223,223,314.0,0.00904977,CDP,221,7,31.002,35.9613,-107.622,347,35031,35031
New Mexico,Maxwell,222,222,224.0,0.0,Village,222,468,0.474,36.5411,-104.543,348,35007,35007
New Mexico,Beclabito,218,218,275.0,-0.0311111,CDP,225,29,7.528,36.8335,-109.004,349,35045,35045
New Mexico,Haystack,218,218,214.0,0.0738916,CDP,203,51,4.262,35.3545,-107.939,350,35006,35006
New Mexico,Willard,218,218,203.0,0.0139535,Village,215,236,0.922,34.5949,-106.032,351,35057,35057
New Mexico,Medanales,212,212,218.0,0.0707071,CDP,198,67,3.162,36.1765,-106.178,352,35028,35028
New Mexico,North Acomita Village,211,211,247.0,-0.0276498,CDP,217,55,3.871,35.0673,-107.565,353,35006,35006
New Mexico,San Luis,206,206,204.0,0.0729167,CDP,192,25,8.284,35.7009,-107.043,354,35043,35043
New Mexico,Bent,203,203,151.0,0.0304569,CDP,197,33,6.136,33.1425,-105.872,355,35035,35035
New Mexico,Jemez Springs,202,202,201.0,0.0,Village,202,42,4.801,35.7731,-106.691,356,35043,35043
New Mexico,Rio Medio,202,202,197.0,0.020202,CDP,198,305,0.663,35.8222,-105.901,357,35049,35049
New Mexico,Abeytas,199,199,245.0,0.0698925,CDP,186,161,1.233,34.4652,-106.814,358,35061,35061
New Mexico,Malaga,192,192,112.0,0.015873,CDP,189,65,2.971,32.2209,-104.066,359,35015,35015
New Mexico,Tajique,192,192,259.0,0.0212766,CDP,188,71,2.704,34.76,-106.301,360,35057,35057
New Mexico,Alamillo,191,191,201.0,0.0324324,CDP,185,159,1.2,34.2519,-106.916,361,35053,35053
New Mexico,Anton Chico,188,188,120.0,0.0,CDP,188,105,1.786,35.1949,-105.144,362,35047,35047
New Mexico,Hillsboro,188,188,199.0,0.0217391,CDP,184,88,2.134,32.9218,-107.577,363,35051,35051
New Mexico,San Jon,187,187,194.0,-0.00531915,Village,188,64,2.928,35.1113,-103.336,364,35037,35037
New Mexico,Golden Acres,186,186,97.0,0.0689655,CDP,174,203,0.917,35.2112,-107.918,365,35006,35006
New Mexico,Casas Adobes,182,182,116.0,0.0705882,CDP,170,196,0.927,32.8094,-107.939,366,35017,35017
New Mexico,Nara Visa,182,182,19.0,0.0705882,CDP,170,26,7.053,35.6069,-103.104,367,35037,35037
New Mexico,Pinos Altos,182,182,209.0,-0.00546448,CDP,183,241,0.756,32.8665,-108.222,368,35017,35017
New Mexico,Santa Cruz,182,182,193.0,-0.0618557,CDP,194,293,0.621,35.994,-106.036,369,35028,35028
New Mexico,La Joya,179,179,35.0,0.0718563,CDP,167,191,0.937,34.345,-106.847,370,35053,35053
New Mexico,Roy,179,179,193.0,-0.0164835,Village,182,88,2.044,35.9451,-104.196,371,35021,35021
New Mexico,Aragon,178,178,98.0,0.0722892,CDP,166,21,8.454,33.8897,-108.52,372,35003,35003
New Mexico,Continental Divide,176,176,76.0,0.0731707,CDP,164,72,2.435,35.4329,-108.336,373,35031,35031
New Mexico,Pie Town,176,176,118.0,-0.00564972,CDP,177,3,57.268,34.3404,-108.177,374,35003,35003
New Mexico,Lindrith,175,175,75.0,0.0736196,CDP,163,48,3.64,36.3155,-107.039,375,35039,35039
New Mexico,White Signal,170,170,290.0,0.0,CDP,170,26,6.433,32.5677,-108.349,376,35017,35017
New Mexico,San Ysidro,169,169,166.0,0.00595238,Village,168,72,2.338,35.5606,-106.774,377,35043,35043
New Mexico,La Tierra,165,165,118.0,0.0714286,CDP,154,17,9.809,35.7473,-106.031,378,35049,35049
New Mexico,Sena,165,165,187.0,0.0122699,CDP,163,78,2.126,35.3036,-105.391,379,35047,35047
New Mexico,Catalpa Canyon,158,158,16.0,0.0748299,CDP,147,22,7.04,35.4942,-108.721,380,35031,35031
New Mexico,Galisteo,158,158,181.0,-0.0365854,CDP,164,47,3.372,35.3984,-105.957,381,35049,35049
New Mexico,Gila,158,158,174.0,-0.0595238,CDP,168,17,9.362,32.9413,-108.571,382,35017,35017
New Mexico,Elida,154,154,158.0,-0.00645161,Town,155,151,1.023,33.9469,-103.653,383,35041,35041
New Mexico,Nakaibito,152,152,214.0,-0.121387,CDP,173,22,6.998,35.7826,-108.804,384,35031,35031
New Mexico,Fence Lake,144,144,105.0,0.0746269,CDP,134,48,3.001,34.6534,-108.674,385,35003,35003
New Mexico,Conchas Dam,137,137,120.0,-0.0214286,CDP,140,16,8.325,35.3548,-104.195,386,35037,35037
New Mexico,Pajarito Mesa,136,136,310.0,-0.180723,CDP,166,6,21.271,34.9796,-106.781,387,35001,35001
New Mexico,Borrego Pass,134,134,143.0,0.072,CDP,125,10,13.226,35.5664,-108.016,388,35031,35031
New Mexico,Cliff,133,133,173.0,-0.0763889,CDP,144,13,10.253,32.966,-108.618,389,35017,35017
New Mexico,South Acomita Village,130,130,49.0,0.015625,CDP,128,111,1.167,35.0533,-107.572,390,35006,35006
New Mexico,Ute Park,130,130,225.0,0.0743802,CDP,121,38,3.395,36.5467,-105.104,391,35055,35055
New Mexico,Nogal,129,129,126.0,0.075,CDP,120,17,7.611,33.5382,-105.712,392,35027,35027
New Mexico,Corona,126,126,130.0,-0.00787401,Village,127,123,1.026,34.2501,-105.597,393,35027,35027
New Mexico,Lake Valley,123,123,96.0,0.0789474,CDP,114,15,8.347,36.0901,-108.164,394,35031,35031
New Mexico,Cordova,122,122,553.0,-0.134752,CDP,141,73,1.663,36.0128,-105.857,395,35049,35049
New Mexico,Kingston,116,116,57.0,0.0740741,CDP,108,583,0.199,32.9173,-107.71,396,35051,35051
New Mexico,Virden,116,116,126.0,-0.0169492,Village,118,550,0.211,32.6889,-109.001,397,35017,35017
New Mexico,Dora,113,113,117.0,-0.00877193,Village,114,44,2.594,33.9259,-103.339,398,35041,35041
New Mexico,Chili,112,112,671.0,-0.243243,CDP,148,34,3.283,36.105,-106.153,399,35028,35028
New Mexico,Des Moines,110,110,115.0,-0.00900901,Village,111,126,0.87,36.7613,-103.834,400,35059,35059
New Mexico,Monument,110,110,76.0,-0.0517241,CDP,116,21,5.277,32.6242,-103.278,401,35025,35025
New Mexico,Weed,110,110,98.0,0.0679612,CDP,103,12,8.972,32.7969,-105.531,402,35035,35035
New Mexico,Canjilon,108,108,254.0,-0.0847458,CDP,118,34,3.208,36.4837,-106.424,403,35039,35039
New Mexico,La Cueva,108,108,93.0,-0.0357143,CDP,112,66,1.646,35.8694,-106.649,404,35043,35043
New Mexico,Oasis,108,108,117.0,-0.0181818,CDP,110,52,2.09,32.9277,-107.316,405,35051,35051
New Mexico,Valencia,108,108,161.0,0.08,CDP,100,70,1.55,35.578,-105.791,406,35049,35049
New Mexico,Hope,105,105,115.0,-0.0186916,Village,107,86,1.223,32.8174,-104.737,407,35005,35005
New Mexico,Ponderosa,103,103,184.0,-0.155738,CDP,122,11,9.127,35.6555,-106.654,408,35043,35043
New Mexico,San Jose,102,102,98.0,-0.0192308,CDP,104,385,0.265,35.3956,-105.476,409,35049,35049
New Mexico,Lumberton,101,101,203.0,0.0744681,CDP,94,211,0.478,36.9328,-106.935,410,35039,35039
New Mexico,Tse Bonito,100,100,206.0,-0.122807,CDP,114,15,6.823,35.6466,-109.007,411,35031,35031
New Mexico,Encantado,96,96,96.0,0.0666667,CDP,90,36,2.684,35.7934,-105.911,412,35049,35049
New Mexico,La Boca,96,96,92.0,0.0666667,CDP,90,172,0.557,36.9945,-107.606,413,35045,35045
New Mexico,Picuris Pueblo,94,94,128.0,0.0681818,CDP,88,206,0.457,36.2001,-105.724,414,35055,35055
New Mexico,Capulin,93,93,19.0,0.0813954,CDP,86,63,1.484,36.7465,-104.002,415,35007,35007
New Mexico,Lamy,93,93,158.0,-0.0792079,CDP,101,36,2.59,35.4855,-105.886,416,35049,35049
New Mexico,Candy Kitchen,90,90,59.0,0.0714286,CDP,84,17,5.277,34.9093,-108.496,417,35006,35006
New Mexico,Mosquero,89,89,96.0,-0.0111111,Village,90,89,0.998,35.7743,-103.954,418,35021,35021
New Mexico,Pulpotio Bareas,86,86,223.0,-0.0227273,CDP,88,167,0.516,32.2179,-107.773,419,35029,35029
New Mexico,Floyd,84,84,86.0,0.0,Village,84,27,3.08,34.2286,-103.576,420,35041,35041
New Mexico,Mountain View,84,84,69.0,0.0769231,CDP,78,41,2.073,35.0046,-108.398,421,35006,35006
New Mexico,Grady,82,82,86.0,-0.0120482,Village,83,308,0.266,34.822,-103.315,422,35009,35009
New Mexico,Taos Ski Valley,82,82,79.0,0.0123457,Village,81,29,2.852,36.59,-105.437,423,35055,35055
New Mexico,Luna,80,80,32.0,-0.0697674,CDP,86,14,5.559,33.8176,-108.941,424,35003,35003
New Mexico,Animas,77,77,124.0,-0.125,CDP,88,5,15.663,31.9449,-108.806,425,35023,35023
New Mexico,El Morro Valley,75,75,76.0,0.0714286,CDP,70,8,9.933,35.0361,-108.323,426,35006,35006
New Mexico,Las Nutrias,75,75,104.0,-0.0625,CDP,80,78,0.966,34.4698,-106.771,427,35061,35061
New Mexico,Windmill,75,75,118.0,0.0714286,CDP,70,52,1.446,31.9769,-108.632,428,35023,35023
New Mexico,Cañones,73,73,45.0,-0.0394737,CDP,76,18,4.138,36.1764,-106.419,429,35028,35028
New Mexico,Pueblito,71,71,62.0,0.0757576,CDP,66,117,0.609,36.0727,-106.081,430,35028,35028
New Mexico,Vanderwagen,71,71,,0.0757576,CDP,66,36,1.992,35.2746,-108.744,431,35031,35031
New Mexico,Causey,67,67,69.0,0.0,Village,67,18,3.745,33.8667,-103.125,432,35041,35041
New Mexico,Youngsville,65,65,74.0,0.0655738,CDP,61,73,0.889,36.195,-106.567,433,35039,35039
New Mexico,Lake Sumner,63,63,17.0,-0.0735294,CDP,68,1,62.272,34.6236,-104.402,434,35011,35011
New Mexico,Regina,63,63,71.0,-0.0307692,CDP,65,9,7.269,36.1949,-106.946,435,35039,35039
New Mexico,Caballo,62,62,118.0,-0.0461538,CDP,65,63,0.981,32.9806,-107.307,436,35051,35051
New Mexico,Garfield,62,62,,-0.0746269,CDP,67,80,0.777,32.7568,-107.266,437,35051,35051
New Mexico,Sombrillo,62,62,100.0,-0.243902,CDP,82,65,0.947,35.9802,-106.035,438,35028,35028
New Mexico,Lake Roberts,61,61,38.0,0.0701754,CDP,57,216,0.283,33.0313,-108.169,439,35017,35017
New Mexico,Playas,60,60,52.0,0.0714286,CDP,56,32,1.864,31.9126,-108.536,440,35023,35023
New Mexico,Ojo Caliente,59,59,65.0,0.0727273,CDP,55,22,2.646,36.3147,-106.037,441,35055,35055
New Mexico,Loco Hills,58,58,22.0,-0.0793651,CDP,63,68,0.858,32.8197,-103.978,442,35015,35015
New Mexico,Lyden,58,58,206.0,-0.171429,CDP,70,26,2.242,36.1537,-106.015,443,35028,35028
New Mexico,Punta Agua,58,58,12.0,0.0740741,CDP,54,42,1.381,34.6016,-106.292,444,35057,35057
New Mexico,Timberon,58,58,244.0,-0.246753,CDP,77,3,20.29,32.6363,-105.695,445,35035,35035
New Mexico,Encino,57,57,54.0,0.0178571,Village,56,29,1.992,34.6518,-105.459,446,35019,35019
New Mexico,Stanley,55,55,37.0,0.0784314,CDP,51,9,6.174,35.1542,-105.976,447,35057,35057
New Mexico,House,54,54,56.0,0.0,Village,54,59,0.914,34.6494,-103.904,448,35011,35011
New Mexico,City Sun,52,52,37.0,0.0612245,CDP,49,206,0.253,31.8466,-107.65,449,35029,35029
New Mexico,Manuelito,51,51,28.0,0.0625,CDP,48,6,8.165,35.4387,-108.995,450,35031,35031
New Mexico,Anzac Village,47,47,44.0,0.0681818,CDP,44,48,0.975,35.0624,-107.741,451,35006,35006
New Mexico,Escudilla Bonita,46,46,81.0,-0.0980392,CDP,51,4,12.159,34.1101,-109.023,452,35003,35003
New Mexico,Folsom,46,46,48.0,0.0,Village,46,71,0.651,36.8478,-103.918,453,35059,35059
New Mexico,Hot Springs Landing,46,46,47.0,-0.08,CDP,50,102,0.451,33.2047,-107.21,454,35051,35051
New Mexico,San Antonio,46,46,9.0,-0.148148,CDP,54,102,0.452,33.9162,-106.87,455,35053,35053
New Mexico,Los Cerrillos,45,45,90.0,-0.285714,CDP,63,13,3.365,35.4272,-106.121,456,35049,35049
New Mexico,Faywood,44,44,18.0,0.0731707,CDP,41,84,0.526,32.6246,-107.875,457,35029,35029
New Mexico,Rivers,44,44,62.0,0.0731707,CDP,41,20,2.242,33.6746,-108.779,458,35003,35003
New Mexico,San Acacia,44,44,18.0,0.0731707,CDP,41,63,0.698,34.2549,-106.902,459,35053,35053
New Mexico,Organ,42,42,192.0,-0.3,CDP,60,49,0.863,32.4251,-106.602,460,35013,35013
New Mexico,Madrone,41,41,579.0,-0.517647,CDP,85,13,3.078,34.5792,-106.728,461,35061,35061
New Mexico,Arroyo Hondo,40,40,230.0,-0.42029,CDP,69,24,1.648,36.5346,-105.667,462,35055,35055
New Mexico,Cobre,40,40,27.0,0.0810811,CDP,37,597,0.067,32.7804,-108.111,463,35017,35017
New Mexico,Watrous,40,40,93.0,-0.130435,CDP,46,70,0.569,35.7892,-104.983,464,35047,35047
New Mexico,Winston,40,40,64.0,0.0810811,CDP,37,95,0.419,33.3461,-107.649,465,35051,35051
New Mexico,North Hurley,39,39,159.0,-0.303571,CDP,56,26,1.527,32.7198,-108.129,466,35017,35017
New Mexico,Chamizal,37,37,62.0,-0.119048,CDP,42,84,0.442,34.2183,-106.915,467,35053,35053
New Mexico,Rodeo,37,37,54.0,-0.119048,CDP,42,5,8.193,31.8397,-109.027,468,35023,35023
New Mexico,San Cristobal,37,37,156.0,-0.288462,CDP,52,5,6.886,36.6101,-105.632,469,35055,35055
New Mexico,Mayhill,36,36,45.0,0.0588235,CDP,34,4,9.498,32.8902,-105.504,470,35035,35035
New Mexico,Seton Village,36,36,9.0,0.0588235,CDP,34,235,0.153,35.5998,-105.934,471,35049,35049
New Mexico,Luis Lopez,33,33,74.0,-0.131579,CDP,38,61,0.538,33.9905,-106.888,472,35053,35053
New Mexico,Glenwood,32,32,57.0,-0.179487,CDP,39,21,1.541,33.3176,-108.875,473,35003,35003
New Mexico,Deer Canyon,30,30,30.0,0.0714286,CDP,28,4,7.995,34.4236,-106.284,474,35057,35057
New Mexico,Lake Roberts Heights,29,29,20.0,0.0740741,CDP,27,38,0.763,33.0271,-108.138,475,35017,35017
New Mexico,Manzano Springs,27,27,229.0,-0.205882,CDP,34,12,2.28,34.9614,-106.233,476,35057,35057
New Mexico,Golden,26,26,,0.0833333,CDP,24,4,6.726,35.2637,-106.223,477,35001,35001
New Mexico,Grenville,25,25,24.0,0.0,Village,25,66,0.379,36.5905,-103.615,478,35059,35059
New Mexico,Cubero,22,22,175.0,-0.435897,CDP,39,2,9.568,35.0905,-107.526,479,35006,35006
New Mexico,Duran,22,22,18.0,0.047619,CDP,21,5,4.692,34.4636,-105.381,480,35019,35019
New Mexico,Redrock,22,22,5.0,0.047619,CDP,21,37,0.6,32.6886,-108.741,481,35017,35017
New Mexico,Trout Valley,22,22,,0.047619,CDP,21,121,0.182,33.0362,-108.189,482,35017,35017
New Mexico,Escondida,21,21,14.0,0.05,CDP,20,157,0.134,34.1013,-106.897,483,35053,35053
New Mexico,La Bajada,20,20,16.0,0.0526316,CDP,19,116,0.173,35.5565,-106.244,484,35028,35028
New Mexico,Hachita,19,19,8.0,0.0555556,CDP,18,43,0.443,31.9153,-108.325,485,35023,35023
New Mexico,Datil,16,16,,0.0666667,CDP,15,9,1.87,34.1389,-107.841,486,35003,35003
New Mexico,Apache Creek,15,15,77.0,0.0714286,CDP,14,2,8.202,33.8603,-108.615,487,35003,35003
New Mexico,Pinehaven,9,9,133.0,0.125,CDP,8,1,6.965,35.3357,-108.671,488,35031,35031
New Mexico,Coyote,8,8,71.0,-0.5,CDP,16,2,4.154,36.1509,-106.608,489,35039,35039
New Mexico,Mogollon,8,8,,0.142857,CDP,7,4,1.791,33.4069,-108.8,490,35003,35003
New Mexico,Rancho Grande,6,6,,-0.6,CDP,15,14,0.423,33.682,-108.858,491,35003,35003
New Mexico,Pastura,4,4,3.0,0.0,CDP,4,12,0.347,34.7851,-104.942,492,35019,35019
New Mexico,Purty Rock,2,2,223.0,0.0,CDP,2,2,1.166,35.4902,-108.895,493,35031,35031
New Mexico,Stoneridge,2,2,5.0,0.0,CDP,2,3,0.798,35.3019,-108.103,494,35006,35006
