state,city,population,pop2025,pop2020,growth,type,pop2024,densityMi,areaMi,lat,lng,rank,fips_code,geo_id
Utah,Salt Lake City,215548,215548,200660.0,0.0140095,City,212570,1944,110.891,40.7769,-111.931,1,49035,49035
Utah,West Valley City,130801,130801,139973.0,-0.0138274,City,132635,3651,35.827,40.6885,-112.012,2,49035,49035
Utah,West Jordan,113492,113492,117032.0,-0.00619965,City,114200,3483,32.586,40.6027,-112.001,3,49035,49035
Utah,Provo,112169,112169,115103.0,-0.00520593,City,112756,2690,41.702,40.2453,-111.645,4,49049,49049
Utah,St. George,110270,110270,96039.0,0.0264931,City,107424,1429,77.148,37.077,-113.577,5,49053,49053
Utah,Lehi,99142,99142,76854.0,0.0470829,City,94684,3267,30.342,40.4171,-111.871,6,49049,49049
Utah,Orem,93577,93577,98432.0,-0.0102699,City,94548,5026,18.617,40.2981,-111.699,7,49049,49049
Utah,South Jordan,88910,88910,77954.0,0.0252655,City,86719,4004,22.205,40.5569,-111.979,8,49035,49035
Utah,Sandy,88621,88621,96925.0,-0.0183979,City,90282,3659,24.222,40.5717,-111.85,9,49035,49035
Utah,Ogden,87247,87247,87297.0,-0.000114603,City,87257,3167,27.549,41.2284,-111.968,10,49057,49057
Utah,Layton,84496,84496,82046.0,0.00583292,City,84006,3745,22.56,41.0774,-111.961,11,49011,49011
Utah,Eagle Mountain,65142,65142,44616.0,0.0672543,City,61037,1277,51.013,40.3143,-112.012,12,49049,49049
Utah,Herriman,62607,62607,56212.0,0.0208551,City,61328,2709,23.109,40.4917,-112.02,13,49045,49045
Utah,Saratoga Springs,62024,62024,38294.0,0.082859,City,57278,2657,23.341,40.3446,-111.916,14,49049,49049
Utah,Millcreek,61228,61228,63670.0,-0.00790719,City,61716,4748,12.895,40.689,-111.83,15,49035,49035
Utah,Logan,56860,56860,52835.0,0.0143609,City,56055,3150,18.052,41.7403,-111.842,16,49005,49005
Utah,Taylorsville,54916,54916,60371.0,-0.0194797,City,56007,5063,10.846,40.6569,-111.949,17,49035,49035
Utah,Murray,48911,48911,50515.0,-0.00652015,City,49232,3978,12.296,40.6507,-111.887,18,49035,49035
Utah,Draper,48652,48652,51027.0,-0.00966882,City,49127,1716,28.348,40.4972,-111.865,19,49049,49049
Utah,Spanish Fork,47428,47428,42750.0,0.0201325,City,46492,2826,16.784,40.1104,-111.641,20,49049,49049
Utah,Riverton,44564,44564,45289.0,-0.00324319,City,44709,3535,12.605,40.5176,-111.964,21,49035,49035
Utah,Bountiful,43056,43056,45776.0,-0.0124771,City,43600,3263,13.196,40.8725,-111.861,22,49011,49011
Utah,Cedar City,42923,42923,35470.0,0.0359867,City,41432,1188,36.132,37.6838,-113.095,23,49021,49021
Utah,American Fork,41881,41881,33550.0,0.0414273,City,40215,3690,11.35,40.3779,-111.795,24,49049,49049
Utah,Tooele,41412,41412,36039.0,0.0266505,City,40337,1717,24.114,40.5394,-112.308,25,49045,49045
Utah,Syracuse,40112,40112,32386.0,0.0400602,City,38567,3936,10.19,41.0858,-112.069,26,49011,49011
Utah,Kearns,38455,38455,36734.0,0.00902626,Township,38111,8302,4.632,40.6519,-112.009,27,49035,49035
Utah,Roy,38107,38107,39319.0,-0.00631046,City,38349,4676,8.149,41.1715,-112.048,28,49057,49057
Utah,Washington,37371,37371,28636.0,0.04904,City,35624,1034,36.125,37.1267,-113.488,29,49053,49053
Utah,Pleasant Grove,36998,36998,37738.0,-0.00398428,City,37146,4026,9.189,40.3715,-111.741,30,49049,49049
Utah,Clearfield,36174,36174,31913.0,0.0241209,City,35322,4700,7.696,41.097,-112.018,31,49011,49011
Utah,Springville,35562,35562,35334.0,0.00129519,City,35516,2474,14.375,40.1643,-111.62,32,49049,49049
Utah,Midvale,35191,35191,36116.0,-0.00522953,City,35376,5970,5.895,40.6147,-111.893,33,49035,49035
Utah,Kaysville,32887,32887,33022.0,-0.000820319,City,32914,3130,10.508,41.0293,-111.945,34,49011,49011
Utah,Cottonwood Heights,31328,31328,33518.0,-0.0137883,City,31766,3397,9.222,40.6137,-111.815,35,49035,49035
Utah,Magna,30637,30637,29261.0,0.00905737,Township,30362,1539,19.912,40.7595,-112.183,36,49045,49045
Utah,Holladay,29253,29253,31865.0,-0.0175315,City,29775,3439,8.506,40.6599,-111.823,37,49035,49035
Utah,West Haven,28562,28562,17192.0,0.0865033,City,26288,2649,10.781,41.2091,-112.054,38,49057,49057
Utah,Farmington,26567,26567,24577.0,0.0152088,City,26169,2670,9.951,40.9847,-111.906,39,49011,49011
Utah,Hurricane,26460,26460,20207.0,0.0496251,City,25209,502,52.744,37.1485,-113.359,40,49053,49053
Utah,Payson,25885,25885,21307.0,0.0366855,City,24969,1967,13.161,40.0359,-111.739,41,49049,49049
Utah,South Salt Lake,25728,25728,26713.0,-0.00759884,City,25925,3707,6.941,40.7057,-111.899,42,49035,49035
Utah,North Salt Lake,23874,23874,23088.0,0.00661972,City,23717,2764,8.637,40.8471,-111.919,43,49035,49035
Utah,Clinton,23670,23670,23465.0,0.00173516,City,23629,3990,5.932,41.1387,-112.066,44,49057,49057
Utah,North Ogden,23027,23027,21042.0,0.0175431,City,22630,3037,7.581,41.3146,-111.96,45,49057,49057
Utah,Highland,20775,20775,19380.0,0.0136124,City,20496,2392,8.684,40.4276,-111.796,46,49049,49049
Utah,Bluffdale,20240,20240,17364.0,0.0292398,City,19665,1821,11.112,40.4746,-111.94,47,49035,49035
Utah,Brigham City,20158,20158,19687.0,0.00468501,City,20064,820,24.579,41.5059,-112.051,48,49003,49003
Utah,Santaquin,19952,19952,13901.0,0.0645609,City,18742,1892,10.548,39.9699,-111.794,49,49049,49049
Utah,Heber,19568,19568,16980.0,0.0271916,City,19050,824,23.745,40.5417,-111.387,50,49051,49051
Utah,South Ogden,17800,17800,17495.0,0.00343875,City,17739,4564,3.9,41.1722,-111.958,51,49057,49057
Utah,Grantsville,16951,16951,12741.0,0.0522689,City,16109,425,39.881,40.6113,-112.469,52,49045,49045
Utah,Centerville,16274,16274,16881.0,-0.0073803,City,16395,2746,5.926,40.9263,-111.883,53,49011,49011
Utah,Vineyard,15561,15561,12908.0,0.0353293,Town,15030,3220,4.832,40.3051,-111.755,54,49049,49049
Utah,Smithfield,15424,15424,13678.0,0.0231509,City,15075,2568,6.007,41.8355,-111.828,55,49005,49005
Utah,Mapleton,15242,15242,11466.0,0.0521157,City,14487,1142,13.342,40.1188,-111.574,56,49049,49049
Utah,Tremonton,14039,14039,9968.0,0.0615501,City,13225,1687,8.324,41.7184,-112.188,57,49003,49003
Utah,West Point,13422,13422,11064.0,0.0364479,City,12950,1887,7.114,41.1217,-112.098,58,49011,49011
Utah,North Logan,12190,12190,10992.0,0.0200837,City,11950,1713,7.118,41.7755,-111.807,59,49005,49005
Utah,Lindon,11900,11900,11485.0,0.00702378,City,11817,1425,8.352,40.342,-111.717,60,49049,49049
Utah,Stansbury Park,11854,11854,9271.0,0.0392776,CDP,11406,4350,2.725,40.634,-112.306,61,49045,49045
Utah,Hyrum,11792,11792,9434.0,0.0416961,City,11320,1894,6.226,41.6328,-111.846,62,49005,49005
Utah,Salem,11617,11617,9386.0,0.0399248,City,11171,961,12.094,40.0553,-111.667,63,49049,49049
Utah,Woods Cross,11482,11482,11477.0,8.71e-05,City,11481,3000,3.827,40.8732,-111.918,64,49011,49011
Utah,Pleasant View,11385,11385,11085.0,0.00529801,City,11325,1631,6.979,41.3249,-112.001,65,49057,49057
Utah,Ivins,10886,10886,9081.0,0.0342993,City,10525,1152,9.45,37.1738,-113.681,66,49053,49053
Utah,Vernal,10868,10868,10090.0,0.0145631,City,10712,2351,4.623,40.4517,-109.538,67,49047,49047
Utah,Alpine,10318,10318,10268.0,0.00097012,City,10308,1298,7.949,40.463,-111.772,68,49049,49049
Utah,Providence,9922,9922,8284.0,0.034188,City,9594,2399,4.136,41.7036,-111.813,69,49005,49005
Utah,Cedar Hills,9664,9664,10003.0,-0.00698726,City,9732,3545,2.726,40.412,-111.754,70,49049,49049
Utah,Hooper,9541,9541,9111.0,0.00909572,City,9455,202,47.324,41.1626,-112.342,71,49003,49003
Utah,Santa Clara,9090,9090,7594.0,0.0340121,City,8791,1499,6.063,37.1314,-113.657,72,49053,49053
Utah,Riverdale,9012,9012,9381.0,-0.0081444,City,9086,1959,4.601,41.1731,-112.002,73,49057,49057
Utah,Plain City,8959,8959,7888.0,0.0244711,City,8745,741,12.084,41.3067,-112.094,74,49057,49057
Utah,Washington Terrace,8945,8945,9257.0,-0.00688354,City,9007,4413,2.027,41.1683,-111.978,75,49057,49057
Utah,Summit Park,8941,8941,8177.0,0.00868682,CDP,8864,662,13.513,40.7423,-111.587,76,49035,49035
Utah,Enoch,8905,8905,7482.0,0.0330626,City,8620,1112,8.005,37.7666,-113.045,77,49021,49021
Utah,Nibley,8893,8893,7338.0,0.0362386,City,8582,1969,4.516,41.673,-111.847,78,49005,49005
Utah,Richfield,8342,8342,8156.0,0.00445515,City,8305,1364,6.117,38.7613,-112.093,79,49041,49041
Utah,Price,8279,8279,8233.0,0.00108827,City,8270,1645,5.034,39.604,-110.8,80,49007,49007
Utah,South Weber,8195,8195,7970.0,0.00552147,City,8150,1759,4.658,41.1342,-111.939,81,49057,49057
Utah,Farr West,8193,8193,7762.0,0.0106081,City,8107,1384,5.92,41.3015,-112.032,82,49057,49057
Utah,Park City,8146,8146,8416.0,-0.00658537,City,8200,366,22.262,40.6573,-111.494,83,49051,49051
Utah,Nephi,7554,7554,6473.0,0.0294358,City,7338,1380,5.475,39.7047,-111.833,84,49023,49023
Utah,Roosevelt,7505,7505,6802.0,0.0191472,City,7364,1066,7.038,40.2877,-109.988,85,49013,49013
Utah,Harrisville,6645,6645,7037.0,-0.011602,City,6723,2217,2.997,41.2853,-111.986,86,49057,49057
Utah,Ephraim,6431,6431,5623.0,0.0258414,City,6269,1435,4.482,39.3562,-111.585,87,49039,49039
Utah,Perry,6167,6167,5589.0,0.0191704,City,6051,772,7.991,41.4645,-112.041,88,49003,49003
Utah,Midway,6094,6094,6048.0,0.00147905,City,6085,988,6.167,40.5202,-111.476,89,49051,49051
Utah,Hyde Park,5962,5962,5249.0,0.0245747,City,5819,1245,4.788,41.8011,-111.81,90,49005,49005
Utah,Fruit Heights,5848,5848,6102.0,-0.00864553,City,5899,2555,2.289,41.0289,-111.905,91,49011,49011
Utah,West Bountiful,5797,5797,5946.0,-0.00514845,City,5827,1751,3.311,40.9013,-111.908,92,49011,49011
Utah,White City,5777,5777,5524.0,0.00890674,Township,5726,6610,0.874,40.5687,-111.863,93,49035,49035
Utah,Snyderville,5759,5759,5995.0,0.00156522,CDP,5750,530,10.867,40.7041,-111.543,94,49051,49051
Utah,Kanab,5598,5598,4703.0,0.0330319,City,5419,380,14.741,37.0347,-112.53,95,49025,49025
Utah,Sunset,5283,5283,5470.0,-0.00695489,City,5320,3616,1.461,41.1381,-112.028,96,49057,49057
Utah,Moab,5127,5127,5361.0,-0.00908388,City,5174,1068,4.801,38.5701,-109.548,97,49019,49019
Utah,Elk Ridge,5053,5053,4732.0,0.0128282,City,4989,1728,2.924,40.0104,-111.678,98,49049,49049
Utah,Morgan,4824,4824,4104.0,0.0307692,City,4680,1626,2.966,41.0414,-111.68,99,49029,49029
Utah,La Verkin,4618,4618,4347.0,0.0118317,City,4564,338,13.644,37.2315,-113.251,100,49053,49053
Utah,East Basin,4558,4558,3486.0,0.0714622,CDP,4254,507,8.999,40.7368,-111.469,101,49051,49051
Utah,Erda,4347,4347,3071.0,0.514107,City,2871,108,40.12,40.6181,-112.309,102,49045,49045
Utah,Erda,4347,4347,3592.0,0.514107,City,2871,108,40.12,40.6181,-112.309,103,49045,49045
Utah,Erda,4347,4347,3071.0,0.0359867,City,4196,108,40.12,40.6181,-112.309,104,49045,49045
Utah,Erda,4347,4347,3592.0,0.0359867,City,4196,108,40.12,40.6181,-112.309,105,49045,49045
Utah,Wellsville,4260,4260,4094.0,0.00780695,City,4227,583,7.307,41.6234,-111.942,106,49005,49005
Utah,Maeser,4257,4257,4064.0,0.0102041,CDP,4214,658,6.466,40.4718,-109.579,107,49047,49047
Utah,Mount Pleasant,4008,4008,3665.0,0.0175171,City,3939,1370,2.926,39.5407,-111.456,108,49039,49039
Utah,Mountain Green,3980,3980,3694.0,0.0286896,CDP,3869,735,5.412,41.1477,-111.788,109,49057,49057
Utah,Delta,3786,3786,3640.0,0.00771892,City,3757,440,8.603,39.3633,-112.544,110,49023,49023
Utah,Manti,3777,3777,3446.0,0.017785,City,3711,1173,3.221,39.2665,-111.635,111,49039,49039
Utah,Beaver,3724,3724,3603.0,0.00648649,City,3700,553,6.735,38.2759,-112.638,112,49001,49001
Utah,Gunnison,3689,3689,3519.0,0.00930232,City,3655,770,4.79,39.1569,-111.814,113,49039,49039
Utah,Parowan,3289,3289,3018.0,0.0166924,City,3235,478,6.879,37.8326,-112.83,114,49021,49021
Utah,Richmond,3094,3094,2939.0,0.0101208,City,3063,888,3.484,41.9231,-111.808,115,49005,49005
Utah,Blanding,3056,3056,3388.0,-0.0211403,City,3122,232,13.175,37.6231,-109.513,116,49037,49037
Utah,Lake Point,2836,2836,2333.0,0.0369287,City,2735,620,4.574,40.6834,-112.266,117,49045,49045
Utah,Monroe,2797,2797,2516.0,0.0204305,City,2741,783,3.571,38.623,-112.12,118,49031,49031
Utah,Erda,2744,2744,3071.0,-0.0442355,City,2871,68,40.12,40.6181,-112.309,119,49045,49045
Utah,Erda,2744,2744,3592.0,-0.0442355,City,2871,68,40.12,40.6181,-112.309,120,49045,49045
Utah,Erda,2744,2744,3071.0,-0.346044,City,4196,68,40.12,40.6181,-112.309,121,49045,49045
Utah,Erda,2744,2744,3592.0,-0.346044,City,4196,68,40.12,40.6181,-112.309,122,49045,49045
Utah,Garland,2720,2720,2590.0,0.00965108,City,2694,1473,1.847,41.7363,-112.163,123,49003,49003
Utah,Fillmore,2709,2709,2614.0,0.0070632,City,2690,379,7.142,38.9642,-112.339,124,49041,49041
Utah,Salina,2672,2672,2472.0,0.0151976,City,2632,456,5.854,38.9388,-111.865,125,49041,49041
Utah,Naples,2586,2586,2286.0,0.023753,City,2526,392,6.601,40.4317,-109.491,126,49047,49047
Utah,Millville,2545,2545,2352.0,0.0155626,City,2506,999,2.548,41.6852,-111.821,127,49005,49005
Utah,Willard,2476,2476,1993.0,0.0407734,City,2379,445,5.568,41.4032,-112.043,128,49057,49057
Utah,Enterprise,2445,2445,2055.0,0.0329531,City,2367,279,8.75,37.5716,-113.743,129,49053,49053
Utah,Marriott-Slaterville,2273,2273,2147.0,0.011121,City,2248,308,7.388,41.2611,-112.036,130,49057,49057
Utah,River Heights,2193,2193,2160.0,0.0032022,City,2186,3323,0.66,41.7221,-111.819,131,49005,49005
Utah,Kamas,2167,2167,2112.0,0.00510204,City,2156,555,3.901,40.65,-111.273,132,49051,49051
Utah,Helper,2126,2126,2126.0,0.0,City,2126,1175,1.809,39.6896,-110.86,133,49007,49007
Utah,Mona,2057,2057,1751.0,0.0305611,City,1996,772,2.665,39.8118,-111.842,134,49023,49023
Utah,Toquerville,2026,2026,1885.0,0.014014,City,1998,91,22.19,37.2665,-113.295,135,49053,49053
Utah,Huntington,2022,2022,1921.0,0.00999001,City,2002,895,2.26,39.3301,-110.963,136,49015,49015
Utah,Lewiston,1972,1972,1937.0,0.00356234,City,1965,77,25.753,41.9685,-111.886,137,49005,49005
Utah,Francis,1947,1947,1601.0,0.0367412,Town,1878,505,3.855,40.6125,-111.282,138,49051,49051
Utah,Benson,1899,1899,1793.0,0.0149653,CDP,1871,63,30.116,41.7529,-111.926,139,49005,49005
Utah,Panguitch,1840,1840,1732.0,0.0121012,City,1818,572,3.219,37.8228,-112.434,140,49001,49001
Utah,Honeyville,1816,1816,1616.0,0.0225225,City,1776,155,11.727,41.6361,-112.086,141,49003,49003
Utah,Wolf Creek,1718,1718,2027.0,0.0147667,CDP,1693,544,3.16,41.3253,-111.829,142,49057,49057
Utah,Moroni,1702,1702,1552.0,0.0179426,City,1672,1598,1.065,39.527,-111.583,143,49039,49039
Utah,Hideout,1686,1686,965.0,0.0933852,Town,1542,409,4.122,40.646,-111.406,144,49051,49051
Utah,Duchesne,1678,1678,1590.0,0.0108434,City,1660,602,2.786,40.1753,-110.394,145,49013,49013
Utah,Monticello,1669,1669,1818.0,-0.0176574,City,1699,498,3.351,37.8685,-109.336,146,49037,49037
Utah,Genola,1649,1649,1551.0,0.0122775,Town,1629,120,13.755,40.012,-111.848,147,49049,49049
Utah,Wellington,1638,1638,1618.0,0.00244798,City,1634,320,5.113,39.5359,-110.734,148,49007,49007
Utah,Woodland Hills,1595,1595,1535.0,0.00758054,City,1583,621,2.568,40.0134,-111.656,149,49049,49049
Utah,East Carbon,1571,1571,1560.0,0.0012747,City,1569,139,11.29,39.533,-110.429,150,49007,49007
Utah,Castle Dale,1568,1568,1493.0,0.00965873,City,1553,693,2.263,39.2217,-111.023,151,49015,49015
Utah,Coalville,1561,1561,1490.0,0.00904977,City,1547,253,6.172,40.9073,-111.421,152,49029,49029
Utah,Oakley,1546,1546,1595.0,-0.00642673,City,1556,219,7.068,40.7405,-111.274,153,49043,49043
Utah,Ferron,1545,1545,1480.0,0.00848564,City,1532,656,2.356,39.0916,-111.134,154,49015,49015
Utah,South Willard,1542,1542,1519.0,-0.00129534,CDP,1544,265,5.829,41.3583,-112.041,155,49057,49057
Utah,Emigration Canyon,1533,1533,1465.0,0.00921659,Township,1519,84,18.222,40.7886,-111.741,156,49035,49035
Utah,Centerfield,1470,1470,1342.0,0.0180055,Town,1444,770,1.908,39.1275,-111.818,157,49039,49039
Utah,Mantua,1435,1435,1105.0,0.0482104,Town,1369,294,4.877,41.498,-111.936,158,49057,49057
Utah,Riverside,1414,1414,1010.0,0.0321168,CDP,1370,211,6.694,41.8106,-112.14,159,49003,49003
Utah,Milford,1402,1402,1427.0,-0.00355366,City,1407,655,2.141,38.3945,-113.012,160,49001,49001
Utah,Uintah,1366,1366,1455.0,-0.0130058,Town,1384,1087,1.257,41.1414,-111.932,161,49057,49057
Utah,Elwood,1346,1346,1181.0,0.0251333,Town,1313,157,8.554,41.6732,-112.137,162,49003,49003
Utah,Lake Shore,1339,1339,1020.0,0.0260536,CDP,1305,195,6.859,40.1294,-111.736,163,49049,49049
Utah,Mendon,1330,1330,1339.0,-0.0015015,City,1332,844,1.575,41.7115,-111.978,164,49005,49005
Utah,Fairview,1329,1329,1209.0,0.0183908,City,1305,1055,1.26,39.63,-111.437,165,49039,49039
Utah,Fountain Green,1325,1325,1202.0,0.0192308,City,1300,1062,1.248,39.6281,-111.641,166,49039,49039
Utah,Carbonville,1316,1316,1170.0,-0.012012,CDP,1332,236,5.586,39.6269,-110.833,167,49007,49007
Utah,Ballard,1300,1300,1127.0,0.027668,Town,1265,93,13.952,40.2949,-109.949,168,49047,49047
Utah,Hildale,1298,1298,1150.0,0.0236593,City,1268,143,9.053,37.0154,-113.0,169,49053,49053
Utah,West Mountain,1287,1287,1370.0,0.00546875,CDP,1280,122,10.564,40.0518,-111.783,170,49049,49049
Utah,Orangeville,1284,1284,1229.0,0.008641,City,1273,900,1.427,39.2308,-111.059,171,49015,49015
Utah,Silver Summit,1221,1221,1256.0,-0.116498,CDP,1382,109,11.238,40.7489,-111.514,172,49029,49029
Utah,Liberty,1206,1206,971.0,-0.00248139,CDP,1209,206,5.85,41.3425,-111.865,173,49057,49057
Utah,Wendover,1140,1140,1120.0,0.00352113,City,1136,128,8.928,40.724,-114.025,174,49045,49045
Utah,Rocky Ridge,1134,1134,844.0,0.0539033,Town,1076,662,1.714,39.9197,-111.826,175,49049,49049
Utah,Thatcher,1123,1123,684.0,0.0209091,CDP,1100,94,11.971,41.6815,-112.32,176,49003,49003
Utah,Aurora,1068,1068,992.0,0.014245,City,1053,1153,0.926,38.9201,-111.934,177,49041,49041
Utah,Paradise,1060,1060,979.0,0.0153257,Town,1044,731,1.451,41.5682,-111.833,178,49005,49005
Utah,Spring Glen,1056,1056,1126.0,-0.00471254,CDP,1061,311,3.398,39.656,-110.846,179,49007,49007
Utah,Spring City,1047,1047,947.0,0.0194742,City,1027,744,1.408,39.4799,-111.492,180,49039,49039
Utah,West Wood,998,998,864.0,0.0101215,CDP,988,937,1.065,39.6052,-110.842,181,49007,49007
Utah,Central,974,974,940.0,0.0252632,CDP,950,387,2.517,37.415,-113.626,182,49053,49053
Utah,Goshen,962,962,976.0,-0.00310881,Town,965,1165,0.826,39.9511,-111.901,183,49023,49023
Utah,Eden,956,956,828.0,0.0257511,CDP,932,228,4.201,41.3062,-111.804,184,49057,49057
Utah,Apple Valley,951,951,863.0,0.0192926,Town,933,24,39.717,37.081,-113.103,185,49053,49053
Utah,Levan,933,933,867.0,0.0141304,Town,920,1156,0.807,39.5562,-111.861,186,49023,49023
Utah,Corinne,903,903,823.0,0.0180383,City,887,239,3.786,41.5515,-112.125,187,49003,49003
Utah,Annabella,901,901,840.0,0.0134983,Town,889,1382,0.652,38.706,-112.059,188,49041,49041
Utah,Green River,901,901,850.0,0.0112233,City,891,33,27.152,38.9935,-110.173,189,49019,49019
Utah,Elsinore,898,898,832.0,0.0146893,Town,885,341,2.636,38.6838,-112.14,190,49031,49031
Utah,Bear River City,886,886,878.0,0.00226244,City,884,493,1.797,41.6124,-112.125,191,49003,49003
Utah,Minersville,871,871,811.0,0.0139697,Town,859,400,2.175,38.248,-112.979,192,49001,49001
Utah,Copperton,868,868,828.0,0.00930232,Township,860,2782,0.312,40.5661,-112.098,193,49045,49045
Utah,Leeds,863,863,865.0,0.0,Town,863,137,6.295,37.2372,-113.347,194,49053,49053
Utah,Newton,854,854,791.0,0.0154578,Town,841,993,0.86,41.8612,-111.991,195,49005,49005
Utah,Escalante,849,849,793.0,0.0131265,City,838,257,3.3,37.7649,-111.598,196,49017,49017
Utah,Redmond,826,826,768.0,0.014742,Town,814,882,0.936,39.0053,-111.867,197,49041,49041
Utah,Dammeron Valley,820,820,738.0,0.001221,CDP,819,168,4.889,37.3042,-113.666,198,49053,49053
Utah,Daniel,817,817,917.0,-0.0238949,Town,837,248,3.289,40.4667,-111.41,199,49051,49051
Utah,Enterprise,814,814,844.0,0.0175,CDP,800,215,3.778,41.107,-111.731,200,49029,49029
Utah,Hoytsville,810,810,524.0,0.0175879,CDP,796,180,4.508,40.8758,-111.385,201,49029,49029
Utah,Henefer,799,799,838.0,-0.00991326,Town,807,324,2.466,41.0138,-111.493,202,49029,49029
Utah,Garden City,788,788,600.0,0.0506667,Town,750,90,8.779,41.9371,-111.412,203,49033,49033
Utah,Benjamin,774,774,886.0,-0.0300752,CDP,798,91,8.544,40.0969,-111.729,204,49049,49049
Utah,Clarkston,758,758,755.0,0.001321,Town,757,818,0.927,41.9205,-112.05,205,49005,49005
Utah,Oljato-Monument Valley,743,743,758.0,0.00677507,CDP,738,26,29.035,37.0307,-110.251,206,49037,49037
Utah,Navajo Mountain,740,740,453.0,0.0364146,CDP,714,22,33.362,37.047,-110.79,207,49017,49017
Utah,Timber Lakes,736,736,824.0,0.0123796,CDP,727,83,8.842,40.475,-111.256,208,49051,49051
Utah,Virgin,722,722,669.0,0.0154712,Town,711,61,11.808,37.1947,-113.206,209,49053,49053
Utah,Central Valley,698,698,650.0,0.0145349,Town,688,331,2.107,38.6993,-112.097,210,49041,49041
Utah,Fielding,666,666,556.0,0.0341615,Town,644,1266,0.526,41.8124,-112.117,211,49005,49005
Utah,Eureka,664,664,659.0,0.00150829,City,663,458,1.449,39.9587,-112.115,212,49023,49023
Utah,Hinckley,660,660,617.0,0.0138249,Town,651,132,5.007,39.3336,-112.673,213,49027,49027
Utah,Oak City,649,649,613.0,0.0109034,Town,642,557,1.165,39.3747,-112.338,214,49023,49023
Utah,Springdale,634,634,521.0,0.0376432,Town,611,138,4.596,37.1817,-113.005,215,49053,49053
Utah,Palmyra,630,630,551.0,0.016129,CDP,620,95,6.649,40.1342,-111.693,216,49049,49049
Utah,Stockton,627,627,619.0,0.0032,Town,625,372,1.684,40.4441,-112.374,217,49045,49045
Utah,Mayfield,617,617,559.0,0.0198347,Town,605,686,0.899,39.1193,-111.708,218,49039,49039
Utah,Huntsville,609,609,574.0,0.0116279,Town,602,637,0.956,41.2598,-111.771,219,49057,49057
Utah,Marion,600,600,721.0,-0.00990099,CDP,606,125,4.79,40.681,-111.277,220,49051,49051
Utah,Orderville,588,588,595.0,-0.00169779,Town,589,67,8.717,37.254,-112.657,221,49025,49025
Utah,Avon,582,582,368.0,0.0246479,CDP,568,82,7.099,41.5353,-111.812,222,49005,49005
Utah,Paragonah,575,575,542.0,0.0123239,Town,568,831,0.692,37.8854,-112.771,223,49001,49001
Utah,Myton,564,564,561.0,0.0017762,City,563,557,1.013,40.1933,-110.063,224,49013,49013
Utah,Big Water,562,562,447.0,0.0426716,Town,539,94,5.992,37.0729,-111.661,225,49025,49025
Utah,Circleville,561,561,550.0,0.00357782,Town,559,51,11.051,38.1684,-112.272,226,49031,49031
Utah,Spanish Valley,558,558,472.0,0.00722022,CDP,554,39,14.201,38.4743,-109.421,227,49019,49019
Utah,Trenton,535,535,515.0,0.00753296,Town,531,65,8.209,41.9139,-111.936,228,49005,49005
Utah,Spring Lake,532,532,470.0,0.00948767,CDP,527,325,1.638,40.0085,-111.751,229,49049,49049
Utah,Tropic,526,526,491.0,0.0134875,Town,519,67,7.906,37.6331,-112.088,230,49025,49025
Utah,Cleveland,522,522,499.0,0.00967118,Town,517,603,0.865,39.3495,-110.855,231,49015,49015
Utah,Rush Valley,522,522,432.0,0.0357143,Town,504,29,18.08,40.3613,-112.451,232,49045,49045
Utah,Amalga,520,520,487.0,0.0136452,Town,513,151,3.448,41.8563,-111.897,233,49005,49005
Utah,Marysvale,517,517,359.0,0.0659794,Town,485,29,17.968,38.4366,-112.262,234,49031,49031
Utah,Kanosh,515,515,509.0,0.00194552,Town,514,667,0.772,38.8014,-112.437,235,49031,49031
Utah,Loa,512,512,517.0,-0.00194932,Town,513,539,0.95,38.4038,-111.645,236,49055,49055
Utah,Glenwood,505,505,465.0,0.0160966,Town,497,971,0.52,38.7624,-111.988,237,49041,49041
Utah,Woodland,503,503,199.0,0.0223577,CDP,492,243,2.07,40.5838,-111.236,238,49051,49051
Utah,Kanarraville,497,497,446.0,0.0205339,Town,487,1117,0.445,37.5378,-113.181,239,49021,49021
Utah,Randolph,491,491,470.0,0.00821355,Town,487,382,1.285,41.6655,-111.185,240,49033,49033
Utah,Cove,479,479,492.0,0.00209205,CDP,478,33,14.707,41.9683,-111.779,241,49005,49005
Utah,Neola,472,472,447.0,0.0,CDP,472,125,3.772,40.4348,-110.031,242,49013,49013
Utah,Holden,467,467,457.0,0.00430107,Town,465,797,0.586,39.1001,-112.27,243,49041,49041
Utah,Brighton,455,455,434.0,0.00886918,Town,451,29,15.766,40.6107,-111.604,244,49051,49051
Utah,Deseret,446,446,249.0,0.0159453,CDP,439,145,3.069,39.2876,-112.651,245,49027,49027
Utah,Plymouth,446,446,426.0,0.00904977,Town,442,511,0.872,41.8736,-112.147,246,49005,49005
Utah,Deweyville,444,444,419.0,0.0113895,Town,439,70,6.371,41.693,-112.088,247,49003,49003
Utah,Sigurd,441,441,406.0,0.016129,Town,434,413,1.069,38.8662,-111.963,248,49041,49041
Utah,Elmo,427,427,406.0,0.00945626,Town,423,606,0.705,39.3877,-110.816,249,49015,49015
Utah,Cedar Fort,411,411,426.0,-0.00724638,Town,414,19,21.349,40.3414,-112.109,250,49045,49045
Utah,Fort Duchesne,411,411,465.0,-0.0486111,CDP,432,58,7.133,40.2818,-109.877,251,49047,49047
Utah,Granite,396,396,800.0,-0.204819,CDP,498,372,1.064,40.5757,-111.791,252,49035,49035
Utah,Charleston,393,393,437.0,-0.0223881,Town,402,137,2.865,40.4673,-111.459,253,49051,49051
Utah,Scipio,378,378,355.0,0.0134048,Town,373,365,1.037,39.2491,-112.104,254,49023,49023
Utah,Wales,376,376,341.0,0.0189702,Town,369,949,0.396,39.4852,-111.636,255,49039,49039
Utah,Castle Valley,371,371,348.0,0.0136612,Town,366,42,8.79,38.6321,-109.396,256,49019,49019
Utah,Newcastle,357,357,326.0,0.02,CDP,350,90,3.978,37.6629,-113.564,257,49021,49021
Utah,Meadow,356,356,335.0,0.0113636,Town,352,695,0.512,38.8862,-112.407,258,49031,49031
Utah,Veyo,356,356,314.0,-0.021978,CDP,364,172,2.066,37.3375,-113.693,259,49053,49053
Utah,Bryce Canyon City,344,344,326.0,0.0117647,Town,340,103,3.353,37.682,-112.162,260,49025,49025
Utah,Manila,343,343,315.0,0.0178042,Town,337,331,1.035,40.9922,-109.721,261,49009,49009
Utah,Pine Valley,341,341,122.0,0.0302115,CDP,331,100,3.423,37.3904,-113.506,262,49053,49053
Utah,Bicknell,328,328,327.0,0.0,Town,328,572,0.573,38.3407,-111.544,263,49055,49055
Utah,Glendale,328,328,308.0,0.0123457,Town,324,47,6.996,37.3342,-112.604,264,49025,49025
Utah,Elberta,326,326,318.0,0.0155763,CDP,321,294,1.109,39.9558,-111.957,265,49023,49023
Utah,Emery,323,323,308.0,0.009375,Town,320,263,1.227,38.9252,-111.252,266,49015,49015
Utah,Jensen,319,319,299.0,-0.0214724,CDP,326,99,3.23,40.3695,-109.356,267,49047,49047
Utah,Joseph,315,315,289.0,0.016129,Town,310,362,0.869,38.6248,-112.22,268,49031,49031
Utah,Vernon,315,315,260.0,0.0361842,Town,304,39,8.06,40.0956,-112.446,269,49023,49023
Utah,Laketown,311,311,301.0,0.00647249,Town,309,124,2.509,41.8293,-111.333,270,49033,49033
Utah,Koosharem,307,307,314.0,-0.00324675,Town,308,368,0.835,38.5134,-111.882,271,49041,49041
Utah,Sterling,307,307,276.0,0.0199336,Town,301,950,0.323,39.1933,-111.69,272,49039,49039
Utah,Aneth,302,302,459.0,-0.0443038,CDP,316,27,11.028,37.2065,-109.165,273,49037,49037
Utah,Wanship,300,300,481.0,-0.0228013,CDP,307,59,5.052,40.8168,-111.415,274,49029,49029
Utah,Wallsburg,298,298,292.0,0.003367,Town,297,478,0.624,40.3869,-111.419,275,49051,49051
Utah,Portage,297,297,277.0,0.0136519,Town,293,116,2.557,41.9756,-112.241,276,49003,49003
Utah,Dugway,294,294,618.0,-0.100917,CDP,327,56,5.21,40.2307,-112.754,277,49045,49045
Utah,Cornish,285,285,277.0,0.00706714,Town,283,53,5.391,41.9672,-111.959,278,49005,49005
Utah,Hobble Creek,282,282,174.0,0.0681818,CDP,264,132,2.142,40.1917,-111.497,279,49049,49049
Utah,Leamington,281,281,263.0,0.0144404,Town,277,180,1.565,39.5313,-112.285,280,49023,49023
Utah,Fayette,269,269,248.0,0.0150943,Town,265,681,0.395,39.2246,-111.854,281,49039,49039
Utah,Torrey,268,268,240.0,0.0229008,Town,262,156,1.717,38.3073,-111.427,282,49055,49055
Utah,Peter,264,264,394.0,-0.0149254,CDP,268,12,21.383,41.7774,-112.001,283,49005,49005
Utah,Montezuma Creek,256,256,324.0,-0.0229008,CDP,262,21,11.953,37.2515,-109.304,284,49037,49037
Utah,Altamont,255,255,239.0,0.0119048,Town,252,1203,0.212,40.359,-110.288,285,49013,49013
Utah,Halchita,253,253,222.0,-0.00393701,CDP,254,15,17.113,37.1506,-109.904,286,49037,49037
Utah,Boulder,252,252,229.0,0.0202429,Town,247,12,20.945,37.9228,-111.432,287,49017,49017
Utah,New Harmony,252,252,239.0,0.0120482,Town,249,396,0.636,37.48,-113.309,288,49021,49021
Utah,Summit,252,252,252.0,0.0243902,CDP,246,371,0.679,37.8053,-112.933,289,49021,49021
Utah,Bluff,246,246,243.0,0.00408163,Town,245,7,36.637,37.2903,-109.596,290,49037,49037
Utah,La Sal,239,239,255.0,-0.0401606,CDP,249,5,47.564,38.3011,-109.266,291,49019,49019
Utah,Henrieville,237,237,222.0,0.0128205,Town,234,178,1.335,37.5639,-112.002,292,49025,49025
Utah,Howell,230,230,235.0,-0.004329,Town,231,7,35.261,41.7787,-112.448,293,49003,49003
Utah,Bluebell,229,229,332.0,-0.0213675,CDP,234,24,9.742,40.3514,-110.224,294,49013,49013
Utah,Alta,224,224,229.0,-0.00444444,Town,225,50,4.516,40.5824,-111.62,295,49051,49051
Utah,Teasdale,223,223,194.0,0.00904977,CDP,221,56,4.012,38.2851,-111.472,296,49055,49055
Utah,Lyman,222,222,202.0,0.0183486,Town,218,123,1.806,38.3966,-111.589,297,49055,49055
Utah,Rockville,221,221,225.0,-0.0045045,Town,222,26,8.462,37.1478,-113.055,298,49053,49053
Utah,Junction,216,216,211.0,0.00465116,Town,215,16,13.185,38.2361,-112.225,299,49031,49031
Utah,Cannonville,199,199,184.0,0.0153061,Town,196,55,3.617,37.5548,-112.054,300,49025,49025
Utah,Sutherland,190,190,38.0,0.0106383,CDP,188,88,2.171,39.3896,-112.64,301,49023,49023
Utah,Hanksville,177,177,159.0,0.0231214,Town,173,105,1.685,38.372,-110.713,302,49015,49015
Utah,Woodruff,175,175,169.0,0.00574713,Town,174,244,0.716,41.5212,-111.164,303,49033,49033
Utah,Clawson,169,169,161.0,0.011976,Town,167,169,1.001,39.1314,-111.099,304,49015,49015
Utah,Whiterocks,167,167,305.0,-0.0457143,CDP,175,71,2.354,40.4721,-109.941,305,49047,49047
Utah,Brian Head,163,163,147.0,0.01875,Town,160,45,3.65,37.6977,-112.842,306,49021,49021
Utah,Tabiona,159,159,149.0,0.0127389,Town,157,1325,0.12,40.3542,-110.71,307,49013,49013
Utah,Snowville,158,158,162.0,-0.00628931,Town,159,102,1.553,41.9728,-112.716,308,49003,49003
Utah,Fairfield,153,153,162.0,-0.0129032,Town,155,6,26.083,40.236,-112.075,309,49045,49045
Utah,Dutch John,149,149,141.0,0.0136054,Town,147,25,5.899,40.9271,-109.403,310,49009,49009
Utah,Interlaken,144,144,178.0,-0.0463576,Town,151,634,0.227,40.5412,-111.475,311,49051,49051
Utah,Hatch,142,142,131.0,0.0142857,Town,140,77,1.841,37.6492,-112.435,312,49025,49025
Utah,Kingston,137,137,136.0,0.0,Town,137,26,5.362,38.2067,-112.179,313,49031,49031
Utah,Cache,131,131,120.0,0.0737705,CDP,122,23,5.751,41.8287,-112.006,314,49005,49005
Utah,Lynndyl,131,131,116.0,0.0234375,Town,128,41,3.171,39.5086,-112.393,315,49023,49023
Utah,Antimony,129,129,119.0,0.015748,Town,127,13,9.848,38.103,-111.982,316,49031,49031
Utah,Alton,117,117,119.0,0.0,Town,117,51,2.291,37.4265,-112.51,317,49025,49025
Utah,Garden,109,109,247.0,-0.0353982,CDP,113,4,26.528,41.8743,-111.417,318,49033,49033
Utah,Independence,102,102,126.0,-0.046729,Town,107,3,30.623,40.4108,-111.296,319,49051,49051
Utah,Echo,99,99,44.0,0.076087,CDP,92,121,0.818,40.9803,-111.439,320,49029,49029
Utah,Flaming Gorge,86,86,81.0,0.075,CDP,80,38,2.281,40.8891,-109.476,321,49009,49009
Utah,Tselakai Dezza,84,84,51.0,-0.0232558,CDP,86,4,19.98,37.21,-109.609,322,49037,49037
Utah,Samak,81,81,98.0,-0.138298,CDP,94,33,2.467,40.6389,-111.241,323,49051,49051
Utah,Kenilworth,74,74,119.0,-0.0864198,CDP,81,98,0.752,39.6803,-110.815,324,49007,49007
Utah,Lapoint,60,60,162.0,0.0714286,CDP,56,91,0.657,40.4042,-109.797,325,49047,49047
Utah,Sundance,59,59,28.0,0.0727273,CDP,55,42,1.414,40.3927,-111.591,326,49049,49049
Utah,Ophir,51,51,65.0,0.0625,CDP,48,398,0.128,40.3701,-112.256,327,49045,49045
Utah,Peoa,46,46,183.0,-0.220339,CDP,59,13,3.49,40.7326,-111.329,328,49051,49051
Utah,Oasis,38,38,29.0,0.0857143,CDP,35,99,0.382,39.2923,-112.629,329,49027,49027
Utah,Clear Creek,30,30,49.0,0.0714286,CDP,28,147,0.204,39.6433,-111.155,330,49039,49039
Utah,Mexican Hat,27,27,,0.0384615,CDP,26,3,8.213,37.1743,-109.884,331,49037,49037
Utah,Scofield,27,27,26.0,0.0,Town,27,29,0.922,39.7198,-111.162,332,49007,49007
Utah,Cedar Highlands,24,24,,0.0909091,CDP,22,26,0.935,37.6358,-113.041,333,49021,49021
Utah,Fremont,23,23,102.0,-0.258065,CDP,31,13,1.752,38.4554,-111.615,334,49055,49055
Utah,Randlett,23,23,104.0,-0.361111,CDP,36,4,5.223,40.2267,-109.831,335,49047,49047
Utah,White Mesa,15,15,138.0,-0.5,CDP,30,1,15.648,37.4596,-109.46,336,49037,49037
