state,city,population,pop2025,pop2020,growth,type,pop2024,densityMi,areaMi,lat,lng,rank,fips_code,geo_id
Wisconsin,Milwaukee,550837,550837,577207,-0.00948372,City,556111,5728,96.173,43.0633,-87.9667,1,55079,55079
Wisconsin,Madison,283705,283705,275204,0.00602826,City,282005,3415,83.088,43.0878,-89.4299,2,55025,55025
Wisconsin,Green Bay,104726,104726,107271,-0.00483679,City,105235,2303,45.479,44.5215,-87.9866,3,55009,55009
Wisconsin,Kenosha,97079,97079,99909,-0.00579651,City,97645,3389,28.643,42.5875,-87.88,4,55059,55059
Wisconsin,Racine,75875,75875,77692,-0.0047614,City,76238,4904,15.472,42.7256,-87.8142,5,55101,55101
Wisconsin,Appleton,74061,74061,75705,-0.00442264,City,74390,2924,25.329,44.2789,-88.3883,6,55087,55087
Wisconsin,Eau Claire,71230,71230,69510,0.00485286,City,70886,2075,34.327,44.8183,-91.4948,7,55035,55035
Wisconsin,Waukesha,69954,69954,71183,-0.00350427,City,70200,2741,25.523,43.0091,-88.2451,8,55133,55133
Wisconsin,Janesville,66390,66390,65670,0.00217372,City,66246,1929,34.424,42.6847,-89.0132,9,55105,55105
Wisconsin,Oshkosh,65790,65790,66774,-0.00298544,City,65987,2430,27.071,44.0232,-88.5623,10,55139,55139
Wisconsin,West Allis,57952,57952,60257,-0.00789208,City,58413,5092,11.381,43.0072,-88.029,11,55079,55079
Wisconsin,La Crosse,50429,50429,52673,-0.00882503,City,50878,2323,21.711,43.8247,-91.2246,12,55063,55063
Wisconsin,Sheboygan,49532,49532,49916,-0.00155214,City,49609,3099,15.984,43.7387,-87.7315,13,55117,55117
Wisconsin,Wauwatosa,46177,46177,48329,-0.00922608,City,46607,3491,13.227,43.0632,-88.0356,14,55079,55079
Wisconsin,Fond Lac,44026,44026,44711,-0.00310214,City,44163,2289,19.237,43.7722,-88.4403,15,55139,55139
Wisconsin,Brookfield,42151,42151,41483,0.00318918,City,42017,1543,27.322,43.0643,-88.1178,16,55133,55133
Wisconsin,Menomonee Falls,40438,40438,38593,0.00920911,Village,40069,1229,32.895,43.1594,-88.1216,17,55133,55133
Wisconsin,New Berlin,40112,40112,40482,-0.00184144,City,40186,1101,36.426,42.972,-88.1292,18,55133,55133
Wisconsin,Wausau,39928,39928,40027,-0.00050065,City,39948,2077,19.228,44.9618,-89.6465,19,55073,55073
Wisconsin,Sun Prairie,39101,39101,36073,0.0157423,City,38495,2986,13.094,43.1826,-89.2378,20,55025,55025
Wisconsin,Oak Creek,37593,37593,36500,0.00585969,City,37374,1322,28.447,42.8787,-87.8987,21,55079,55079
Wisconsin,Greenfield,36360,36360,37749,-0.00758775,City,36638,3153,11.532,42.9606,-88.0057,22,55079,55079
Wisconsin,Beloit,36118,36118,36677,-0.00309136,City,36230,2083,17.339,42.5235,-89.0177,23,55105,55105
Wisconsin,Franklin,35045,35045,36144,-0.00623848,City,35265,1014,34.575,42.8839,-88.0116,24,55079,55079
Wisconsin,Manitowoc,34524,34524,34633,-0.000636832,City,34546,1923,17.949,44.098,-87.6789,25,55117,55117
Wisconsin,Fitchburg,33142,33142,30996,0.0131141,City,32713,941,35.212,42.9858,-89.4253,26,55025,55025
Wisconsin,West Bend,32006,32006,31706,0.00187817,City,31946,2055,15.574,43.4175,-88.1817,27,55133,55133
Wisconsin,Mount Pleasant,27735,27735,27714,0.000144242,Village,27731,819,33.884,42.7088,-87.8849,28,55101,55101
Wisconsin,Neenah,27506,27506,27373,0.000982568,City,27479,2892,9.512,44.1649,-88.4796,29,55087,55087
Wisconsin,Superior,26193,26193,26767,-0.00437129,City,26308,715,36.622,46.6921,-92.0804,30,55035,55035
Wisconsin,Stevens Point,25789,25789,25696,0.000737291,City,25770,1491,17.302,44.5253,-89.5504,31,55073,55073
Wisconsin,Mequon,25681,25681,25201,0.0037522,City,25585,555,46.283,43.2114,-88.0142,32,55079,55079
Wisconsin,Muskego,25464,25464,25084,0.00299354,City,25388,806,31.601,42.8714,-88.1343,33,55133,55133
Wisconsin,Caledonia,25320,25320,25335,-0.000118469,Village,25323,560,45.198,42.7974,-87.8774,34,55101,55101
Wisconsin,De Pere,25290,25290,25435,-0.00114538,City,25319,2115,11.956,44.431,-88.0799,35,55009,55009
Wisconsin,Middleton,23705,23705,21859,0.0158125,City,23336,2521,9.402,43.107,-89.5063,36,55025,55025
Wisconsin,Watertown,22530,22530,22935,-0.00358233,City,22611,1868,12.064,43.1894,-88.7289,37,55133,55133
Wisconsin,Pleasant Prairie,22138,22138,21338,0.00728001,Village,21978,663,33.376,42.5267,-87.8883,38,55059,55059
Wisconsin,Howard,21287,21287,20006,0.0121725,Village,21031,1154,18.449,44.5686,-88.0717,39,55009,55009
Wisconsin,Germantown,21112,21112,20882,0.00218361,Village,21066,614,34.381,43.2345,-88.125,40,55133,55133
Wisconsin,South Milwaukee,19835,19835,20775,-0.0093892,City,20023,4110,4.826,42.9126,-87.8623,41,55079,55079
Wisconsin,Onalaska,19118,19118,18868,0.00262219,City,19068,1802,10.612,43.8897,-91.2044,42,55063,55063
Wisconsin,Oconomowoc,18973,18973,18245,0.00775482,City,18827,1613,11.762,43.1004,-88.4927,43,55133,55133
Wisconsin,Fox Crossing,18905,18905,19010,-0.00110958,Village,18926,1496,12.641,44.2236,-88.4791,44,55087,55087
Wisconsin,Marshfield,18600,18600,18940,-0.0036426,City,18668,1348,13.801,44.6633,-90.1717,45,55073,55073
Wisconsin,Wisconsin Rapids,18532,18532,18877,-0.00370948,City,18601,1334,13.894,44.3929,-89.8268,46,55073,55073
Wisconsin,Menasha,17943,17943,18257,-0.00349883,City,18006,2969,6.044,44.2123,-88.4274,47,55087,55087
Wisconsin,Kaukauna,17746,17746,17113,0.00720813,City,17619,2215,8.01,44.2768,-88.2639,48,55087,55087
Wisconsin,Cudahy,17390,17390,18180,-0.00900387,City,17548,3643,4.774,42.9467,-87.864,49,55079,55079
Wisconsin,River Falls,17373,17373,16277,0.0127667,City,17154,2397,7.247,44.8604,-92.6253,50,55035,55035
Wisconsin,Bellevue,17240,17240,15964,0.0150132,Village,16985,1194,14.441,44.4608,-87.9559,51,55009,55009
Wisconsin,Ashwaubenon,16996,16996,16970,0.000294273,Village,16991,1372,12.384,44.4794,-88.0875,52,55009,55009
Wisconsin,Verona,16961,16961,14096,0.0349646,City,16388,2170,7.817,42.9901,-89.5389,53,55025,55025
Wisconsin,Pewaukee,16531,16531,15936,0.00725079,City,16412,846,19.544,43.0661,-88.2445,54,55133,55133
Wisconsin,Menomonie,16509,16509,16841,-0.0039819,City,16575,1204,13.709,44.8892,-91.9096,55,55035,55035
Wisconsin,Beaver Dam,16413,16413,16707,-0.00358183,City,16472,2211,7.424,43.4681,-88.8309,56,55139,55139
Wisconsin,Weston,16125,16125,15734,0.00486072,Village,16047,746,21.617,44.8912,-89.5497,57,55073,55073
Wisconsin,Hartford,16023,16023,15700,0.00407319,City,15958,1790,8.953,43.3225,-88.3777,58,55133,55133
Wisconsin,Hudson,15939,15939,14773,0.0148351,City,15706,2339,6.814,44.9639,-92.7303,59,55035,55035
Wisconsin,Harrison,15911,15911,12443,0.0456069,Village,15217,499,31.902,44.1922,-88.2941,60,55087,55087
Wisconsin,Waunakee,15299,15299,14931,0.00486043,Village,15225,2085,7.337,43.1829,-89.4453,61,55025,55025
Wisconsin,Whitewater,15289,15289,16134,-0.0109328,City,15458,1730,8.836,42.8374,-88.7343,62,55105,55105
Wisconsin,Chippewa Falls,14596,14596,14746,-0.00205114,City,14626,1284,11.365,44.9347,-91.3892,63,55035,55035
Wisconsin,Plover,14490,14490,13539,0.0132867,Village,14300,1362,10.641,44.462,-89.538,64,55073,55073
Wisconsin,Whitefish Bay,14299,14299,14934,-0.00880355,Village,14426,6761,2.115,43.1131,-87.9005,65,55079,55079
Wisconsin,Greendale,14229,14229,14836,-0.00843205,Village,14350,2557,5.565,42.94,-88.0009,66,55079,55079
Wisconsin,Salem Lakes,14200,14200,14617,-0.0058111,Village,14283,468,30.358,42.5365,-88.1332,67,55059,55059
Wisconsin,Greenville,13658,13658,12728,0.0138064,Village,13472,382,35.719,44.2841,-88.5473,68,55087,55087
Wisconsin,Allouez,13630,13630,14152,-0.00757245,Village,13734,2986,4.565,44.4723,-88.0262,69,55009,55009
Wisconsin,Suamico,13483,13483,12837,0.00966003,Village,13354,371,36.338,44.6267,-88.033,70,55009,55009
Wisconsin,Shorewood,13449,13449,13834,-0.00569274,Village,13526,8458,1.59,43.0913,-87.8867,71,55079,55079
Wisconsin,Port Washington,13007,13007,12396,0.00946837,City,12885,2185,5.954,43.3849,-87.8841,72,55079,55079
Wisconsin,Grafton,12957,12957,12084,0.0136911,Village,12782,2474,5.238,43.3207,-87.9476,73,55079,55079
Wisconsin,Stoughton,12945,12945,13192,-0.00377097,City,12994,2117,6.116,42.9238,-89.2225,74,55025,55025
Wisconsin,Cedarburg,12765,12765,12169,0.00941009,City,12646,2594,4.921,43.2999,-87.9884,75,55079,55079
Wisconsin,Glendale,12636,12636,13343,-0.0110355,City,12777,2192,5.764,43.1261,-87.9272,76,55079,55079
Wisconsin,Baraboo,12560,12560,12544,0.00023891,City,12557,1709,7.349,43.4694,-89.7373,77,55025,55025
Wisconsin,Little Chute,12538,12538,11638,0.0145655,Village,12358,1942,6.456,44.2911,-88.3204,78,55087,55087
Wisconsin,Brown Deer,12527,12527,12592,-0.00103668,Village,12540,2850,4.395,43.1743,-87.975,79,55079,55079
Wisconsin,Sussex,12513,12513,11635,0.014266,Village,12337,1484,8.431,43.1349,-88.226,80,55133,55133
Wisconsin,Fort Atkinson,12196,12196,12581,-0.00627393,City,12273,2086,5.847,42.924,-88.8455,81,55105,55105
Wisconsin,Holmen,12162,12162,10709,0.0245135,Village,11871,1597,7.616,43.9709,-91.2659,82,55063,55063
Wisconsin,Oregon,11980,11980,11219,0.0128509,Village,11828,2646,4.528,42.9252,-89.3891,83,55025,55025
Wisconsin,Richfield,11904,11904,11746,0.00269542,Village,11872,331,35.915,43.2394,-88.234,84,55133,55133
Wisconsin,Hobart,11393,11393,10310,0.0194166,Village,11176,345,33.021,44.4954,-88.1556,85,55009,55009
Wisconsin,DeForest,11279,11279,10848,0.00768337,Village,11193,1299,8.684,43.2273,-89.3457,86,55025,55025
Wisconsin,Two Rivers,11105,11105,11264,-0.0028733,City,11137,1834,6.056,44.1561,-87.5774,87,55117,55117
Wisconsin,New Richmond,11062,11062,10169,0.0164477,City,10883,1011,10.945,45.1252,-92.5371,88,55035,55035
Wisconsin,Burlington,11043,11043,11035,0.000181143,City,11041,1431,7.719,42.6752,-88.2719,89,55133,55133
Wisconsin,Marinette,11000,11000,11112,-0.00199601,City,11022,1569,7.009,45.0868,-87.6324,90,55009,55009
Wisconsin,Waupun,10691,10691,11561,-0.0160147,City,10865,2289,4.67,43.6315,-88.7375,91,55139,55139
Wisconsin,Platteville,10654,10654,11838,-0.0217611,City,10891,1723,6.184,42.7279,-90.4681,92,55025,55025
Wisconsin,Hartland,10437,10437,9507,0.0181446,Village,10251,1912,5.46,43.1024,-88.3356,93,55133,55133
Wisconsin,Monroe,10305,10305,10639,-0.0064597,City,10372,1842,5.595,42.6029,-89.638,94,55025,55025
Wisconsin,Reedsburg,10294,10294,10033,0.00507713,City,10242,1691,6.086,43.535,-89.9955,95,55025,55025
Wisconsin,Elkhorn,10205,10205,10267,-0.00117451,City,10217,1263,8.081,42.6716,-88.5363,96,55133,55133
Wisconsin,Sturgeon Bay,9992,9992,9664,0.0066492,City,9926,1010,9.893,44.8227,-87.3698,97,55009,55009
Wisconsin,Cottage Grove,9934,9934,7299,0.0560221,Village,9407,2118,4.69,43.0922,-89.2053,98,55025,55025
Wisconsin,Altoona,9911,9911,8351,0.0325034,City,9599,1996,4.966,44.8,-91.4396,99,55035,55035
Wisconsin,Windsor,9893,9893,8800,0.022638,Village,9674,360,27.515,43.2457,-89.2815,100,55025,55025
Wisconsin,Portage,9821,9821,10583,-0.0152412,City,9973,1103,8.907,43.549,-89.4659,101,55025,55025
Wisconsin,McFarland,9735,9735,9047,0.0143795,Village,9597,2006,4.854,43.0192,-89.2834,102,55025,55025
Wisconsin,Sparta,9718,9718,10027,-0.00633947,City,9780,1215,7.996,43.9382,-90.8127,103,55063,55063
Wisconsin,St. Francis,9523,9523,9157,0.00772487,City,9450,3723,2.558,42.971,-87.8717,104,55079,55079
Wisconsin,Tomah,9374,9374,9568,-0.00414321,City,9413,1192,7.866,43.988,-90.5014,105,55063,55063
Wisconsin,Shawano,9235,9235,9240,-0.000108271,City,9236,1379,6.696,44.7779,-88.586,106,55087,55087
Wisconsin,Rice Lake,8982,8982,9056,-0.00166722,City,8997,1014,8.854,45.482,-91.7458,107,55035,55035
Wisconsin,Lake Geneva,8940,8940,8299,0.0145256,City,8812,1303,6.862,42.5833,-88.4285,108,55133,55133
Wisconsin,Merrill,8920,8920,9342,-0.00932919,City,9004,1192,7.485,45.1806,-89.7003,109,55073,55073
Wisconsin,Plymouth,8886,8886,8941,-0.00123637,City,8897,1658,5.361,43.7453,-87.9653,110,55117,55117
Wisconsin,Kronenwetter,8653,8653,8368,0.00663099,Village,8596,168,51.61,44.8199,-89.5887,111,55073,55073
Wisconsin,Mukwonago,8641,8641,8268,0.00875555,Village,8566,1076,8.033,42.853,-88.3206,112,55133,55133
Wisconsin,Delavan,8521,8521,8525,-0.000117343,City,8522,1150,7.41,42.6305,-88.6298,113,55105,55105
Wisconsin,Waukesha,8496,8496,8466,0.000706713,Village,8490,413,20.582,42.9604,-88.2493,114,55133,55133
Wisconsin,Monona,8484,8484,8614,-0.00305523,City,8510,2603,3.259,43.0539,-89.3335,115,55025,55025
Wisconsin,Sheboygan Falls,8175,8175,8205,-0.000733406,City,8181,1488,5.494,43.7293,-87.8262,116,55117,55117
Wisconsin,Pewaukee,8165,8165,8239,-0.00183374,Village,8180,1982,4.119,43.0869,-88.2564,117,55133,55133
Wisconsin,Rhinelander,8118,8118,8285,-0.00404858,City,8151,964,8.419,45.6361,-89.4255,118,55073,55073
Wisconsin,Jackson,8101,8101,7848,0.0063354,Village,8050,2097,3.863,43.3199,-88.1641,119,55133,55133
Wisconsin,Somers,7969,7969,8396,-0.0105538,Village,8054,309,25.779,42.6432,-87.8922,120,55059,55059
Wisconsin,Antigo,7900,7900,8084,-0.00466171,City,7937,1224,6.455,45.1413,-89.1552,121,55073,55073
Wisconsin,Ashland,7861,7861,7903,-0.00101665,City,7869,588,13.363,46.5818,-90.8719,122,55035,55035
Wisconsin,Kimberly,7824,7824,7328,0.0128155,Village,7725,3405,2.298,44.2668,-88.338,123,55087,55087
Wisconsin,Mount Horeb,7753,7753,7760,-0.000128965,Village,7754,2391,3.243,43.006,-89.7315,124,55025,55025
Wisconsin,Ripon,7710,7710,7850,-0.00361851,City,7738,1550,4.974,43.8436,-88.8379,125,55139,55139
Wisconsin,Jefferson,7540,7540,7805,-0.00698011,City,7593,1293,5.832,43.004,-88.8085,126,55105,55105
Wisconsin,Vernon,7442,7442,7476,-0.000939723,Village,7449,248,29.98,42.879,-88.2666,127,55133,55133
Wisconsin,New London,7424,7424,7358,0.00175415,City,7411,1331,5.576,44.3959,-88.7386,128,55139,55139
Wisconsin,Lake Hallie,7402,7402,7172,0.0062534,Village,7356,520,14.231,44.8917,-91.4203,129,55035,55035
Wisconsin,Hales Corners,7394,7394,7714,-0.00858139,Village,7458,2316,3.192,42.9412,-88.0495,130,55079,55079
Wisconsin,Delafield,7209,7209,7193,0.000416319,City,7206,766,9.411,43.0674,-88.3888,131,55133,55133
Wisconsin,Lake Mills,6849,6849,6231,0.0184387,City,6725,1639,4.178,43.0776,-88.9064,132,55105,55105
Wisconsin,Sturtevant,6615,6615,6915,-0.00898876,Village,6675,1612,4.104,42.6989,-87.9016,133,55101,55101
Wisconsin,Slinger,6572,6572,6049,0.0162363,Village,6467,1197,5.492,43.3354,-88.2765,134,55133,55133
Wisconsin,Fox Point,6400,6400,6920,-0.0159902,Village,6504,2238,2.86,43.1581,-87.9014,135,55079,55079
Wisconsin,Twin Lakes,6390,6390,6320,0.00219573,Village,6376,749,8.534,42.5156,-88.2504,136,55059,55059
Wisconsin,Waupaca,6369,6369,6278,0.0028342,City,6351,804,7.917,44.35,-89.07,137,55139,55139
Wisconsin,Rib Mountain,6278,6278,5963,0.00657367,CDP,6237,521,12.055,44.9176,-89.6923,138,55073,55073
Wisconsin,Elm Grove,6182,6182,6517,-0.0107217,Village,6249,1896,3.261,43.0475,-88.087,139,55079,55079
Wisconsin,Edgerton,6023,6023,5943,0.00266356,City,6007,1448,4.159,42.8389,-89.0696,140,55105,55105
Wisconsin,Evansville,5877,5877,5741,0.00461538,City,5850,1804,3.258,42.7781,-89.296,141,55105,55105
Wisconsin,Waterford,5870,5870,5555,0.010849,Village,5807,2406,2.44,42.7644,-88.2167,142,55133,55133
Wisconsin,Berlin,5636,5636,5573,0.00231193,City,5623,952,5.918,43.9697,-88.95,143,55139,55139
Wisconsin,Milton,5613,5613,5725,-0.00390417,City,5635,1208,4.646,42.7747,-88.94,144,55105,55105
Wisconsin,Summit,5595,5595,4824,0.0283036,Village,5441,271,20.656,43.0462,-88.4774,145,55133,55133
Wisconsin,Rothschild,5484,5484,5559,-0.00272777,Village,5499,840,6.529,44.8737,-89.6198,146,55073,55073
Wisconsin,Columbus,5386,5386,5540,-0.00572272,City,5417,1187,4.539,43.3368,-89.03,147,55025,55025
Wisconsin,Union Grove,5357,5357,4844,0.0196041,Village,5254,2068,2.59,42.6864,-88.0495,148,55059,55059
Wisconsin,North Fond Lac,5356,5356,5381,-0.000932661,Village,5361,2517,2.128,43.811,-88.4855,149,55139,55139
Wisconsin,West Salem,5311,5311,5278,0.00131976,Village,5304,1586,3.349,43.8985,-91.0875,150,55063,55063
Wisconsin,Prairie Chien,5281,5281,5511,-0.00863525,City,5327,890,5.936,43.0433,-91.1373,151,55063,55063
Wisconsin,Bristol,5183,5183,5192,-0.000385728,Village,5185,159,32.7,42.5323,-88.0091,152,55059,55059
Wisconsin,Dodgeville,5154,5154,4981,0.00683727,City,5119,1269,4.063,42.966,-90.1297,153,55025,55025
Wisconsin,Mayville,5104,5104,5188,-0.00331966,City,5121,1569,3.254,43.4982,-88.5476,154,55133,55133
Wisconsin,Lake Wisconsin,5060,5060,4573,0.0115954,CDP,5002,378,13.397,43.3647,-89.596,155,55025,55025
Wisconsin,Tichigan,5042,5042,5068,-0.00118859,CDP,5048,445,11.33,42.8087,-88.2152,156,55133,55133
Wisconsin,Wind Lake,5032,5032,5407,-0.00415595,CDP,5053,729,6.906,42.8278,-88.1546,157,55133,55133
Wisconsin,Bloomfield,4885,4885,4790,0.00390464,Village,4866,390,12.512,42.549,-88.3518,158,55133,55133
Wisconsin,Richland Center,4834,4834,5108,-0.0112497,City,4889,1030,4.693,43.3405,-90.3834,159,55063,55063
Wisconsin,Okauchee Lake,4757,4757,4373,0.00464625,CDP,4735,1274,3.733,43.1259,-88.4392,160,55133,55133
Wisconsin,East Troy,4719,4719,4689,0.00127307,Village,4713,1034,4.562,42.7852,-88.3956,161,55133,55133
Wisconsin,Oconto,4624,4624,4616,0.000432713,City,4622,682,6.781,44.8927,-87.8685,162,55009,55009
Wisconsin,Prescott,4586,4586,4333,0.0112459,City,4535,1618,2.834,44.7534,-92.789,163,55035,55035
Wisconsin,Mosinee,4570,4570,4489,0.00351339,City,4554,582,7.855,44.7918,-89.6843,164,55073,55073
Wisconsin,Kewaskum,4513,4513,4317,0.00871703,Village,4474,1917,2.354,43.5177,-88.2306,165,55133,55133
Wisconsin,Clintonville,4493,4493,4583,-0.00399025,City,4511,1012,4.441,44.6221,-88.7517,166,55087,55087
Wisconsin,Medford,4444,4444,4348,0.00429378,City,4425,988,4.497,45.1356,-90.3425,167,55073,55073
Wisconsin,Baldwin,4415,4415,4292,0.00569476,Village,4390,1371,3.221,44.9544,-92.3715,168,55035,55035
Wisconsin,Viroqua,4393,4393,4502,-0.00498301,City,4415,988,4.446,43.5605,-90.886,169,55063,55063
Wisconsin,Prairie Sac,4336,4336,4421,-0.00390535,Village,4353,2245,1.931,43.2939,-89.7352,170,55025,55025
Wisconsin,Bayside,4299,4299,4474,-0.00807568,Village,4334,1802,2.386,43.1826,-87.9017,171,55079,55079
Wisconsin,French Island,4281,4281,4318,0.00116932,CDP,4276,2118,2.021,43.8587,-91.2608,172,55063,55063
Wisconsin,Saukville,4262,4262,4257,0.000234686,Village,4261,1204,3.54,43.3889,-87.9439,173,55079,55079
Wisconsin,Pulaski,4163,4163,3878,0.0138821,Village,4106,1467,2.837,44.6682,-88.2343,174,55009,55009
Wisconsin,Mauston,4060,4060,4349,-0.0140845,City,4118,908,4.47,43.8,-90.0796,175,55063,55063
Wisconsin,Wrightstown,4021,4021,3216,0.0417098,Village,3860,892,4.509,44.3271,-88.1756,176,55087,55087
Wisconsin,Cross Plains,4017,4017,4104,-0.00421418,Village,4034,2136,1.881,43.115,-89.6471,177,55025,55025
Wisconsin,Kiel,3962,3962,3946,0.000757767,City,3959,1567,2.528,43.916,-88.0265,178,55117,55117
Wisconsin,Raymond,3957,3957,3921,0.00177215,Village,3950,111,35.656,42.7992,-88.0108,179,55079,55079
Wisconsin,North Hudson,3940,3940,3810,0.00664282,Village,3914,2516,1.566,44.9958,-92.755,180,55035,55035
Wisconsin,West Milwaukee,3922,3922,4109,-0.00934579,Village,3959,3505,1.119,43.0124,-87.971,181,55079,55079
Wisconsin,Lancaster,3885,3885,3912,-0.00128535,City,3890,1292,3.008,42.8473,-90.7065,182,55063,55063
Wisconsin,Chilton,3838,3838,4090,-0.0128601,City,3888,950,4.04,44.0302,-88.1617,183,55087,55087
Wisconsin,Arcadia,3834,3834,3738,0.00498034,City,3815,1172,3.272,44.2486,-91.4916,184,55063,55063
Wisconsin,Marshall,3822,3822,3792,0.00157233,Village,3816,1783,2.143,43.1705,-89.0626,185,55025,55025
Wisconsin,Stanley,3784,3784,3818,-0.00184648,City,3791,881,4.294,44.9594,-90.9437,186,55035,55035
Wisconsin,Rochester,3768,3768,3787,-0.00106044,Village,3772,216,17.42,42.7329,-88.2503,187,55133,55133
Wisconsin,Horicon,3762,3762,3789,-0.00132732,City,3767,1074,3.502,43.445,-88.6403,188,55133,55133
Wisconsin,Bloomer,3724,3724,3684,0.00215285,City,3716,1264,2.946,45.1028,-91.4915,189,55035,55035
Wisconsin,Lake Delton,3709,3709,3509,0.0109022,Village,3669,487,7.612,43.592,-89.7831,190,55025,55025
Wisconsin,Waterloo,3690,3690,3492,0.0109589,City,3650,973,3.794,43.1835,-88.99,191,55025,55025
Wisconsin,Combined Locks,3665,3665,3637,0.00163979,Village,3659,2135,1.717,44.262,-88.3095,192,55087,55087
Wisconsin,Black River Falls,3638,3638,3510,0.00719823,City,3612,869,4.185,44.2985,-90.8428,193,55063,55063
Wisconsin,Merton,3638,3638,3457,0.00999445,Village,3602,1097,3.316,43.1437,-88.3123,194,55133,55133
Wisconsin,Barron,3618,3618,3730,-0.00604396,City,3640,1242,2.913,45.4022,-91.8444,195,55035,55035
Wisconsin,Omro,3601,3601,3655,-0.0030454,City,3612,1471,2.448,44.039,-88.737,196,55139,55139
Wisconsin,Wisconsin Dells,3593,3593,2970,0.0360438,City,3468,458,7.838,43.6384,-89.7758,197,55025,55025
Wisconsin,Hortonville,3577,3577,3044,0.0308357,Village,3470,1055,3.392,44.3358,-88.6366,198,55087,55087
Wisconsin,Johnson Creek,3514,3514,3331,0.0106414,Village,3477,1161,3.028,43.0791,-88.7711,199,55133,55133
Wisconsin,Seymour,3493,3493,3547,-0.00313927,City,3504,1252,2.79,44.5144,-88.3273,200,55087,55087
Wisconsin,Sauk City,3444,3444,3521,-0.00433651,Village,3459,2148,1.603,43.2733,-89.7325,201,55025,55025
Wisconsin,Brillion,3427,3427,3272,0.00912839,City,3396,1109,3.09,44.1735,-88.0678,202,55009,55009
Wisconsin,Peshtigo,3366,3366,3418,-0.00296208,City,3376,1156,2.913,45.0569,-87.7441,203,55009,55009
Wisconsin,Tomahawk,3348,3348,3440,-0.00534759,City,3366,426,7.853,45.479,-89.7118,204,55073,55073
Wisconsin,Somerset,3343,3343,3035,0.0188967,Village,3281,1008,3.318,45.1257,-92.673,205,55035,55035
Wisconsin,Thiensville,3284,3284,3284,0.0,Village,3284,3164,1.038,43.2354,-87.9768,206,55079,55079
Wisconsin,Ellsworth,3269,3269,3341,-0.00426439,Village,3283,861,3.797,44.7362,-92.4802,207,55035,55035
Wisconsin,Howards Grove,3259,3259,3239,0.00122888,Village,3255,1465,2.225,43.8297,-87.8203,208,55117,55117
Wisconsin,Yorkville,3244,3244,3243,0.0,Village,3244,97,33.496,42.7201,-88.0014,209,55059,55059
Wisconsin,Lodi,3199,3199,3199,0.0,City,3199,1847,1.732,43.3155,-89.5399,210,55025,55025
Wisconsin,Algoma,3197,3197,3247,-0.00311818,City,3207,1302,2.456,44.6057,-87.448,211,55009,55009
Wisconsin,Sherwood,3187,3187,3274,-0.00530587,Village,3204,921,3.461,44.1769,-88.275,212,55087,55087
Wisconsin,Brodhead,3180,3180,3259,-0.00500626,City,3196,1772,1.795,42.6168,-89.3756,213,55105,55105
Wisconsin,Boscobel,3163,3163,3297,-0.00846395,City,3190,975,3.244,43.1471,-90.7051,214,55063,55063
Wisconsin,Oostburg,3121,3121,3071,0.0032144,Village,3111,1540,2.026,43.6241,-87.7881,215,55117,55117
Wisconsin,Lake Wissota,3067,3067,2896,0.00722496,CDP,3045,812,3.777,44.926,-91.2896,216,55035,55035
Wisconsin,Paddock Lake,3009,3009,2951,0.004004,Village,2997,995,3.025,42.5705,-88.1068,217,55059,55059
Wisconsin,Oconto Falls,3006,3006,2963,0.003003,City,2997,1109,2.711,44.8753,-88.1455,218,55009,55009
Wisconsin,Ladysmith,3003,3003,3212,-0.0137931,City,3045,711,4.226,45.461,-91.0976,219,55035,55035
Wisconsin,Delavan Lake,2995,2995,2752,0.0077389,CDP,2972,712,4.204,42.5989,-88.6245,220,55105,55105
Wisconsin,Wales,2995,2995,2875,0.00807809,Village,2971,929,3.225,43.0058,-88.3704,221,55133,55133
Wisconsin,Williams Bay,2993,2993,2963,0.0020087,Village,2987,1081,2.769,42.5788,-88.5457,222,55133,55133
Wisconsin,Amery,2949,2949,2966,-0.00101626,City,2952,949,3.108,45.3046,-92.3634,223,55035,55035
Wisconsin,Osceola,2934,2934,2778,0.0106786,Village,2903,721,4.067,45.3193,-92.6959,224,55035,55035
Wisconsin,Tainter Lake,2926,2926,2797,0.0159722,CDP,2880,158,18.534,44.9891,-91.8482,225,55035,55035
Wisconsin,Genoa City,2925,2925,2982,-0.00374659,Village,2936,1105,2.648,42.5065,-88.3193,226,55059,55059
Wisconsin,Lannon,2906,2906,1366,0.118553,Village,2598,1176,2.472,43.1572,-88.1582,227,55133,55133
Wisconsin,New Holstein,2894,2894,3188,-0.0199797,City,2953,1153,2.509,43.9492,-88.0949,228,55117,55117
Wisconsin,Mondovi,2852,2852,2842,0.000701754,City,2850,732,3.896,44.5703,-91.6668,229,55035,55035
Wisconsin,Walworth,2827,2827,2767,0.00426288,Village,2815,1646,1.718,42.5305,-88.5939,230,55105,55105
Wisconsin,Luxemburg,2797,2797,2686,0.00792793,Village,2775,1113,2.512,44.5447,-87.7066,231,55009,55009
Wisconsin,Belleville,2792,2792,2497,0.021588,Village,2733,1757,1.589,42.864,-89.5396,232,55025,55025
Wisconsin,Kewaunee,2780,2780,2824,-0.00322696,City,2789,787,3.531,44.4636,-87.5217,233,55009,55009
Wisconsin,Fennimore,2753,2753,2768,-0.00108853,City,2756,1590,1.731,42.9794,-90.6492,234,55063,55063
Wisconsin,Lake Wazeecha,2690,2690,2671,0.00111649,CDP,2687,648,4.152,44.3709,-89.7492,235,55073,55073
Wisconsin,Lomira,2679,2679,2681,0.0,Village,2679,1220,2.196,43.5942,-88.4432,236,55139,55139
Wisconsin,Hayward,2615,2615,2537,0.00615621,City,2599,702,3.725,46.0066,-91.4897,237,55035,55035
Wisconsin,Maine,2615,2615,2617,0.0,Village,2615,61,43.075,45.058,-89.6813,238,55073,55073
Wisconsin,Mineral Point,2551,2551,2580,-0.0023465,City,2557,830,3.075,42.8632,-90.1814,239,55025,55025
Wisconsin,Darlington,2546,2546,2453,0.0075188,City,2527,1543,1.65,42.6766,-90.1201,240,55025,55025
Wisconsin,Belgium,2539,2539,2428,0.00874056,Village,2517,1181,2.149,43.5018,-87.8475,241,55117,55117
Wisconsin,Poynette,2529,2529,2601,-0.00550531,Village,2543,984,2.569,43.3922,-89.4048,242,55025,55025
Wisconsin,Deerfield,2517,2517,2511,0.000397456,Village,2516,1162,2.166,43.0492,-89.0762,243,55025,55025
Wisconsin,New Lisbon,2509,2509,2578,-0.00554895,City,2523,918,2.733,43.8753,-90.1624,244,55063,55063
Wisconsin,Winneconne,2476,2476,2540,-0.00522298,Village,2489,1670,1.483,44.1113,-88.712,245,55139,55139
Wisconsin,Spooner,2466,2466,2471,-0.00040535,City,2467,611,4.034,45.8259,-91.8861,246,55035,55035
Wisconsin,Juneau,2456,2456,2650,-0.0156313,City,2495,1489,1.649,43.4029,-88.7033,247,55133,55133
Wisconsin,Denmark,2427,2427,2414,0.00123762,Village,2424,1231,1.972,44.3493,-87.8312,248,55009,55009
Wisconsin,Dousman,2410,2410,2429,-0.001657,Village,2414,809,2.979,43.0094,-88.4756,249,55133,55133
Wisconsin,Bohners Lake,2408,2408,2678,-0.000829875,CDP,2410,723,3.332,42.622,-88.2843,250,55133,55133
Wisconsin,Westby,2390,2390,2330,0.00504626,City,2378,887,2.694,43.6529,-90.8582,251,55063,55063
Wisconsin,Nekoosa,2385,2385,2444,-0.00500626,City,2397,705,3.384,44.3132,-89.9079,252,55073,55073
Wisconsin,Abbotsford,2355,2355,2270,0.00727117,City,2338,793,2.969,44.9435,-90.3173,253,55073,55073
Wisconsin,Park Falls,2346,2346,2403,-0.00466695,City,2357,623,3.766,45.9363,-90.4443,254,55073,55073
Wisconsin,Cumberland,2325,2325,2272,0.00475367,City,2314,559,4.156,45.5361,-92.0247,255,55035,55035
Wisconsin,Fredonia,2290,2290,2275,0.00131176,Village,2287,1024,2.236,43.4717,-87.9471,256,55117,55117
Wisconsin,St. Croix Falls,2274,2274,2218,0.0048608,City,2263,456,4.987,45.4114,-92.6247,257,55035,55035
Wisconsin,Kohler,2261,2261,2196,0.00578292,Village,2248,425,5.318,43.74,-87.7768,258,55117,55117
Wisconsin,Neillsville,2259,2259,2389,-0.0113786,City,2285,823,2.745,44.5603,-90.5908,259,55063,55063
Wisconsin,Clinton,2235,2235,2215,0.00179292,Village,2231,1561,1.432,42.5575,-88.8681,260,55105,55105
Wisconsin,Como,2228,2228,2064,-0.0119734,CDP,2255,792,2.813,42.6131,-88.4861,261,55133,55133
Wisconsin,Wautoma,2226,2226,2210,0.00134953,City,2223,796,2.795,44.0674,-89.2911,262,55139,55139
Wisconsin,North Prairie,2194,2194,2203,-0.000910746,Village,2196,797,2.752,42.9409,-88.4021,263,55133,55133
Wisconsin,Eagle,2191,2191,2078,0.0106089,Village,2168,1575,1.391,42.8822,-88.4634,264,55133,55133
Wisconsin,Roberts,2181,2181,1958,0.0210674,Village,2136,845,2.58,44.9619,-92.5477,265,55035,55035
Wisconsin,Ixonia,2174,2174,1856,0.017314,CDP,2137,598,3.638,43.1372,-88.5963,266,55133,55133
Wisconsin,New Glarus,2172,2172,2262,-0.00821918,Village,2190,1203,1.805,42.8131,-89.6337,267,55025,55025
Wisconsin,Schofield,2153,2153,2155,0.0,City,2153,1018,2.115,44.9133,-89.6215,268,55073,55073
Wisconsin,Chetek,2149,2149,2178,-0.00278422,City,2155,896,2.399,45.3161,-91.6532,269,55035,55035
Wisconsin,Shorewood Hills,2121,2121,2273,-0.013947,Village,2151,2641,0.803,43.0788,-89.4469,270,55025,55025
Wisconsin,Cedar Grove,2114,2114,2098,0.00142113,Village,2111,968,2.184,43.5682,-87.823,271,55117,55117
Wisconsin,Cuba City,2114,2114,2144,-0.00283019,City,2120,1822,1.16,42.6036,-90.4318,272,55025,55025
Wisconsin,Pardeeville,2035,2035,2075,-0.00391581,Village,2043,1057,1.925,43.5373,-89.3027,273,55025,55025
Wisconsin,Lake Ripley,2033,2033,1927,0.00843254,CDP,2016,609,3.338,43.0086,-88.9903,274,55105,55105
Wisconsin,Washburn,2024,2024,2044,-0.00197239,City,2028,518,3.911,46.6767,-90.9013,275,55035,55035
Wisconsin,Redgranite,1989,1989,2069,-0.00798005,Village,2005,842,2.363,44.0533,-89.1159,276,55139,55139
Wisconsin,Brice Prairie,1959,1959,2200,0.00204603,CDP,1955,427,4.588,43.9375,-91.3074,277,55063,55063
Wisconsin,Campbellsport,1954,1954,1904,0.00514403,Village,1944,1430,1.366,43.5975,-88.2806,278,55117,55117
Wisconsin,Colby,1910,1910,1950,-0.00417101,City,1918,1167,1.637,44.9113,-90.3157,279,55073,55073
Wisconsin,Fontana-on-Geneva Lake,1902,1902,1871,0.00316456,Village,1896,567,3.357,42.5452,-88.566,280,55105,55105
Wisconsin,Trempealeau,1901,1901,1848,0.0058201,Village,1890,959,1.982,44.0022,-91.428,281,55063,55063
Wisconsin,Cameron,1847,1847,1872,-0.00269978,Village,1852,713,2.59,45.4036,-91.7398,282,55035,55035
Wisconsin,Durand,1836,1836,1853,-0.00163132,City,1839,1050,1.748,44.6224,-91.9603,283,55035,55035
Wisconsin,Hammond,1836,1836,1873,-0.00379816,Village,1843,850,2.16,44.969,-92.4381,284,55035,55035
Wisconsin,Spencer,1805,1805,1822,-0.00165929,Village,1808,916,1.97,44.7536,-90.2985,285,55073,55073
Wisconsin,Adams,1790,1790,1764,0.00280112,City,1785,608,2.945,43.9552,-89.8166,286,55073,55073
Wisconsin,Fall River,1785,1785,1802,-0.00167785,Village,1788,945,1.888,43.3859,-89.0455,287,55025,55025
Wisconsin,Browns Lake,1779,1779,1808,-0.00946548,CDP,1796,993,1.791,42.6895,-88.2377,288,55133,55133
Wisconsin,Osseo,1771,1771,1810,-0.00449691,City,1779,861,2.058,44.5798,-91.2138,289,55035,55035
Wisconsin,Thorp,1765,1765,1790,-0.00282486,City,1770,1193,1.48,44.958,-90.8022,290,55035,55035
Wisconsin,Port Edwards,1763,1763,1757,0.000567536,Village,1762,337,5.227,44.3432,-89.8544,291,55073,55073
Wisconsin,Butler,1752,1752,1786,-0.00397953,Village,1759,2240,0.782,43.1084,-88.0722,292,55079,55079
Wisconsin,Randolph,1752,1752,1794,-0.00454545,Village,1760,1412,1.241,43.5395,-89.0028,293,55025,55025
Wisconsin,Weyauwega,1738,1738,1792,-0.00628931,City,1749,1132,1.536,44.3236,-88.9331,294,55139,55139
Wisconsin,Mazomanie,1733,1733,1775,-0.00459506,Village,1741,980,1.769,43.1725,-89.7953,295,55025,55025
Wisconsin,Lac Flambeau,1702,1702,1737,-0.00988947,CDP,1719,344,4.948,45.9623,-89.8969,296,55073,55073
Wisconsin,Crandon,1696,1696,1713,-0.00176574,City,1699,325,5.221,45.5678,-88.8955,297,55073,55073
Wisconsin,Galesville,1696,1696,1660,0.00414446,City,1689,1304,1.301,44.0843,-91.3575,298,55063,55063
Wisconsin,King,1691,1691,1790,-0.00235988,CDP,1695,767,2.204,44.3421,-89.1248,299,55139,55139
Wisconsin,Lauderdale Lakes,1687,1687,1437,0.0205687,CDP,1653,393,4.298,42.7724,-88.5806,300,55133,55133
Wisconsin,Cambridge,1686,1686,1640,0.00536673,Village,1677,1145,1.472,43.0066,-89.0214,301,55105,55105
Wisconsin,Palmyra,1669,1669,1729,-0.00713861,Village,1681,729,2.291,42.8812,-88.5981,302,55133,55133
Wisconsin,Wind Point,1626,1626,1650,-0.0030656,Village,1631,1284,1.266,42.7804,-87.7716,303,55101,55101
Wisconsin,Eagle River,1607,1607,1632,-0.00310174,City,1612,494,3.256,45.9247,-89.2578,304,55073,55073
Wisconsin,Fox Lake,1604,1604,1601,0.00062383,City,1603,974,1.646,43.5616,-88.9147,305,55139,55139
Wisconsin,Whiting,1594,1594,1604,-0.00125313,Village,1596,881,1.81,44.4901,-89.56,306,55073,55073
Wisconsin,Whitehall,1589,1589,1656,-0.00811486,City,1602,418,3.805,44.3605,-91.3378,307,55035,55035
Wisconsin,Random Lake,1582,1582,1562,0.00253485,Village,1578,1054,1.501,43.5547,-87.9578,308,55117,55117
Wisconsin,Stratford,1581,1581,1580,0.0,Village,1581,298,5.305,44.7976,-90.0706,309,55073,55073
Wisconsin,Cleveland,1568,1568,1582,-0.00190961,Village,1571,794,1.975,43.9181,-87.7498,310,55117,55117
Wisconsin,Darien,1567,1567,1574,-0.000637755,Village,1568,1214,1.291,42.6007,-88.7128,311,55105,55105
Wisconsin,Niagara,1562,1562,1604,-0.00509554,City,1570,566,2.762,45.7793,-88.0032,312,55009,55009
Wisconsin,West Baraboo,1554,1554,1624,-0.00892857,Village,1568,1232,1.261,43.4782,-89.7741,313,55025,55025
Wisconsin,Sharon,1551,1551,1586,-0.00449294,Village,1558,897,1.73,42.4987,-88.7305,314,55105,55105
Wisconsin,Hurley,1549,1549,1564,-0.00193299,City,1552,501,3.092,46.4443,-90.2113,315,55073,55073
Wisconsin,Marathon City,1547,1547,1579,-0.00386349,Village,1553,474,3.263,44.939,-89.8501,316,55073,55073
Wisconsin,River Hills,1539,1539,1598,-0.00773694,Village,1551,298,5.156,43.1735,-87.9338,317,55079,55079
Wisconsin,Legend Lake,1531,1531,1396,0.0,CDP,1531,91,16.827,44.8951,-88.5431,318,55087,55087
Wisconsin,Brooklyn,1526,1526,1533,-0.000654878,Village,1527,1365,1.118,42.8496,-89.3764,319,55025,55025
Wisconsin,Spring Green,1520,1520,1562,-0.0052356,Village,1528,911,1.668,43.1776,-90.0688,320,55025,55025
Wisconsin,Phillips,1509,1509,1526,-0.00198413,City,1512,568,2.659,45.694,-90.4014,321,55073,55073
Wisconsin,Big Bend,1502,1502,1499,0.000666222,Village,1501,462,3.251,42.8839,-88.2036,322,55133,55133
Wisconsin,Augusta,1494,1494,1569,-0.00994036,City,1509,675,2.214,44.6784,-91.1203,323,55035,55035
Wisconsin,Orfordville,1490,1490,1467,0.003367,Village,1485,1255,1.187,42.6294,-89.2573,324,55105,55105
Wisconsin,Bangor,1479,1479,1433,0.00612245,Village,1470,882,1.677,43.8937,-90.9934,325,55063,55063
Wisconsin,Lyons,1469,1469,1117,0.0714807,CDP,1371,1180,1.245,42.6482,-88.3601,326,55133,55133
Wisconsin,Keshena,1464,1464,1455,0.00895934,CDP,1451,176,8.334,44.8668,-88.5853,327,55087,55087
Wisconsin,Independence,1462,1462,1487,-0.00340832,City,1467,351,4.163,44.3098,-91.4207,328,55035,55035
Wisconsin,Cadott,1460,1460,1494,-0.00477164,Village,1467,429,3.402,44.9498,-91.1538,329,55035,55035
Wisconsin,Montello,1451,1451,1446,0.000689655,City,1450,738,1.967,43.7944,-89.3332,330,55139,55139
Wisconsin,Edgar,1447,1447,1439,0.00138408,Village,1445,800,1.808,44.9229,-89.9626,331,55073,55073
Wisconsin,Hillsboro,1436,1436,1396,0.00560224,City,1428,1018,1.41,43.6565,-90.3344,332,55063,55063
Wisconsin,Spring Valley,1436,1436,1403,0.00489853,Village,1429,362,3.965,44.8523,-92.2429,333,55035,55035
Wisconsin,Woodville,1423,1423,1388,0.0049435,Village,1416,792,1.797,44.9483,-92.2851,334,55035,55035
Wisconsin,Mishicot,1418,1418,1430,-0.00140845,Village,1420,556,2.551,44.2285,-87.6398,335,55009,55009
Wisconsin,Black Earth,1417,1417,1494,-0.0104749,Village,1432,1679,0.844,43.1346,-89.7474,336,55025,55025
Wisconsin,Bonduel,1406,1406,1416,-0.00142045,Village,1408,623,2.256,44.738,-88.4513,337,55087,55087
Wisconsin,Fall Creek,1403,1403,1427,-0.00355114,Village,1408,685,2.049,44.764,-91.2778,338,55035,55035
Wisconsin,Shell Lake,1389,1389,1376,0.0021645,City,1386,238,5.846,45.7264,-91.91,339,55035,55035
Wisconsin,Cornell,1384,1384,1456,-0.0100143,City,1398,365,3.787,45.1638,-91.1504,340,55035,55035
Wisconsin,Manawa,1379,1379,1443,-0.00933908,City,1392,847,1.629,44.4615,-88.9205,341,55139,55139
Wisconsin,Markesan,1372,1372,1379,-0.000728332,City,1373,590,2.324,43.7108,-88.9912,342,55139,55139
Wisconsin,Grantsburg,1353,1353,1338,0.00222222,Village,1350,445,3.039,45.7838,-92.6773,343,55035,55035
Wisconsin,Seymour,1340,1340,1392,-0.00445765,CDP,1346,570,2.35,44.8196,-91.4364,344,55035,55035
Wisconsin,Westfield,1335,1335,1304,0.00451467,Village,1329,849,1.572,43.8852,-89.4925,345,55025,55025
Wisconsin,St. Peter,1334,1334,1362,-0.00744048,CDP,1344,367,3.63,43.8383,-88.3433,346,55139,55139
Wisconsin,Barneveld,1329,1329,1328,0.0,Village,1329,693,1.918,43.0117,-89.8968,347,55025,55025
Wisconsin,Black Creek,1328,1328,1360,-0.00449775,Village,1334,1332,0.997,44.4745,-88.4502,348,55087,55087
Wisconsin,Powers Lake,1322,1322,1433,-0.0149031,CDP,1342,562,2.352,42.5415,-88.296,349,55059,55059
Wisconsin,Elroy,1306,1306,1356,-0.00759878,City,1316,650,2.008,43.7416,-90.2702,350,55063,55063
Wisconsin,Nashotah,1304,1304,1319,-0.00229533,Village,1307,801,1.627,43.0888,-88.408,351,55133,55133
Wisconsin,Glenwood City,1301,1301,1308,-0.000768049,City,1302,375,3.473,45.0521,-92.1658,352,55035,55035
Wisconsin,Marion,1274,1274,1324,-0.00778816,City,1284,519,2.454,44.6773,-88.9024,353,55087,55087
Wisconsin,Gillett,1269,1269,1286,-0.00235849,City,1272,940,1.35,44.8899,-88.3062,354,55009,55009
Wisconsin,Maple Bluff,1268,1268,1368,-0.0155279,Village,1288,1809,0.701,43.1174,-89.371,355,55025,55025
Wisconsin,Princeton,1261,1261,1263,0.0,City,1261,814,1.55,43.8559,-89.1249,356,55139,55139
Wisconsin,Theresa,1258,1258,1252,0.000795544,Village,1257,1705,0.738,43.5168,-88.4538,357,55133,55133
Wisconsin,Blair,1235,1235,1322,-0.0135783,City,1252,287,4.298,44.3271,-91.2994,358,55063,55063
Wisconsin,Muscoda,1233,1233,1305,-0.0112269,Village,1247,770,1.601,43.1864,-90.4319,359,55063,55063
Wisconsin,Lake Camelot,1228,1228,1036,0.0216306,CDP,1202,326,3.77,44.2128,-89.763,360,55073,55073
Wisconsin,Shullsburg,1205,1205,1172,0.00584307,City,1198,905,1.332,42.5733,-90.2348,361,55025,55025
Wisconsin,Reedsville,1196,1196,1196,0.0,Village,1196,987,1.212,44.1525,-87.9518,362,55009,55009
Wisconsin,Colfax,1194,1194,1179,0.00251889,Village,1191,859,1.39,44.997,-91.7255,363,55035,55035
Wisconsin,Hilbert,1188,1188,1245,-0.00917431,Village,1199,806,1.474,44.1415,-88.1611,364,55087,55087
Wisconsin,Hazel Green,1177,1177,1176,0.0,Village,1177,925,1.273,42.5342,-90.4361,365,55025,55025
Wisconsin,Loyal,1177,1177,1201,-0.00423012,City,1182,882,1.335,44.7365,-90.4956,366,55073,55073
Wisconsin,Sister Bay,1173,1173,1152,0.00342173,Village,1169,440,2.667,45.1871,-87.1294,367,55009,55009
Wisconsin,Cashton,1171,1171,1160,0.00171086,Village,1169,918,1.275,43.7412,-90.7866,368,55063,55063
Wisconsin,Iola,1170,1170,1252,-0.0134907,Village,1186,699,1.675,44.5097,-89.1172,369,55139,55139
Wisconsin,Monticello,1166,1166,1188,-0.0034188,Village,1170,978,1.192,42.7447,-89.5903,370,55025,55025
Wisconsin,Greenwood,1144,1144,1063,0.0141844,City,1128,428,2.676,44.7654,-90.599,371,55073,55073
Wisconsin,Frederic,1139,1139,1159,-0.00349956,Village,1143,674,1.691,45.6527,-92.4626,372,55035,55035
Wisconsin,Lake Nebagamon,1135,1135,1129,0.000881834,Village,1134,91,12.522,46.4977,-91.7044,373,55035,55035
Wisconsin,Rio,1135,1135,1124,0.00176522,Village,1133,905,1.254,43.4522,-89.2416,374,55025,55025
Wisconsin,Amherst,1125,1125,1124,0.0,Village,1125,879,1.28,44.4483,-89.2817,375,55073,55073
Wisconsin,Newburg,1124,1124,1144,-0.0035461,Village,1128,1168,0.962,43.4323,-88.0479,376,55117,55117
Wisconsin,Ashippun,1110,1110,1027,0.0481586,CDP,1059,1080,1.028,43.2182,-88.5159,377,55133,55133
Wisconsin,Clear Lake,1109,1109,1091,0.00361991,Village,1105,426,2.601,45.248,-92.2678,378,55035,55035
Wisconsin,Crivitz,1102,1102,1094,0.00181818,Village,1100,695,1.585,45.234,-88.007,379,55009,55009
Wisconsin,Boyceville,1099,1099,1099,0.0,Village,1099,292,3.759,45.0428,-92.0385,380,55035,55035
Wisconsin,Hustisford,1074,1074,1096,-0.00371057,Village,1078,963,1.115,43.3427,-88.6035,381,55133,55133
Wisconsin,Athens,1072,1072,1064,0.00186916,Village,1070,438,2.45,45.0349,-90.0792,382,55073,55073
Wisconsin,Dane,1068,1068,1117,-0.00927644,Village,1078,902,1.184,43.2461,-89.4996,383,55025,55025
Wisconsin,Albany,1060,1060,1094,-0.00656045,Village,1067,835,1.27,42.7071,-89.4369,384,55025,55025
Wisconsin,Oakfield,1059,1059,1054,0.000945179,Village,1058,1077,0.983,43.6841,-88.5486,385,55139,55139
Wisconsin,Luck,1053,1053,1088,-0.00660377,Village,1060,534,1.972,45.5768,-92.4625,386,55035,55035
Wisconsin,Strum,1042,1042,1079,-0.00667302,Village,1049,849,1.228,44.5532,-91.3886,387,55035,55035
Wisconsin,Green Lake,1036,1036,1006,0.00582524,City,1030,556,1.862,43.8428,-88.9558,388,55139,55139
Wisconsin,Turtle Lake,1035,1035,1040,-0.00096525,Village,1036,362,2.86,45.3906,-92.1498,389,55035,55035
Wisconsin,Rosendale,1026,1026,1043,-0.00291545,Village,1029,824,1.245,43.8089,-88.6712,390,55139,55139
Wisconsin,Buffalo City,1017,1017,1014,0.000984251,City,1016,537,1.894,44.2232,-91.8659,391,55035,55035
Wisconsin,Dickeyville,1016,1016,1018,0.0,Village,1016,1004,1.012,42.6247,-90.5913,392,55025,55025
Wisconsin,Belmont,1014,1014,993,0.0039604,Village,1010,1186,0.855,42.7377,-90.3343,393,55025,55025
Wisconsin,Little Round Lake,1012,1012,1230,-0.00491642,CDP,1017,112,9.003,45.9694,-91.3689,394,55035,55035
Wisconsin,Elkhart Lake,987,987,946,0.0081716,Village,979,740,1.334,43.8314,-88.0138,395,55117,55117
Wisconsin,Wittenberg,986,986,1011,-0.00504541,Village,991,544,1.812,44.8269,-89.1666,396,55073,55073
Wisconsin,Benton,984,984,943,0.00819672,Village,976,1167,0.843,42.57,-90.3835,397,55025,55025
Wisconsin,Elk Mound,984,984,989,-0.00101523,Village,985,432,2.277,44.8744,-91.6862,398,55035,55035
Wisconsin,Valders,970,970,955,0.00310238,Village,967,674,1.439,44.0681,-87.8858,399,55117,55117
Wisconsin,Lake Koshkonong,943,943,958,-0.0177083,CDP,960,67,14.103,42.8605,-88.9401,400,55105,55105
Wisconsin,Dresser,940,940,937,0.00106496,Village,939,496,1.895,45.3632,-92.6347,401,55035,55035
Wisconsin,Milltown,938,938,950,-0.00212766,Village,940,518,1.811,45.5211,-92.4985,402,55035,55035
Wisconsin,Shiocton,937,937,942,-0.0010661,Village,938,599,1.565,44.445,-88.5764,403,55087,55087
Wisconsin,Greenleaf,932,932,643,0.0241758,CDP,910,904,1.031,44.3169,-88.0972,404,55009,55009
Wisconsin,Plainfield,923,923,923,0.0,Village,923,592,1.558,44.2175,-89.4969,405,55073,55073
Wisconsin,Iron Ridge,917,917,904,0.00328228,Village,914,1367,0.671,43.3981,-88.5319,406,55133,55133
Wisconsin,Rib Lake,916,916,923,-0.00109051,Village,917,526,1.743,45.3195,-90.2022,407,55073,55073
Wisconsin,Siren,914,914,828,0.0189521,Village,897,672,1.361,45.7778,-92.3831,408,55035,55035
Wisconsin,Balsam Lake,910,910,939,-0.00655022,Village,916,409,2.225,45.462,-92.4471,409,55035,55035
Wisconsin,Eden,910,910,887,0.00552486,Village,905,1522,0.598,43.6941,-88.3661,410,55139,55139
Wisconsin,Owen,904,904,911,-0.00110497,City,905,393,2.298,44.9491,-90.5611,411,55073,55073
Wisconsin,Blue Mounds,901,901,945,-0.00989011,Village,910,1023,0.881,43.0178,-89.8269,412,55025,55025
Wisconsin,Necedah,900,900,932,-0.00662252,Village,906,326,2.76,44.0221,-90.0751,413,55073,55073
Wisconsin,Centuria,897,897,891,0.00111607,Village,896,528,1.7,45.4487,-92.5579,414,55035,55035
Wisconsin,Eagle Lake,894,894,1010,-0.0218818,CDP,914,410,2.178,42.6956,-88.1288,415,55059,55059
Wisconsin,Butte Morts,893,893,981,-0.00556793,CDP,898,724,1.234,44.1063,-88.6573,416,55139,55139
Wisconsin,Kekoskee,891,891,893,0.0,Village,891,28,31.431,43.5006,-88.5846,417,55133,55133
Wisconsin,Viola,887,887,677,0.0497041,Village,845,891,0.996,43.5082,-90.674,418,55063,55063
Wisconsin,Lake Arrowhead,873,873,729,0.00229621,CDP,871,165,5.286,44.2036,-89.8446,419,55073,55073
Wisconsin,Stoddard,872,872,834,0.00925926,Village,864,1369,0.637,43.6625,-91.2129,420,55063,55063
Wisconsin,Footville,871,871,773,0.0235018,Village,851,772,1.128,42.6715,-89.2084,421,55105,55105
Wisconsin,Biron,864,864,841,0.00582072,Village,859,186,4.637,44.4284,-89.7658,422,55073,55073
Wisconsin,Brandon,862,862,881,-0.00461894,Village,866,1140,0.756,43.7354,-88.7821,423,55139,55139
Wisconsin,Highland,862,862,874,-0.00231481,Village,864,757,1.138,43.0475,-90.3801,424,55025,55025
Wisconsin,Arena,859,859,843,0.00350467,Village,856,744,1.154,43.1636,-89.9074,425,55025,55025
Wisconsin,Chain O' Lakes,857,857,909,-0.0103926,CDP,866,250,3.423,44.332,-89.1628,426,55139,55139
Wisconsin,Hingham,847,847,800,-0.00352941,CDP,850,316,2.684,43.6543,-87.9106,427,55117,55117
Wisconsin,Allenton,838,838,759,0.00119474,CDP,837,537,1.56,43.4219,-88.3448,428,55133,55133
Wisconsin,Van Dyne,830,830,236,0.0453401,CDP,794,1053,0.788,43.8862,-88.4978,429,55139,55139
Wisconsin,Blanchardville,827,827,814,0.00364078,Village,824,1523,0.543,42.8104,-89.8606,430,55025,55025
Wisconsin,Arlington,826,826,846,-0.00481928,Village,830,797,1.037,43.3351,-89.3726,431,55025,55025
Wisconsin,Dorchester,826,826,845,-0.00481928,Village,830,595,1.389,45.0014,-90.3312,432,55073,55073
Wisconsin,Pittsville,823,823,810,0.00365854,City,820,414,1.987,44.4417,-90.1366,433,55073,55073
Wisconsin,Potter Lake,822,822,936,-0.0225922,CDP,841,765,1.074,42.8201,-88.3431,434,55133,55133
Wisconsin,Lone Rock,821,821,836,-0.00364078,Village,824,825,0.995,43.1857,-90.2013,435,55025,55025
Wisconsin,Argyle,801,801,785,0.0037594,Village,798,1269,0.631,42.7014,-89.8657,436,55025,55025
Wisconsin,Elmwood,801,801,823,-0.00496894,Village,805,529,1.515,44.7801,-92.149,437,55035,55035
Wisconsin,Hewitt,801,801,795,0.00125,Village,800,860,0.931,44.6425,-90.1048,438,55073,55073
Wisconsin,Wild Rose,798,798,783,0.00377358,Village,795,549,1.454,44.1783,-89.2445,439,55139,55139
Wisconsin,Montreal,790,790,800,-0.00252525,City,792,356,2.221,46.4332,-90.2419,440,55073,55073
Wisconsin,Rockland,781,781,773,0.00256739,Village,779,1173,0.666,43.9076,-90.9166,441,55063,55063
Wisconsin,Cassville,767,767,776,-0.00260078,Village,769,738,1.039,42.7152,-90.9891,442,55063,55063
Wisconsin,Coon Valley,765,765,757,0.00262123,Village,763,687,1.114,43.7019,-91.0114,443,55063,55063
Wisconsin,Cambria,762,762,772,-0.0026178,Village,764,776,0.982,43.5414,-89.1115,444,55025,55025
Wisconsin,Fountain City,761,761,803,-0.0104031,City,769,174,4.375,44.1188,-91.6898,445,55063,55063
Wisconsin,Pepin,746,746,730,0.00403769,Village,743,1032,0.723,44.4428,-92.1477,446,55035,55035
Wisconsin,Reeseville,745,745,762,-0.0040107,Village,748,1192,0.625,43.3062,-88.8446,447,55025,55025
Wisconsin,Lily Lake,741,741,436,0.0708092,CDP,692,1165,0.636,42.5657,-88.21,448,55059,55059
Wisconsin,Bloomington,738,738,742,-0.00135318,Village,739,585,1.262,42.8931,-90.9265,449,55063,55063
Wisconsin,Bruce,737,737,776,-0.0107383,Village,745,319,2.308,45.4635,-91.2793,450,55035,55035
Wisconsin,Birnamwood,733,733,730,0.00136612,Village,732,333,2.203,44.9319,-89.2095,451,55073,55073
Wisconsin,Bancroft,732,732,540,0.0180807,CDP,719,144,5.093,44.3086,-89.5062,452,55073,55073
Wisconsin,Whitelaw,732,732,741,-0.00272479,Village,734,1394,0.525,44.1476,-87.8267,453,55009,55009
Wisconsin,Superior,730,730,679,0.0138889,Village,720,588,1.242,46.6488,-92.1089,454,55035,55035
Wisconsin,Wyocena,729,729,758,-0.00816326,Village,735,508,1.434,43.4932,-89.3018,455,55025,55025
Wisconsin,Plain,722,722,746,-0.00687758,Village,727,794,0.909,43.2772,-90.0427,456,55025,55025
Wisconsin,Wonewoc,722,722,761,-0.0109589,Village,730,646,1.117,43.6535,-90.2242,457,55063,55063
Wisconsin,Montfort,720,720,707,0.0041841,Village,717,1288,0.559,42.9699,-90.4333,458,55025,55025
Wisconsin,St. Nazianz,720,720,714,0.00139082,Village,719,907,0.794,44.0073,-87.9248,459,55117,55117
Wisconsin,Alma,719,719,714,0.00139276,City,718,135,5.31,44.3398,-91.9185,460,55035,55035
Wisconsin,Coleman,719,719,728,-0.00277392,Village,721,533,1.35,45.067,-88.0357,461,55009,55009
Wisconsin,La Farge,716,716,721,-0.0013947,Village,717,710,1.009,43.5782,-90.6383,462,55063,55063
Wisconsin,Webster,716,716,693,0.00703235,Village,711,408,1.753,45.8798,-92.3628,463,55035,55035
Wisconsin,Cascade,714,714,723,-0.0027933,Village,716,868,0.823,43.6615,-88.0088,464,55117,55117
Wisconsin,Forest Junction,708,708,681,0.00854701,CDP,702,275,2.576,44.2148,-88.1496,465,55087,55087
Wisconsin,Tigerton,707,707,706,0.0,Village,707,388,1.824,44.7416,-89.0459,466,55073,55073
Wisconsin,Almena,702,702,706,-0.00142247,Village,703,619,1.134,45.4149,-92.0383,467,55035,55035
Wisconsin,Friendship,700,700,650,0.0144928,Village,690,778,0.9,43.9717,-89.82,468,55073,55073
Wisconsin,Polonia,700,700,636,0.0174419,CDP,688,210,3.34,44.5805,-89.4106,469,55073,55073
Wisconsin,Mellen,697,697,699,0.0,City,697,370,1.883,46.324,-90.6605,470,55073,55073
Wisconsin,Auburndale,696,696,701,-0.00143472,Village,697,336,2.071,44.6266,-90.0144,471,55073,55073
Wisconsin,Hatley,692,692,646,0.0131772,Village,683,709,0.976,44.8865,-89.3371,472,55073,55073
Wisconsin,Ridgeway,685,685,630,0.0163205,Village,674,534,1.283,42.9984,-89.9926,473,55025,55025
Wisconsin,Casco,684,684,628,0.0163447,Village,673,1027,0.666,44.5552,-87.6203,474,55009,55009
Wisconsin,Iron River,684,684,652,-0.00725689,CDP,689,109,6.253,46.5793,-91.3998,475,55035,55035
Wisconsin,Neopit,684,684,694,0.0,CDP,684,56,12.151,44.9847,-88.8146,476,55087,55087
Wisconsin,Brownsville,683,683,598,0.0255255,Village,666,1114,0.613,43.6146,-88.4952,477,55139,55139
Wisconsin,Eleva,682,682,684,0.0,Village,682,1218,0.56,44.5766,-91.4703,478,55035,55035
Wisconsin,Fremont,674,674,691,-0.00443131,Village,677,633,1.064,44.2599,-88.8701,479,55139,55139
Wisconsin,Solon Springs,672,672,667,0.00149031,Village,671,429,1.566,46.3478,-91.8294,480,55035,55035
Wisconsin,Dale,670,670,725,0.0136157,CDP,661,449,1.493,44.2757,-88.673,481,55139,55139
Wisconsin,Francis Creek,668,668,657,0.003003,Village,666,588,1.136,44.2005,-87.7209,482,55009,55009
Wisconsin,Potosi,656,656,646,0.0030581,Village,654,395,1.66,42.6855,-90.7077,483,55063,55063
Wisconsin,Star Prairie,653,653,675,-0.00608828,Village,657,305,2.143,45.1975,-92.5321,484,55035,55035
Wisconsin,Livingston,650,650,639,0.00308642,Village,648,625,1.04,42.9001,-90.4337,485,55025,55025
Wisconsin,Stockbridge,639,639,684,-0.0138889,Village,648,195,3.28,44.0684,-88.3097,486,55087,55087
Wisconsin,Chief Lake,637,637,510,0.00631911,CDP,633,30,21.344,45.9387,-91.3359,487,55035,55035
Wisconsin,Sullivan,636,636,651,-0.00469483,Village,639,561,1.133,43.0123,-88.5953,488,55133,55133
Wisconsin,Poplar,632,632,632,0.0,Village,632,53,11.878,46.5818,-91.7823,489,55035,55035
Wisconsin,St. Joseph,632,632,593,0.0711864,CDP,590,334,1.89,43.7855,-91.0436,490,55063,55063
Wisconsin,Camp Douglas,629,629,644,-0.00474684,Village,632,626,1.005,43.9197,-90.2697,491,55063,55063
Wisconsin,Boyd,623,623,603,0.00646203,Village,619,336,1.853,44.9533,-91.0398,492,55035,55035
Wisconsin,Wauzeka,623,623,628,-0.00160256,Village,624,130,4.792,43.0859,-90.8989,493,55063,55063
Wisconsin,Winchester,622,622,572,-0.00638978,CDP,626,269,2.312,44.1982,-88.6599,494,55139,55139
Wisconsin,Bayfield,614,614,586,0.00986842,City,608,707,0.868,46.8161,-90.8248,495,55035,55035
Wisconsin,Wausaukee,597,597,597,0.0,Village,597,434,1.376,45.3782,-87.9548,496,55009,55009
Wisconsin,Oconomowoc Lake,592,592,572,0.00680272,Village,588,308,1.919,43.1038,-88.4497,497,55133,55133
Wisconsin,Norwalk,587,587,612,-0.00844594,Village,592,570,1.03,43.8342,-90.6269,498,55063,55063
Wisconsin,Bluffview,584,584,731,-0.0184874,CDP,595,1517,0.385,43.3625,-89.7737,499,55025,55025
Wisconsin,Curtiss,583,583,290,0.112595,Village,524,850,0.686,44.9528,-90.4396,500,55073,55073
Wisconsin,Taycheedah,579,579,652,-0.0136286,CDP,587,739,0.784,43.8125,-88.3886,501,55139,55139
Wisconsin,North Freedom,577,577,602,-0.00859107,Village,582,689,0.838,43.458,-89.8538,502,55025,55025
Wisconsin,New Auburn,576,576,561,0.0052356,Village,573,168,3.419,45.1988,-91.5663,503,55035,55035
Wisconsin,Neosho,575,575,590,-0.00519031,Village,578,1093,0.526,43.3071,-88.5212,504,55133,55133
Wisconsin,Plum City,573,573,597,-0.00865052,Village,578,550,1.042,44.6356,-92.1917,505,55035,55035
Wisconsin,Lake Ivanhoe,564,564,398,0.0162162,CDP,555,629,0.897,42.5792,-88.336,506,55133,55133
Wisconsin,Prentice,561,561,565,-0.00177936,Village,562,278,2.019,45.5412,-90.2928,507,55073,55073
Wisconsin,Soldiers Grove,561,561,561,0.0,Village,561,154,3.646,43.3923,-90.7734,508,55063,55063
Wisconsin,Stetsonville,560,560,564,-0.00178253,Village,561,1404,0.399,45.0771,-90.3143,509,55073,55073
Wisconsin,Minong,558,558,547,0.00359712,Village,556,366,1.525,46.099,-91.826,510,55035,55035
Wisconsin,Rome,555,555,647,-0.0159574,CDP,564,150,3.708,42.9853,-88.6499,511,55133,55133
Wisconsin,Chenequa,548,548,528,0.00735294,Village,544,158,3.461,43.1231,-88.3814,512,55133,55133
Wisconsin,Mole Lake,548,548,527,0.0148148,CDP,540,148,3.699,45.4861,-88.9756,513,55073,55073
Wisconsin,Avoca,547,547,557,-0.00364299,Village,549,243,2.251,43.1877,-90.3263,514,55025,55025
Wisconsin,Woodruff,544,544,702,-0.048951,CDP,572,384,1.415,45.8944,-89.6912,515,55073,55073
Wisconsin,Dellwood,543,543,475,-0.00183823,CDP,544,104,5.217,43.9451,-89.928,516,55073,55073
Wisconsin,Clayton,542,542,551,-0.00367647,Village,544,169,3.211,45.3275,-92.1645,517,55035,55035
Wisconsin,Laona,538,538,524,-0.00554529,CDP,541,276,1.948,45.5597,-88.6697,518,55009,55009
Wisconsin,Mercer,537,537,507,0.00186567,CDP,536,121,4.452,46.1613,-90.0418,519,55073,55073
Wisconsin,Ontario,537,537,536,0.0,Village,537,535,1.004,43.7219,-90.5932,520,55063,55063
Wisconsin,Gresham,536,536,536,0.0,Village,536,470,1.141,44.8486,-88.7861,521,55087,55087
Wisconsin,Park Ridge,535,535,530,0.00187266,Village,534,2357,0.227,44.52,-89.5463,522,55073,55073
Wisconsin,Merrillan,534,534,564,-0.0111111,Village,540,421,1.267,44.4506,-90.8345,523,55063,55063
Wisconsin,Oxford,534,534,534,0.0,Village,534,636,0.839,43.7804,-89.5636,524,55025,55025
Wisconsin,Cecil,532,532,527,0.00188324,Village,531,297,1.791,44.8114,-88.4493,525,55087,55087
Wisconsin,Warrens,532,532,544,-0.00374532,Village,534,360,1.476,44.1274,-90.5211,526,55063,55063
Wisconsin,Vesper,530,530,519,0.00378788,Village,528,459,1.155,44.4805,-89.9676,527,55073,55073
Wisconsin,Gibbsville,529,529,493,0.00189394,CDP,528,620,0.853,43.6491,-87.8349,528,55117,55117
Wisconsin,Lena,528,528,532,-0.00189036,Village,529,497,1.063,44.953,-88.0473,529,55009,55009
Wisconsin,Melrose,522,522,544,-0.00760456,Village,526,652,0.801,44.1312,-90.9969,530,55063,55063
Wisconsin,Merrimac,518,518,518,0.0,Village,518,629,0.823,43.3756,-89.6269,531,55025,55025
Wisconsin,Gays Mills,517,517,521,-0.0019305,Village,518,106,4.893,43.3301,-90.8462,532,55063,55063
Wisconsin,Ettrick,516,516,528,-0.003861,Village,518,698,0.739,44.1696,-91.265,533,55063,55063
Wisconsin,Suring,516,516,521,-0.00193423,Village,517,503,1.025,45.0007,-88.3693,534,55009,55009
Wisconsin,Wilton,514,514,533,-0.00772201,Village,518,577,0.891,43.8133,-90.5269,535,55063,55063
Wisconsin,Elmwood Park,502,502,509,-0.00198807,Village,503,3325,0.151,42.6913,-87.8221,536,55101,55101
Wisconsin,Knapp,499,499,481,0.00808081,Village,495,318,1.57,44.9489,-92.0808,537,55035,55035
Wisconsin,Waubeka,496,496,624,-0.0197628,CDP,506,202,2.45,43.4702,-87.9935,538,55117,55117
Wisconsin,Withee,495,495,507,-0.00402414,Village,497,595,0.832,44.9508,-90.5988,539,55073,55073
Wisconsin,Linden,493,493,502,-0.0040404,Village,495,632,0.78,42.9186,-90.2742,540,55025,55025
Wisconsin,Prairie Farm,493,493,490,0.00203252,Village,492,512,0.962,45.2364,-91.98,541,55035,55035
Wisconsin,St. Cloud,491,491,491,0.0,Village,491,534,0.92,43.8224,-88.1717,542,55117,55117
Wisconsin,Adell,485,485,499,-0.00614754,Village,488,869,0.558,43.6204,-87.9459,543,55117,55117
Wisconsin,Mount Calvary,484,484,491,-0.00206186,Village,485,458,1.056,43.8238,-88.2411,544,55087,55087
Wisconsin,Waldo,484,484,468,0.00623701,Village,481,497,0.973,43.677,-87.9479,545,55117,55117
Wisconsin,Cobb,483,483,482,0.0,Village,483,470,1.028,42.9667,-90.3285,546,55025,55025
Wisconsin,Lyndon Station,477,477,494,-0.00625,Village,480,226,2.113,43.7088,-89.8937,547,55025,55025
Wisconsin,Kendall,475,475,480,-0.00210084,Village,476,622,0.764,43.7927,-90.3676,548,55063,55063
Wisconsin,Forestville,470,470,485,-0.00634249,Village,473,895,0.525,44.6909,-87.4784,549,55009,55009
Wisconsin,Rosholt,462,462,477,-0.00645161,Village,465,440,1.05,44.6302,-89.3052,550,55073,55073
Wisconsin,Glenbeulah,461,461,451,0.0043573,Village,459,663,0.695,43.7984,-88.0468,551,55117,55117
Wisconsin,Mission,461,461,307,0.072093,CDP,430,822,0.561,44.3454,-90.7631,552,55063,55063
Wisconsin,Coloma,458,458,450,0.00438596,Village,456,308,1.486,44.0387,-89.5312,553,55139,55139
Wisconsin,Fairchild,458,458,452,0.00218818,Village,457,315,1.455,44.6052,-90.9567,554,55035,55035
Wisconsin,Taylor,458,458,482,-0.0107991,Village,463,628,0.729,44.3217,-91.1205,555,55063,55063
Wisconsin,Alma Center,457,457,486,-0.012959,Village,463,456,1.002,44.437,-90.9128,556,55063,55063
Wisconsin,Blue River,453,453,455,0.0,Village,453,497,0.911,43.1844,-90.5718,557,55063,55063
Wisconsin,Florence,448,448,428,-0.0218341,CDP,458,166,2.706,45.9279,-88.2352,558,55009,55009
Wisconsin,South Wayne,446,446,445,0.0,Village,446,537,0.831,42.5676,-89.8761,559,55025,55025
Wisconsin,Caroline,440,440,377,0.025641,CDP,429,372,1.183,44.7232,-88.8986,560,55087,55087
Wisconsin,Bay City,438,438,442,-0.0022779,Village,439,741,0.591,44.5893,-92.4535,561,55035,55035
Wisconsin,Lohrville,438,438,433,0.00228833,Village,437,361,1.214,44.0382,-89.1212,562,55139,55139
Wisconsin,Minocqua,436,436,276,-0.00228833,CDP,437,603,0.723,45.8792,-89.7036,563,55073,55073
Wisconsin,Endeavor,435,435,432,0.00230415,Village,434,689,0.631,43.7144,-89.4692,564,55025,55025
Wisconsin,Mindoro,435,435,399,0.0714286,CDP,406,686,0.634,44.0201,-91.1019,565,55063,55063
Wisconsin,Rudolph,428,428,435,-0.002331,Village,429,355,1.204,44.4972,-89.8018,566,55073,55073
Wisconsin,Hixton,427,427,454,-0.0115741,Village,432,374,1.141,44.3831,-91.0148,567,55063,55063
Wisconsin,Arkansaw,422,422,338,0.0394089,CDP,406,577,0.732,44.6343,-92.0211,568,55035,55035
Wisconsin,Neshkoro,422,422,412,0.0047619,Village,420,210,2.012,43.9651,-89.2158,569,55139,55139
Wisconsin,Bear Creek,417,417,427,-0.00477327,Village,419,452,0.922,44.5313,-88.7275,570,55087,55087
Wisconsin,Oliver,417,417,416,0.0,Village,417,201,2.074,46.6458,-92.1847,571,55035,55035
Wisconsin,Cochrane,415,415,424,-0.00479616,Village,417,536,0.774,44.2271,-91.8411,572,55035,55035
Wisconsin,Almond,411,411,425,-0.00724638,Village,414,392,1.048,44.261,-89.4086,573,55073,55073
Wisconsin,Junction City,410,410,420,-0.00485437,Village,412,272,1.508,44.5949,-89.7697,574,55073,55073
Wisconsin,Northport,410,410,459,-0.0120482,CDP,415,237,1.727,44.405,-88.8112,575,55139,55139
Wisconsin,Birchwood,407,407,402,0.00246305,Village,406,377,1.079,45.6577,-91.5506,576,55035,55035
Wisconsin,Hancock,404,404,394,0.00497512,Village,402,386,1.047,44.1333,-89.521,577,55073,55073
Wisconsin,Kieler,401,401,532,-0.014742,CDP,407,477,0.84,42.5823,-90.6052,578,55025,55025
Wisconsin,Poy Sippi,395,395,403,0.00508906,CDP,393,540,0.732,44.1367,-88.9981,579,55139,55139
Wisconsin,Clyman,394,394,398,-0.00253164,Village,395,1051,0.375,43.3116,-88.7231,580,55133,55133
Wisconsin,Three Lakes,390,390,498,-0.0346535,CDP,404,138,2.822,45.8045,-89.1691,581,55073,55073
Wisconsin,Waukau,386,386,235,0.021164,CDP,378,278,1.389,43.9845,-88.7721,582,55139,55139
Wisconsin,Lake Sherwood,380,380,342,0.00263852,CDP,379,361,1.054,44.2063,-89.7881,583,55073,55073
Wisconsin,Egg Harbor,379,379,358,0.0106667,Village,375,154,2.467,45.0513,-87.3049,584,55009,55009
Wisconsin,Gilman,378,378,380,0.0,Village,378,162,2.34,45.1662,-90.8072,585,55035,55035
Wisconsin,Seneca,378,378,311,0.0738636,CDP,352,449,0.841,43.2658,-90.9566,586,55063,55063
Wisconsin,Juda,377,377,322,0.00265957,CDP,376,1478,0.255,42.59,-89.5092,587,55105,55105
Wisconsin,Readstown,375,375,372,0.0026738,Village,374,219,1.711,43.4487,-90.7591,588,55063,55063
Wisconsin,Amherst Junction,372,372,387,-0.008,Village,375,301,1.236,44.4685,-89.3172,589,55073,55073
Wisconsin,Unity,371,371,385,-0.00802139,Village,374,374,0.991,44.8511,-90.3131,590,55073,55073
Wisconsin,Granton,370,370,380,-0.00537634,Village,372,679,0.545,44.5883,-90.4604,591,55073,55073
Wisconsin,La Valle,369,369,389,-0.0107239,Village,373,927,0.398,43.5827,-90.1302,592,55025,55025
Wisconsin,Butternut,368,368,365,0.00272479,Village,367,233,1.58,46.0133,-90.4974,593,55073,55073
Wisconsin,Hebron,366,366,317,0.0252101,CDP,357,148,2.465,42.9188,-88.6895,594,55133,55133
Wisconsin,Pigeon Falls,366,366,381,-0.00813008,Village,369,843,0.434,44.4246,-91.2083,595,55035,55035
Wisconsin,Briggsville,363,363,303,0.0739645,CDP,338,230,1.579,43.6603,-89.5928,596,55025,55025
Wisconsin,Chili,360,360,279,0.025641,CDP,351,276,1.304,44.6335,-90.3619,597,55073,55073
Wisconsin,Scandinavia,360,360,374,-0.00826446,Village,363,412,0.874,44.4607,-89.1465,598,55139,55139
Wisconsin,Bagley,359,359,354,0.0027933,Village,358,503,0.714,42.9013,-91.0954,599,55063,55063
Wisconsin,Sextonville,359,359,414,-0.032345,CDP,371,399,0.9,43.2795,-90.2924,600,55025,55025
Wisconsin,Mattoon,356,356,360,-0.00280112,Village,357,217,1.639,45.0046,-89.0411,601,55073,55073
Wisconsin,Pound,350,350,354,-0.002849,Village,351,395,0.887,45.0989,-88.0324,602,55009,55009
Wisconsin,Dallas,349,349,358,-0.00569801,Village,351,241,1.446,45.2582,-91.8146,603,55035,55035
Wisconsin,Cazenovia,348,348,362,-0.00854701,Village,351,380,0.915,43.5253,-90.204,604,55025,55025
Wisconsin,Ephraim,343,343,342,0.0,Village,343,91,3.787,45.1677,-87.1726,605,55009,55009
Wisconsin,Tennyson,343,343,348,-0.00290698,Village,344,796,0.431,42.6906,-90.6867,606,55063,55063
Wisconsin,Fairwater,337,337,346,-0.0058997,Village,339,459,0.735,43.7425,-88.8669,607,55139,55139
Wisconsin,Eastman,335,335,349,-0.00887574,Village,338,94,3.58,43.1652,-91.0328,608,55063,55063
Wisconsin,New Odanah,334,334,384,-0.0290698,CDP,344,138,2.426,46.5986,-90.6508,609,55073,55073
Wisconsin,Wheeler,332,332,327,0.00302115,Village,331,403,0.823,45.0438,-91.8993,610,55035,55035
Wisconsin,Brothertown,330,330,205,0.0714286,CDP,308,275,1.201,43.975,-88.3175,611,55087,55087
Wisconsin,Maribel,328,328,335,-0.00303951,Village,329,287,1.143,44.2786,-87.8021,612,55009,55009
Wisconsin,Humbird,327,327,337,0.0123839,CDP,323,289,1.133,44.5313,-90.8792,613,55063,55063
Wisconsin,Winter,325,325,324,0.0,Village,325,410,0.792,45.8221,-91.013,614,55035,55035
Wisconsin,Birch Hill,324,324,206,0.00621118,CDP,322,523,0.619,46.5208,-90.5555,615,55073,55073
Wisconsin,De Soto,323,323,308,0.009375,Village,320,278,1.16,43.4291,-91.1963,616,55063,55063
Wisconsin,Rock Springs,323,323,327,-0.00308642,Village,324,249,1.299,43.4787,-89.9269,617,55025,55025
Wisconsin,Nelson,318,318,320,0.0,Village,318,235,1.353,44.4196,-91.9973,618,55035,55035
Wisconsin,Friesland,314,314,318,-0.0031746,Village,315,311,1.01,43.5876,-89.0656,619,55025,55025
Wisconsin,Krakow,312,312,302,-0.00636943,CDP,314,277,1.128,44.7585,-88.2611,620,55009,55009
Wisconsin,Hawkins,311,311,328,-0.00955414,Village,314,141,2.206,45.5119,-90.7172,621,55035,55035
Wisconsin,Bowler,310,310,314,-0.00321543,Village,311,299,1.037,44.8627,-88.9814,622,55073,55073
Wisconsin,Oakdale,306,306,303,0.00327869,Village,305,413,0.741,43.9622,-90.3791,623,55063,55063
Wisconsin,Sand Pillow,306,306,278,0.0699301,CDP,286,1313,0.233,44.3313,-90.7637,624,55063,55063
Wisconsin,Kellnersville,303,303,310,-0.00328947,Village,304,562,0.539,44.2252,-87.8031,625,55009,55009
Wisconsin,Burnett,301,301,327,0.0100671,CDP,298,1204,0.25,43.5065,-88.7084,626,55139,55139
Wisconsin,Hollandale,300,300,310,-0.00662252,Village,302,412,0.729,42.875,-89.9335,627,55025,55025
Wisconsin,Lowell,299,299,309,-0.00664452,Village,301,302,0.991,43.3336,-88.8137,628,55133,55133
Wisconsin,New Post,298,298,291,0.0,CDP,298,14,20.562,45.9028,-91.2071,629,55035,55035
Wisconsin,Reserve,297,297,393,-0.0262295,CDP,305,6,52.929,45.8231,-91.3652,630,55035,55035
Wisconsin,Eureka,295,295,410,0.0172414,CDP,290,279,1.056,44.0116,-88.8414,631,55139,55139
Wisconsin,Arpin,294,294,299,-0.00338983,Village,295,358,0.822,44.5394,-90.0315,632,55073,55073
Wisconsin,Dyckesville,294,294,450,-0.0516129,CDP,310,273,1.075,44.6403,-87.7648,633,55009,55009
Wisconsin,New Munster,294,294,296,0.0729927,CDP,274,249,1.179,42.5758,-88.2311,634,55059,55059
Wisconsin,Batavia,292,292,237,0.0695971,CDP,273,382,0.764,43.5923,-88.0484,635,55117,55117
Wisconsin,Downsville,292,292,201,0.035461,CDP,282,391,0.746,44.7751,-91.9287,636,55035,55035
Wisconsin,Kingston,284,284,283,0.0,Village,284,218,1.305,43.6933,-89.1315,637,55139,55139
Wisconsin,Lac La Belle,284,284,278,0.00353357,Village,283,257,1.107,43.1455,-88.5173,638,55133,55133
Wisconsin,Loganville,283,283,300,-0.0104895,Village,286,1068,0.265,43.437,-90.0374,639,55025,55025
Wisconsin,Nichols,283,283,287,-0.00352113,Village,284,320,0.885,44.5672,-88.4678,640,55087,55087
Wisconsin,Lake Lorraine,282,282,259,-0.00704225,CDP,284,252,1.117,42.7304,-88.7403,641,55105,55105
Wisconsin,Sobieski,280,280,423,0.00358423,CDP,279,222,1.259,44.7227,-88.0659,642,55009,55009
Wisconsin,Radisson,277,277,272,0.00362319,Village,276,701,0.395,45.7675,-91.2174,643,55035,55035
Wisconsin,Doylestown,271,271,278,-0.00367647,Village,272,70,3.883,43.4283,-89.1469,644,55025,55025
Wisconsin,Embarrass,269,269,358,-0.0627178,Village,287,230,1.171,44.6705,-88.7032,645,55087,55087
Wisconsin,Abrams,268,268,401,-0.0147059,CDP,272,325,0.825,44.7796,-88.0604,646,55009,55009
Wisconsin,Lakewood,267,267,356,-0.0111111,CDP,270,97,2.765,45.3006,-88.5145,647,55009,55009
Wisconsin,Milladore,265,265,269,-0.0037594,Village,266,266,0.998,44.6056,-89.8552,648,55073,55073
Wisconsin,Ridgeland,264,264,259,0.00380228,Village,263,574,0.46,45.1981,-91.898,649,55035,55035
Wisconsin,Rewey,263,263,258,0.00381679,Village,262,519,0.507,42.8419,-90.3961,650,55025,55025
Wisconsin,White Lake,263,263,262,0.0,Village,263,125,2.101,45.1597,-88.7634,651,55087,55087
Wisconsin,Ironton,262,262,274,-0.00757576,Village,264,787,0.333,43.5442,-90.1455,652,55025,55025
Wisconsin,North Lake,261,261,300,0.0696721,CDP,244,1092,0.239,43.1553,-88.3674,653,55133,55133
Wisconsin,Post Lake,255,255,255,-0.0304183,CDP,263,35,7.248,45.4305,-89.0903,654,55073,55073
Wisconsin,Haugen,254,254,263,-0.0078125,Village,256,504,0.504,45.6076,-91.7786,655,55035,55035
Wisconsin,Dodge,252,252,141,0.0327869,CDP,244,541,0.466,44.1344,-91.5493,656,55063,55063
Wisconsin,Sandy Hook,249,249,251,-0.0158103,CDP,253,177,1.408,42.5466,-90.6168,657,55025,55025
Wisconsin,Turtle Lake,249,249,241,-0.0273438,CDP,256,288,0.866,42.7323,-88.6775,658,55105,55105
Wisconsin,Sheldon,246,246,260,-0.0120482,Village,249,372,0.662,45.3119,-90.9567,659,55035,55035
Wisconsin,Ogema,245,245,192,0.0165975,CDP,241,81,3.039,45.4566,-90.3003,660,55073,55073
Wisconsin,Westboro,245,245,186,0.0165975,CDP,241,133,1.847,45.3608,-90.2934,661,55073,55073
Wisconsin,Aniwa,243,243,243,0.0,Village,243,114,2.124,45.01,-89.2079,662,55073,55073
Wisconsin,Chaseburg,243,243,242,0.0,Village,243,288,0.843,43.6611,-91.0959,663,55063,55063
Wisconsin,Deer Park,242,242,252,-0.00819672,Village,244,267,0.906,45.1885,-92.3887,664,55035,55035
Wisconsin,Shopiere,241,241,200,0.0711111,CDP,225,1111,0.217,42.5722,-88.9362,665,55105,55105
Wisconsin,Mountain,237,237,237,-0.0326531,CDP,245,35,6.721,45.1864,-88.4681,666,55009,55009
Wisconsin,Rock Falls,236,236,167,0.0727273,CDP,220,365,0.646,44.7157,-91.6993,667,55035,55035
Wisconsin,Browntown,235,235,242,-0.00423729,Village,236,223,1.054,42.5788,-89.7894,668,55025,55025
Wisconsin,Genoa,231,231,236,-0.00431034,Village,232,647,0.357,43.5733,-91.2261,669,55063,55063
Wisconsin,Collins,230,230,209,0.0176991,CDP,226,135,1.706,44.0857,-87.9811,670,55009,55009
Wisconsin,Pembine,230,230,203,0.00877193,CDP,228,387,0.595,45.6367,-87.9913,671,55009,55009
Wisconsin,Downing,229,229,231,0.0,Village,229,77,2.955,45.0498,-92.1243,672,55035,55035
Wisconsin,Weyerhaeuser,229,229,233,-0.00434783,Village,230,245,0.936,45.4256,-91.4152,673,55035,55035
Wisconsin,Dalton,227,227,203,0.00442478,CDP,226,506,0.449,43.6564,-89.2076,674,55025,55025
Wisconsin,Exeland,226,226,228,0.0,Village,226,188,1.201,45.6674,-91.2415,675,55035,55035
Wisconsin,Gratiot,221,221,223,0.0,Village,221,403,0.548,42.5798,-90.0238,676,55025,55025
Wisconsin,Potter,219,219,246,-0.0223214,Village,224,434,0.505,44.1185,-88.1017,677,55087,55087
Wisconsin,Arkdale,214,214,171,0.0190476,CDP,210,99,2.158,44.0262,-89.8861,678,55073,55073
Wisconsin,Jim Falls,214,214,138,-0.00925926,CDP,216,353,0.606,45.0478,-91.2719,679,55035,55035
Wisconsin,Diamond Bluff,213,213,233,0.00471698,CDP,212,122,1.746,44.6489,-92.6189,680,55035,55035
Wisconsin,Union Center,213,213,222,-0.00930232,Village,215,258,0.824,43.6826,-90.2633,681,55063,55063
Wisconsin,Boulder Junction,209,209,154,0.00480769,CDP,208,156,1.342,46.1148,-89.6544,682,55073,55073
Wisconsin,Mount Hope,207,207,212,-0.00480769,Village,208,750,0.276,42.9696,-90.8596,683,55063,55063
Wisconsin,North Bay,203,203,208,-0.00490196,Village,204,1933,0.105,42.7642,-87.7806,684,55101,55101
Wisconsin,Wilson,202,202,209,-0.00492611,Village,203,118,1.706,44.9586,-92.1705,685,55035,55035
Wisconsin,Baileys Harbor,201,201,187,-0.0147059,CDP,204,119,1.687,45.0671,-87.1355,686,55009,55009
Wisconsin,Rockdale,200,200,210,-0.00990099,Village,202,712,0.281,42.97,-89.0305,687,55105,55105
Wisconsin,Hager City,199,199,272,-0.0432692,CDP,208,103,1.932,44.6021,-92.5335,688,55035,55035
Wisconsin,Patch Grove,198,198,200,0.0,Village,198,522,0.379,42.9403,-90.9723,689,55063,55063
Wisconsin,Eland,197,197,197,0.0,Village,197,89,2.206,44.8669,-89.209,690,55073,55073
Wisconsin,Packwaukee,194,194,194,-0.0251256,CDP,199,404,0.48,43.7653,-89.4598,691,55025,55025
Wisconsin,Allens Grove,193,193,161,0.0722222,CDP,180,337,0.572,42.5783,-88.7668,692,55105,55105
Wisconsin,Ferryville,191,191,193,0.0,Village,191,90,2.127,43.3533,-91.0957,693,55063,55063
Wisconsin,Zoar,188,188,164,0.0742857,CDP,175,22,8.549,45.0055,-88.8748,694,55087,55087
Wisconsin,Brule,186,186,201,-0.026178,CDP,191,70,2.654,46.5584,-91.5709,695,55035,55035
Wisconsin,Cable,184,184,126,-0.00540541,CDP,185,169,1.09,46.2011,-91.2937,696,55035,55035
Wisconsin,Hatfield,184,184,207,0.0165746,CDP,181,138,1.337,44.4169,-90.7511,697,55063,55063
Wisconsin,Goodman,182,182,276,-0.0319149,CDP,188,110,1.662,45.6194,-88.3514,698,55009,55009
Wisconsin,Holcombe,182,182,222,-0.0319149,CDP,188,188,0.967,45.2223,-91.1206,699,55035,55035
Wisconsin,Ogdensburg,180,180,187,-0.00552486,Village,181,185,0.973,44.4572,-89.0243,700,55139,55139
Wisconsin,Gilmanton,178,178,122,0.0722892,CDP,166,53,3.345,44.4809,-91.6721,701,55035,55035
Wisconsin,Mount Sterling,177,177,187,-0.0111732,Village,179,124,1.429,43.3162,-90.9292,702,55063,55063
Wisconsin,Iron Belt,174,174,151,0.0,CDP,174,71,2.468,46.403,-90.3192,703,55073,55073
Wisconsin,Port Wing,174,174,167,0.00578035,CDP,173,151,1.15,46.7756,-91.3806,704,55035,55035
Wisconsin,Edmund,173,173,117,0.0,CDP,173,506,0.342,42.9662,-90.2644,705,55025,55025
Wisconsin,Marquette,172,172,172,0.0,Village,172,457,0.376,43.7464,-89.1384,706,55139,55139
Wisconsin,Cataract,171,171,166,-0.00581395,CDP,172,288,0.594,44.0867,-90.8384,707,55063,55063
Wisconsin,Gotham,171,171,213,-0.00581395,CDP,172,430,0.398,43.2225,-90.297,708,55025,55025
Wisconsin,Drummond,170,170,124,0.00591716,CDP,169,122,1.396,46.3437,-91.2499,709,55035,55035
Wisconsin,Harrisville,166,166,170,0.0709677,CDP,155,221,0.752,43.8843,-89.4099,710,55139,55139
Wisconsin,Elcho,164,164,265,-0.0681818,CDP,176,142,1.156,45.4368,-89.1888,711,55073,55073
Wisconsin,Clarks Mills,163,163,139,0.0723684,CDP,152,657,0.248,44.0911,-87.8626,712,55117,55117
Wisconsin,Hustler,160,160,167,-0.00621118,Village,161,229,0.698,43.8773,-90.2658,713,55063,55063
Wisconsin,Sayner,160,160,208,-0.0184049,CDP,163,88,1.827,45.9878,-89.5419,714,55073,55073
Wisconsin,Wabeno,160,160,289,-0.148936,CDP,188,67,2.388,45.4394,-88.6581,715,55009,55009
Wisconsin,Helenville,159,159,245,-0.0363636,CDP,165,287,0.554,43.0165,-88.6999,716,55133,55133
Wisconsin,Lake Tomahawk,159,159,140,-0.0304878,CDP,164,103,1.543,45.8092,-89.5774,717,55073,55073
Wisconsin,Springfield,159,159,131,0.0,CDP,159,236,0.673,42.6407,-88.4135,718,55133,55133
Wisconsin,Nelsonville,156,156,161,-0.00636943,Village,157,152,1.029,44.4902,-89.3035,719,55073,55073
Wisconsin,Lewis,155,155,146,-0.00641026,CDP,156,105,1.471,45.7219,-92.3922,720,55035,55035
Wisconsin,Marengo,155,155,137,0.0197368,CDP,152,148,1.046,46.4219,-90.8081,721,55035,55035
Wisconsin,Elderon,154,154,161,-0.00645161,Village,155,137,1.124,44.7874,-89.2521,722,55073,55073
Wisconsin,Lime Ridge,152,152,159,-0.00653595,Village,153,152,1.001,43.4676,-90.1577,723,55025,55025
Wisconsin,Angelica,150,150,93,0.0714286,CDP,140,96,1.564,44.675,-88.3216,724,55009,55009
Wisconsin,Bayfront,149,149,99,0.0719424,CDP,139,105,1.425,46.6235,-90.7896,725,55035,55035
Wisconsin,Rubicon,149,149,136,0.0719424,CDP,139,352,0.423,43.3372,-88.4526,726,55133,55133
Wisconsin,Middle Village,146,146,214,-0.0580645,CDP,155,24,6.08,44.9265,-88.7178,727,55087,55087
Wisconsin,Emerald,144,144,227,-0.00689655,CDP,145,77,1.866,45.0867,-92.2495,728,55035,55035
Wisconsin,Hanover,144,144,119,-0.0136986,CDP,146,247,0.582,42.6389,-89.171,729,55105,55105
Wisconsin,Kennan,142,142,141,0.0,Village,142,72,1.984,45.5301,-90.5868,730,55073,55073
Wisconsin,Millston,142,142,108,0.0070922,CDP,141,136,1.041,44.1893,-90.6457,731,55063,55063
Wisconsin,Newald,142,142,122,0.0676692,CDP,133,173,0.82,45.7396,-88.7005,732,55073,55073
Wisconsin,Catawba,137,137,139,0.0,Village,137,31,4.437,45.5371,-90.5335,733,55073,55073
Wisconsin,Fenwood,137,137,141,-0.00724638,Village,138,139,0.984,44.8658,-90.0146,734,55073,55073
Wisconsin,Dekorra,136,136,105,0.0708661,CDP,127,112,1.214,43.4539,-89.4603,735,55025,55025
Wisconsin,Ellison Bay,136,136,148,-0.0144928,CDP,138,51,2.661,45.2553,-87.0729,736,55009,55009
Wisconsin,Tunnel City,134,134,124,0.0151515,CDP,132,432,0.31,44.005,-90.568,737,55063,55063
Wisconsin,Navarino,133,133,154,-0.0220588,CDP,136,119,1.114,44.6109,-88.4934,738,55087,55087
Wisconsin,Pulcifer,133,133,96,0.0,CDP,133,129,1.033,44.8499,-88.363,739,55009,55009
Wisconsin,Grand Marsh,132,132,144,0.0,CDP,132,109,1.208,43.8852,-89.7072,740,55025,55025
Wisconsin,Lynxville,132,132,136,-0.0075188,Village,133,95,1.39,43.2527,-91.0494,741,55063,55063
Wisconsin,Alto,131,131,171,0.0737705,CDP,122,166,0.787,43.6676,-88.7924,742,55139,55139
Wisconsin,Greenbush,131,131,194,-0.0150376,CDP,133,171,0.767,43.7781,-88.0941,743,55117,55117
Wisconsin,Cornucopia,129,129,88,0.075,CDP,120,57,2.264,46.8567,-91.1081,744,55035,55035
Wisconsin,Jolmaville,129,129,95,0.075,CDP,120,10,12.488,46.4331,-90.7498,745,55035,55035
Wisconsin,Glidden,127,127,231,-0.164474,CDP,152,59,2.158,46.1347,-90.5721,746,55073,55073
Wisconsin,Pine River,126,126,161,-0.00787401,CDP,127,108,1.168,44.1486,-89.0759,747,55139,55139
Wisconsin,Big Foot Prairie,124,124,77,0.0689655,CDP,116,3875,0.032,42.4955,-88.6017,748,55105,55105
Wisconsin,Woodford,124,124,45,0.0689655,CDP,116,515,0.241,42.6473,-89.8572,749,55025,55025
Wisconsin,Boaz,122,122,127,-0.00813008,Village,123,339,0.36,43.3299,-90.5277,750,55063,55063
Wisconsin,Steuben,122,122,122,0.0,Village,122,20,6.201,43.1834,-90.8569,751,55063,55063
Wisconsin,Woodman,121,121,118,0.00833333,Village,120,486,0.249,43.0925,-90.7978,752,55063,55063
Wisconsin,Tustin,120,120,103,0.00840336,CDP,119,117,1.027,44.1698,-88.8961,753,55139,55139
Wisconsin,Pence,119,119,95,0.0,CDP,119,111,1.068,46.4103,-90.2695,754,55073,55073
Wisconsin,Lebanon,116,116,98,-0.0491803,CDP,122,263,0.441,43.2575,-88.6322,755,55133,55133
Wisconsin,Bell Center,115,115,109,0.00877193,Village,114,21,5.533,43.2919,-90.8255,756,55063,55063
Wisconsin,Wyeville,115,115,119,-0.00862069,Village,116,204,0.565,44.0279,-90.3861,757,55063,55063
Wisconsin,Lublin,114,114,116,0.0,Village,114,75,1.524,45.0749,-90.7238,758,55035,55035
Wisconsin,Maiden Rock,114,114,116,0.0,Village,114,95,1.205,44.5679,-92.3093,759,55035,55035
Wisconsin,Amberg,111,111,175,-0.0431034,CDP,116,69,1.613,45.5061,-87.9876,760,55009,55009
Wisconsin,Little Sturgeon,109,109,181,-0.00909091,CDP,110,47,2.335,44.842,-87.5745,761,55009,55009
Wisconsin,Dunbar,108,108,56,0.08,CDP,100,102,1.064,45.6467,-88.1797,762,55009,55009
Wisconsin,Herbster,108,108,83,0.0,CDP,108,19,5.572,46.8422,-91.2419,763,55035,55035
Wisconsin,Mason,105,105,105,0.0,Village,105,137,0.769,46.4363,-91.0598,764,55035,55035
Wisconsin,Wiota,104,104,128,0.0721649,CDP,97,52,2.001,42.6367,-89.9493,765,55025,55025
Wisconsin,Franks Field,97,97,151,-0.03,CDP,100,77,1.266,46.5522,-90.5989,766,55073,55073
Wisconsin,Tony,96,96,101,-0.0103093,Village,97,47,2.025,45.4803,-90.9972,767,55035,55035
Wisconsin,Glen Flora,94,94,99,-0.0105263,Village,95,166,0.565,45.497,-90.8935,768,55035,55035
Wisconsin,Melvina,93,93,92,0.0,Village,93,191,0.486,43.8024,-90.7815,769,55063,55063
Wisconsin,Springbrook,93,93,40,0.0813954,CDP,86,129,0.719,45.9469,-91.689,770,55035,55035
Wisconsin,Whittlesey,93,93,122,0.0,CDP,93,83,1.127,45.2206,-90.3232,771,55073,55073
Wisconsin,Waumandee,89,89,73,0.0722892,CDP,83,511,0.174,44.3023,-91.7052,772,55035,55035
Wisconsin,Grand View,87,87,103,-0.0543478,CDP,92,118,0.74,46.368,-91.1034,773,55035,55035
Wisconsin,Conrath,86,86,90,-0.0114943,Village,87,164,0.523,45.3842,-91.0357,774,55035,55035
Wisconsin,Barronett,82,82,138,-0.0238095,CDP,84,107,0.766,45.6362,-91.9937,775,55035,55035
Wisconsin,Paac Ciinak,82,82,75,0.0649351,CDP,77,82,1.0,44.858,-89.1551,776,55073,55073
Wisconsin,Couderay,80,80,80,0.0,Village,80,83,0.969,45.7974,-91.2967,777,55035,55035
Wisconsin,Stockholm,80,80,75,0.0126582,Village,79,85,0.942,44.491,-92.2721,778,55035,55035
Wisconsin,Odanah,79,79,51,0.0675676,CDP,74,30,2.617,46.5941,-90.6779,779,55073,55073
Wisconsin,Gordon,77,77,106,-0.0833333,CDP,84,42,1.835,46.24,-91.7995,780,55035,55035
Wisconsin,Pella,74,74,110,-0.0864198,CDP,81,45,1.637,44.7435,-88.8224,781,55087,55087
Wisconsin,Tilleda,74,74,78,0.0724638,CDP,69,263,0.281,44.8155,-88.9126,782,55087,55087
Wisconsin,Townsend,74,74,110,-0.0512821,CDP,78,151,0.491,45.324,-88.5904,783,55009,55009
Wisconsin,Chelsea,72,72,89,-0.027027,CDP,74,156,0.463,45.2929,-90.3054,784,55073,55073
Wisconsin,Danbury,72,72,114,-0.0886076,CDP,79,57,1.262,46.0095,-92.3763,785,55035,55035
Wisconsin,Saxon,72,72,58,0.0588235,CDP,68,59,1.215,46.4941,-90.41,786,55073,55073
Wisconsin,Easton,71,71,74,0.0757576,CDP,66,69,1.028,43.836,-89.7991,787,55025,55025
Wisconsin,Ingram,69,69,73,-0.0142857,Village,70,69,0.993,45.5056,-90.8137,788,55035,55035
Wisconsin,Jump River,69,69,25,0.078125,CDP,64,185,0.372,45.3555,-90.7964,789,55035,55035
Wisconsin,Babcock,65,65,72,-0.057971,CDP,69,21,3.101,44.3044,-90.1077,790,55073,55073
Wisconsin,Leopolis,64,64,70,0.0666667,CDP,60,158,0.404,44.7655,-88.8447,791,55087,55087
Wisconsin,Argonne,62,62,105,-0.101449,CDP,69,111,0.557,45.6582,-88.8777,792,55073,55073
Wisconsin,Clam Lake,61,61,17,0.0701754,CDP,57,151,0.403,46.1544,-90.9058,793,55035,55035
Wisconsin,Stone Lake,59,59,115,-0.119403,CDP,67,63,0.94,45.8389,-91.5521,794,55035,55035
Wisconsin,Trego,59,59,112,-0.169014,CDP,71,52,1.145,45.9058,-91.8311,795,55035,55035
Wisconsin,Diaperville,58,58,21,0.0740741,CDP,54,131,0.442,46.6048,-90.7135,796,55073,55073
Wisconsin,Long Lake,58,58,68,0.0740741,CDP,54,220,0.264,45.843,-88.6673,797,55073,55073
Wisconsin,Big Falls,56,56,58,0.0,Village,56,118,0.474,44.6156,-89.0202,798,55139,55139
Wisconsin,Thornton,55,55,47,0.0784314,CDP,51,212,0.259,44.7985,-88.6912,799,55087,55087
Wisconsin,Glen Haven,51,51,47,0.0625,CDP,48,23,2.222,42.8357,-91.0608,800,55063,55063
Wisconsin,Yuba,50,50,52,0.0,Village,50,164,0.304,43.5365,-90.4268,801,55063,55063
Wisconsin,Summit Lake,49,49,73,-0.109091,CDP,55,61,0.802,45.377,-89.199,802,55073,55073
Wisconsin,Knowlton,47,47,78,-0.0961538,CDP,52,47,1.0,44.7182,-89.6804,803,55073,55073
Wisconsin,Fulton,46,46,61,0.0697674,CDP,43,295,0.156,42.8053,-89.1259,804,55105,55105
Wisconsin,Green Valley,41,41,80,-0.12766,CDP,47,219,0.187,44.7969,-88.2682,805,55009,55009
Wisconsin,Houlton,40,40,105,-0.365079,CDP,63,27,1.463,45.0659,-92.7885,806,55035,55035
Wisconsin,Ceex Haci,34,34,47,0.0625,CDP,32,268,0.127,44.2818,-89.965,807,55073,55073
