address,zipCode,city,state,rent,bed,bath,sqft,rentPerSf,zillowUrl,latitude,longitude,homeType,zestimate,rentZestimate,imageUrl,fips_code,geo_id
"1121 Lowell Ct #2, Grand Junction, CO 81506",81506,Grand Junction,CO,1545,2.0,1.0,875.0,1.77,https://zillow.com/apartments/grand-junction-co/heather-ridge-beautiful-remodeled-apartments/CjPXL4/,39.093605,-108.55361,APARTMENT,,,https://photos.zillowstatic.com/fp/389a7096fc713fbf16effecef5f661a4-p_e.jpg,,
"2535 Knollwood Dr UNIT 2104, Grand Junction, CO 81505",81505,Grand Junction,CO,1649,1.0,2.0,791.0,2.08,https://zillow.com/apartments/grand-junction-co/rya-suites/CjjXVJ/,39.090477,-108.57478,APARTMENT,,1610.0,https://photos.zillowstatic.com/fp/9b95e95891a425892a9402af81f661c5-p_e.jpg,,
"491 28 1/4 Rd APT 1202, Grand Junction, CO 81501",81501,Grand Junction,CO,1595,2.0,1.0,900.0,1.77,https://zillow.com/apartments/grand-junction-co/peppermill-lofts/CjkDhc/,39.075855,-108.529465,APARTMENT,,1614.0,https://photos.zillowstatic.com/fp/5798f66e8f978429c47f2ad9ac9e19f1-p_e.jpg,,
"347 Eddy Dr #2000-2304, Grand Junction, CO 81501",81501,Grand Junction,CO,1599,1.0,1.0,669.0,2.39,https://zillow.com/apartments/grand-junction-co/eddy/CkH3CT/,39.054935,-108.543304,APARTMENT,,,https://photos.zillowstatic.com/fp/447686b72dcf0bcabdc81f790cfaba0d-p_e.jpg,,
"1800 Main St, Grand Junction, CO 81501",81501,Grand Junction,CO,1275,2.0,1.0,755.0,1.69,https://zillow.com/apartments/grand-junction-co/mesa-vista-apartments/CmPQpL/,39.067802,-108.54416,APARTMENT,,,https://photos.zillowstatic.com/fp/e5964fb17496e583b4414c9983e95f47-p_e.jpg,,
"535 W Aspen Ave #B-301, Fruita, CO 81521",81521,Fruita,CO,1749,2.0,2.0,1057.0,1.65,https://zillow.com/apartments/fruita-co/aspen-residences/5j4n8j/,39.159748,-108.738716,APARTMENT,,,https://photos.zillowstatic.com/fp/7cb1182cdc68c750a7e05d6043625a13-p_e.jpg,,
"2925 North Ave, Grand Junction, CO 81504",81504,Grand Junction,CO,870,2.0,1.0,537.0,1.62,https://zillow.com/apartments/grand-junction-co/grand-rivers/CkkshF/,39.075516,-108.51045,APARTMENT,,,https://photos.zillowstatic.com/fp/ec8eab22afaad9b6de12728ec95dbf5f-p_e.jpg,,
"568 Red Cedar Way, Grand Junction, CO 81504",81504,Grand Junction,CO,2250,3.0,2.0,1517.0,1.48,https://zillow.com/homedetails/568-Red-Cedar-Way-Grand-Junction-CO-81504/305378454_zpid/,39.086372,-108.5107,SINGLE_FAMILY,408200.0,2388.0,https://photos.zillowstatic.com/fp/1875423a3ffc48c2c73590db2de8754e-p_e.jpg,,
"1212 Grand Ave, Grand Junction, CO 81501",81501,Grand Junction,CO,1590,2.0,1.0,900.0,1.77,https://zillow.com/homedetails/1212-Grand-Ave-Grand-Junction-CO-81501/13969683_zpid/,39.07066,-108.551994,SINGLE_FAMILY,399500.0,1542.0,https://photos.zillowstatic.com/fp/1fc27b7124290bdc5900e7bb724f6d55-p_e.jpg,,
"361 Belford Ave, Grand Junction, CO 81501",81501,Grand Junction,CO,1850,2.0,1.0,1214.0,1.52,https://zillow.com/homedetails/361-Belford-Ave-Grand-Junction-CO-81501/13970479_zpid/,39.07611,-108.56637,SINGLE_FAMILY,369800.0,1928.0,https://photos.zillowstatic.com/fp/e3c10100b68be07a835b400a5d1ac84f-p_e.jpg,,
"2476 Orion Way, Grand Junction, CO 81505",81505,Grand Junction,CO,1600,2.0,2.0,1150.0,1.39,https://zillow.com/homedetails/2476-Orion-Way-Grand-Junction-CO-81505/440738846_zpid/,39.10244,-108.594376,APARTMENT,,,https://photos.zillowstatic.com/fp/044a491efba7390d43c018eb0fe86521-p_e.jpg,,
"1059 Cedar Way, Fruita, CO 81521",81521,Fruita,CO,2100,4.0,2.0,1440.0,1.46,https://zillow.com/homedetails/1059-Cedar-Way-Fruita-CO-81521/2067558349_zpid/,39.15817,-108.720406,TOWNHOUSE,355200.0,2071.0,https://photos.zillowstatic.com/fp/eb519bfc4b3c5b0cfe90c99762c78a01-p_e.jpg,,
"3018 Oakwood Dr #3A, Grand Junction, CO 81504",81504,Grand Junction,CO,1850,3.0,2.0,1581.0,1.17,https://zillow.com/homedetails/3018-Oakwood-Dr-3A-Grand-Junction-CO-81504/89242581_zpid/,39.06748,-108.49257,APARTMENT,339200.0,2050.0,https://photos.zillowstatic.com/fp/a0d515deec03b466263f7ea8973ab125-p_e.jpg,,
"257 Coventry Ct UNIT 7, Grand Junction, CO 81503",81503,Grand Junction,CO,1600,2.0,2.0,1088.0,1.47,https://zillow.com/homedetails/257-Coventry-Ct-UNIT-7-Grand-Junction-CO-81503/13961089_zpid/,39.042385,-108.52848,TOWNHOUSE,237600.0,1483.0,"https://maps.googleapis.com/maps/api/staticmap?mobile=false&sensor=true&maptype=satellite&size=575x242&zoom=17&center=39.04238510131836,-108.52848052978516&key=AIzaSyBWYJWCA8FNMQvSe_k3LKfDGJaEgdKwsco&signature=_076juvCmyM7CTWAe7DlcDp4nGY=",,
"2485 Fountainhead Blvd UNIT G-14, Grand Junction, CO 81505",81505,Grand Junction,CO,1710,2.0,2.0,913.0,1.87,https://zillow.com/homedetails/2485-Fountainhead-Blvd-UNIT-G-14-Grand-Junction-CO-81505/61325775_zpid/,39.110382,-108.59312,APARTMENT,262900.0,1731.0,https://photos.zillowstatic.com/fp/724310cf643ea9899f3c478351f7080c-p_e.jpg,,
"1386 Horseshoe Dr, Fruita, CO 81521",81521,Fruita,CO,4950,6.0,5.0,4542.0,1.09,https://zillow.com/homedetails/1386-Horseshoe-Dr-Fruita-CO-81521/96749296_zpid/,39.20807,-108.70995,SINGLE_FAMILY,1260100.0,4953.0,https://photos.zillowstatic.com/fp/7abb81ac35066aba34c6acfc20992668-p_e.jpg,,
"2477 Apex Ave, Grand Junction, CO 81505",81505,Grand Junction,CO,3300,4.0,4.0,1713.0,1.93,https://zillow.com/homedetails/2477-Apex-Ave-Grand-Junction-CO-81505/450767846_zpid/,39.09817,-108.59326,SINGLE_FAMILY,472300.0,,https://photos.zillowstatic.com/fp/72aca05db2f8076e3d50103aa3d8525d-p_e.jpg,,
"2312 Mesa Ave, Grand Junction, CO 81501",81501,Grand Junction,CO,2200,4.0,2.0,1920.0,1.15,https://zillow.com/homedetails/2312-Mesa-Ave-Grand-Junction-CO-81501/13968817_zpid/,39.08296,-108.53796,SINGLE_FAMILY,379300.0,2226.0,https://photos.zillowstatic.com/fp/05919c71c8e51596feb0978e0518e4be-p_e.jpg,,
"1240 Bonita Ct, Grand Junction, CO 81504",81504,Grand Junction,CO,2300,3.0,2.0,1500.0,1.53,https://zillow.com/homedetails/1240-Bonita-Ct-Grand-Junction-CO-81504/348483843_zpid/,39.093845,-108.50337,SINGLE_FAMILY,394400.0,2083.0,https://photos.zillowstatic.com/fp/e6a76ab5716b54e93612dc77fd5f5a64-p_e.jpg,,
"2854 Elm Cir APT 7, Grand Junction, CO 81501",81501,Grand Junction,CO,1000,2.0,1.0,840.0,1.19,https://zillow.com/homedetails/2854-Elm-Cir-APT-7-Grand-Junction-CO-81501/2104431152_zpid/,39.080677,-108.52307,APARTMENT,,1428.0,https://photos.zillowstatic.com/fp/28a3862a696daba4f5fd45c31b792bdd-p_e.jpg,,
"423 Brealyn Ct #B, Grand Junction, CO 81504",81504,Grand Junction,CO,2100,3.0,3.0,1911.0,1.1,https://zillow.com/homedetails/423-Brealyn-Ct-B-Grand-Junction-CO-81504/337985881_zpid/,39.06553,-108.5023,SINGLE_FAMILY,453000.0,3029.0,https://photos.zillowstatic.com/fp/4bed828c2bbe762a9e2e8d8736210b0a-p_e.jpg,,
"1715 N 7th St #B, Grand Junction, CO 81501",81501,Grand Junction,CO,1800,2.0,2.0,1608.0,1.12,https://zillow.com/homedetails/1715-N-7th-St-B-Grand-Junction-CO-81501/2063165342_zpid/,39.082966,-108.56142,APARTMENT,,1908.0,https://photos.zillowstatic.com/fp/49e4de80633450cd59403c0e4bf6e36c-p_e.jpg,,
"491 Mountain Vista Dr, Clifton, CO 81520",81520,Clifton,CO,1950,3.0,2.0,1232.0,1.58,https://zillow.com/homedetails/491-Mountain-Vista-Dr-Clifton-CO-81520/13956665_zpid/,39.076267,-108.44527,SINGLE_FAMILY,331600.0,1856.0,https://photos.zillowstatic.com/fp/88bf119e27636b9e40424ca1a3abb24f-p_e.jpg,,
"2670 Bahamas Way, Grand Junction, CO 81506",81506,Grand Junction,CO,2100,3.0,2.0,1448.0,1.45,https://zillow.com/homedetails/2670-Bahamas-Way-Grand-Junction-CO-81506/13944862_zpid/,39.12429,-108.55772,SINGLE_FAMILY,428000.0,2294.0,https://photos.zillowstatic.com/fp/8d92bab6b74e067e8e73e71df0439369-p_e.jpg,,
"1705 N 7th St #B, Grand Junction, CO 81501",81501,Grand Junction,CO,1800,2.0,2.0,1608.0,1.12,https://zillow.com/homedetails/1705-N-7th-St-B-Grand-Junction-CO-81501/2057031897_zpid/,39.08282,-108.56142,APARTMENT,,1908.0,https://photos.zillowstatic.com/fp/a1d4f2319b5550aa612855ebee0f6fbb-p_e.jpg,,
"175 Applewood Dr, Fruita, CO 81521",81521,Fruita,CO,1850,3.0,2.0,1092.0,1.69,https://zillow.com/homedetails/175-Applewood-Dr-Fruita-CO-81521/13942190_zpid/,39.17054,-108.731186,SINGLE_FAMILY,371600.0,1912.0,https://photos.zillowstatic.com/fp/1614b56984ace913ed5bd8322e6d2338-p_e.jpg,,
"614 Peony Dr #A, Grand Junction, CO 81507",81507,Grand Junction,CO,2800,4.0,2.0,1650.0,1.7,https://zillow.com/homedetails/614-Peony-Dr-A-Grand-Junction-CO-81507/455109031_zpid/,39.094193,-108.662155,SINGLE_FAMILY,567700.0,,https://photos.zillowstatic.com/fp/447b7b27ff3afcbf6a557c0a7214e4d8-p_e.jpg,,
"1355 Elm Ave APT A, Grand Junction, CO 81501",81501,Grand Junction,CO,1700,3.0,1.0,1025.0,1.66,https://zillow.com/homedetails/1355-Elm-Ave-APT-A-Grand-Junction-CO-81501/2105302186_zpid/,39.080772,-108.54916,APARTMENT,,1710.0,https://photos.zillowstatic.com/fp/7da9f41c422b1ad2a3a805de0886d5aa-p_e.jpg,,
"959 Northern Way APT 16, Grand Junction, CO 81506",81506,Grand Junction,CO,1100,2.0,1.0,,,https://zillow.com/apartments/grand-junction-co/northern-way-959/5XqzYL/,39.09226,-108.555786,APARTMENT,,1075.0,https://photos.zillowstatic.com/fp/ffae30b82c947f9535b6d82cf5d97d6c-p_e.jpg,,
"1362 Elm Ave, Grand Junction, CO 81501",81501,Grand Junction,CO,1400,2.0,1.0,750.0,1.87,https://zillow.com/homedetails/1362-Elm-Ave-Grand-Junction-CO-81501/89241983_zpid/,39.081177,-108.54938,SINGLE_FAMILY,544800.0,1474.0,https://photos.zillowstatic.com/fp/98f30ccbfbec0ce2ed11678a49705c7d-p_e.jpg,,
"1930 Grand Ave, Grand Junction, CO 81501",81501,Grand Junction,CO,1125,2.0,1.0,880.0,1.28,https://zillow.com/homedetails/1930-Grand-Ave-Grand-Junction-CO-81501/305377802_zpid/,39.07048,-108.541725,APARTMENT,,1243.0,https://photos.zillowstatic.com/fp/3a660e5129078c9a764fa821a0b37b2e-p_e.jpg,,
"1731 Palisade St, Grand Junction, CO 81503",81503,Grand Junction,CO,1300,1.0,1.0,851.0,1.53,https://zillow.com/homedetails/1731-Palisade-St-Grand-Junction-CO-81503/13973423_zpid/,39.049488,-108.55904,SINGLE_FAMILY,222500.0,1189.0,https://photos.zillowstatic.com/fp/3b99445ff06cc68db0cf024964a56692-p_e.jpg,,
"942 Golden Jubilee Dr, Fruita, CO 81521",81521,Fruita,CO,2400,3.0,2.0,1705.0,1.41,https://zillow.com/homedetails/942-Golden-Jubilee-Dr-Fruita-CO-81521/113060071_zpid/,39.17411,-108.74004,SINGLE_FAMILY,692800.0,2463.0,https://photos.zillowstatic.com/fp/69c0240858bd456135f01cb213fe68ed-p_e.jpg,,
"930 Ouray Ave, Grand Junction, CO 81501",81501,Grand Junction,CO,2300,3.0,2.0,1880.0,1.22,https://zillow.com/homedetails/930-Ouray-Ave-Grand-Junction-CO-81501/13970319_zpid/,39.07159,-108.5567,SINGLE_FAMILY,514600.0,2310.0,https://photos.zillowstatic.com/fp/2af7aca90aa6ddeb4ba89b057fe20da0-p_e.jpg,,
"2831 S Forest Ln, Grand Junction, CO 81501",81501,Grand Junction,CO,2500,4.0,3.0,1396.0,1.79,https://zillow.com/homedetails/2831-S-Forest-Ln-Grand-Junction-CO-81501/72299986_zpid/,39.06051,-108.52758,SINGLE_FAMILY,364200.0,2501.0,https://photos.zillowstatic.com/fp/de157b6d57b1c753fea1e0fd4d8f079d-p_e.jpg,,
"587 Pioneer Rd, Grand Junction, CO 81504",81504,Grand Junction,CO,2000,3.0,2.0,1408.0,1.42,https://zillow.com/homedetails/587-Pioneer-Rd-Grand-Junction-CO-81504/13952816_zpid/,39.090237,-108.50398,SINGLE_FAMILY,386600.0,2005.0,https://photos.zillowstatic.com/fp/050298bfbad19f40b3f256a2f0f7f847-p_e.jpg,,
"585 1/2 Belhaven Way, Grand Junction, CO 81501",81501,Grand Junction,CO,1900,3.0,2.0,1244.0,1.53,https://zillow.com/homedetails/585-1-2-Belhaven-Way-Grand-Junction-CO-81501/72299896_zpid/,39.089905,-108.51835,SINGLE_FAMILY,334200.0,1984.0,https://photos.zillowstatic.com/fp/1aacf19a6ded0bd13c6b4a538e3885d7-p_e.jpg,,
"2946 D Rd UNIT D1, Grand Junction, CO 81504",81504,Grand Junction,CO,1900,3.0,3.0,1519.0,1.25,https://zillow.com/homedetails/2946-D-Rd-UNIT-D1-Grand-Junction-CO-81504/82299532_zpid/,39.063084,-108.50667,SINGLE_FAMILY,298200.0,2024.0,https://photos.zillowstatic.com/fp/141b5f3d98dd4b3c66d837138e8544d9-p_e.jpg,,
"224 Teller Ave, Grand Junction, CO 81501",81501,Grand Junction,CO,1300,1.0,1.0,660.0,1.97,https://zillow.com/homedetails/224-Teller-Ave-Grand-Junction-CO-81501/2078607926_zpid/,39.07544,-108.569084,SINGLE_FAMILY,219900.0,1221.0,https://photos.zillowstatic.com/fp/4fbd398f6eea0298460d559dd8235461-p_e.jpg,,
"1444 Kennedy Ave #3, Grand Junction, CO 81501",81501,Grand Junction,CO,2400,3.0,3.0,1511.0,1.59,https://zillow.com/homedetails/1444-Kennedy-Ave-3-Grand-Junction-CO-81501/2053012972_zpid/,39.080273,-108.54814,APARTMENT,,2145.0,https://photos.zillowstatic.com/fp/e3f3301a5e086cdca893886b8b27c17c-p_e.jpg,,
"1234 Bonito Ave, Grand Junction, CO 81506",81506,Grand Junction,CO,1800,3.0,1.0,1155.0,1.56,https://zillow.com/homedetails/1234-Bonito-Ave-Grand-Junction-CO-81506/13963058_zpid/,39.094723,-108.550644,SINGLE_FAMILY,339300.0,1994.0,https://photos.zillowstatic.com/fp/803ce04fa9a6ca3217f74c64ac1a7c0d-p_e.jpg,,
"2908 El Torro Rd UNIT B, Grand Junction, CO 81503",81503,Grand Junction,CO,1900,3.0,2.0,1397.0,1.36,https://zillow.com/homedetails/2908-El-Torro-Rd-UNIT-B-Grand-Junction-CO-81503/2093796009_zpid/,39.03818,-108.51342,APARTMENT,,1936.0,https://photos.zillowstatic.com/fp/789e268c7e7918cd5235b9c0217b82db-p_e.jpg,,
"494 1/2 Anjou Dr, Grand Junction, CO 81504",81504,Grand Junction,CO,2200,4.0,2.0,1632.0,1.35,https://zillow.com/homedetails/494-1-2-Anjou-Dr-Grand-Junction-CO-81504/13958440_zpid/,39.07651,-108.48974,SINGLE_FAMILY,372900.0,2270.0,https://photos.zillowstatic.com/fp/a8b5ee2c74e7ec706d6a594bc04b8528-p_e.jpg,,
"2015 Gunnison Ave, Grand Junction, CO 81501",81501,Grand Junction,CO,2100,3.0,2.0,1338.0,1.57,https://zillow.com/homedetails/2015-Gunnison-Ave-Grand-Junction-CO-81501/13969400_zpid/,39.07306,-108.541534,SINGLE_FAMILY,329600.0,2160.0,https://photos.zillowstatic.com/fp/4b0a98ec04d0f6877068de82e2c5c011-p_e.jpg,,
"251 29 Rd UNIT B, Grand Junction, CO 81503",81503,Grand Junction,CO,1800,3.0,2.0,,,https://zillow.com/apartments/grand-junction-co/29-rd-251/5Xm9wh/,39.041546,-108.5156,APARTMENT,,2048.0,https://photos.zillowstatic.com/fp/9379907bfe6e9e1a0c924c4e2a42c30e-p_e.jpg,,
"786 Dover St, Fruita, CO 81521",81521,Fruita,CO,2200,3.0,2.0,1218.0,1.81,https://zillow.com/homedetails/786-Dover-St-Fruita-CO-81521/63345330_zpid/,39.14691,-108.73262,SINGLE_FAMILY,397300.0,2025.0,https://photos.zillowstatic.com/fp/01a0a13477084eca1c8d72dc0903d59c-p_e.jpg,,
"2463 Flat Top Ln #C, Grand Junction, CO 81505",81505,Grand Junction,CO,2200,2.0,3.0,1988.0,1.11,https://zillow.com/homedetails/2463-Flat-Top-Ln-C-Grand-Junction-CO-81505/337985968_zpid/,39.09316,-108.59618,SINGLE_FAMILY,408800.0,2236.0,https://photos.zillowstatic.com/fp/a04c0a5b34476534eb28fb1b4bce8fb9-p_e.jpg,,
"436 Rockaway Ave, Grand Junction, CO 81501",81501,Grand Junction,CO,1050,1.0,1.0,686.0,1.53,https://zillow.com/homedetails/436-Rockaway-Ave-Grand-Junction-CO-81501/13971334_zpid/,39.064064,-108.57466,SINGLE_FAMILY,193500.0,1183.0,https://photos.zillowstatic.com/fp/70682a8a79ebb5b0c19a3cf4de543121-p_e.jpg,,
"622 W Gunnison Ave #1001, Grand Junction, CO 81501",81501,Grand Junction,CO,1800,1.0,1.0,1000.0,1.8,https://zillow.com/homedetails/622-W-Gunnison-Ave-1001-Grand-Junction-CO-81501/455383364_zpid/,39.073395,-108.57798,APARTMENT,,,https://photos.zillowstatic.com/fp/af136db6b86be0073bc39b8f65c1b631-p_e.jpg,,
"512 1/2 Eastgate Ct, Grand Junction, CO 81501",81501,Grand Junction,CO,2300,2.0,2.0,1300.0,1.77,https://zillow.com/homedetails/512-1-2-Eastgate-Ct-Grand-Junction-CO-81501/13951975_zpid/,39.07947,-108.53031,TOWNHOUSE,314100.0,1754.0,https://photos.zillowstatic.com/fp/a4e257463a3bfdc13a1a54bc84728899-p_e.jpg,,
"1440 Hall Ave, Grand Junction, CO 81501",81501,Grand Junction,CO,1700,2.0,2.0,984.0,1.73,https://zillow.com/homedetails/1440-Hall-Ave-Grand-Junction-CO-81501/13968330_zpid/,39.08411,-108.54841,SINGLE_FAMILY,397300.0,1724.0,https://photos.zillowstatic.com/fp/615fa0da9574354de38ea5554a579cb4-p_e.jpg,,
"1163 Inverness Way, Fruita, CO 81521",81521,Fruita,CO,2050,3.0,2.0,1320.0,1.55,https://zillow.com/homedetails/1163-Inverness-Way-Fruita-CO-81521/61325618_zpid/,39.158634,-108.717865,TOWNHOUSE,352100.0,1973.0,https://photos.zillowstatic.com/fp/fa78921778f6bdb933c2983a4622168c-p_e.jpg,,
"436B Donogal Dr, Grand Junction, CO 81504",81504,Grand Junction,CO,2350,3.0,2.0,1520.0,1.55,https://zillow.com/homedetails/436B-Donogal-Dr-Grand-Junction-CO-81504/454093615_zpid/,39.06822,-108.50595,SINGLE_FAMILY,405800.0,,https://photos.zillowstatic.com/fp/84413b0a032c83bf2468f34e45e361e3-p_e.jpg,,
"537 N Mountain Oak Ct #537, Clifton, CO 81520",81520,Clifton,CO,2500,5.0,2.0,,,https://zillow.com/homedetails/537-N-Mountain-Oak-Ct-537-Clifton-CO-81520/455270283_zpid/,39.08258,-108.445045,APARTMENT,,,https://photos.zillowstatic.com/fp/b711219e76380b1d32353d112d343f3c-p_e.jpg,,
"2887 Music Ave, Grand Junction, CO 81506",81506,Grand Junction,CO,2800,5.0,2.0,2360.0,1.19,https://zillow.com/homedetails/2887-Music-Ave-Grand-Junction-CO-81506/13951046_zpid/,39.096508,-108.517815,SINGLE_FAMILY,482100.0,2638.0,"https://maps.googleapis.com/maps/api/staticmap?mobile=false&sensor=true&maptype=satellite&size=575x242&zoom=17&center=39.09650802612305,-108.51781463623047&key=AIzaSyBWYJWCA8FNMQvSe_k3LKfDGJaEgdKwsco&signature=W9qVt1MBtYl-Y3RhRbhU5J4MJ1w=",,
"492 Coronado Way UNIT C, Clifton, CO 81520",81520,Clifton,CO,1500,3.0,2.0,1090.0,1.38,https://zillow.com/homedetails/492-Coronado-Way-UNIT-C-Clifton-CO-81520/63860430_zpid/,39.07668,-108.458176,APARTMENT,201400.0,1525.0,https://photos.zillowstatic.com/fp/9b17ff831a633a0f54f1231efbc81b74-p_e.jpg,,
"3296 1/2 Lombardy Ln #4, Clifton, CO 81520",81520,Clifton,CO,1450,2.0,1.0,937.0,1.55,https://zillow.com/homedetails/3296-1-2-Lombardy-Ln-4-Clifton-CO-81520/377029190_zpid/,39.089394,-108.441574,APARTMENT,,1438.0,https://photos.zillowstatic.com/fp/a7a2d837bdd8583bfef14429e6927897-p_e.jpg,,
"4329 Racquet Ct, Grand Junction, CO 81506",81506,Grand Junction,CO,3400,3.0,2.0,2234.0,1.52,https://zillow.com/homedetails/4329-Racquet-Ct-Grand-Junction-CO-81506/13962916_zpid/,39.105488,-108.54948,SINGLE_FAMILY,605300.0,2661.0,https://photos.zillowstatic.com/fp/e0c40669def713a0e0761b5d923a0ead-p_e.jpg,,
"414 N 24th St, Grand Junction, CO 81501",81501,Grand Junction,CO,2200,4.0,1.0,1200.0,1.83,https://zillow.com/homedetails/414-N-24th-St-Grand-Junction-CO-81501/13969319_zpid/,39.070465,-108.53708,SINGLE_FAMILY,296800.0,1954.0,https://photos.zillowstatic.com/fp/01278d54e826e67d24607f798f8fc752-p_e.jpg,,
"1215 Breeze Dr, Fruita, CO 81521",81521,Fruita,CO,2350,3.0,2.0,1390.0,1.69,https://zillow.com/homedetails/1215-Breeze-Dr-Fruita-CO-81521/13941675_zpid/,39.16594,-108.74711,SINGLE_FAMILY,432300.0,2429.0,https://photos.zillowstatic.com/fp/2a10d2d1b8f3dcd315d16dfeaf610a46-p_e.jpg,,
"1178-18 1/2 Rd, Fruita, CO 81521",81521,Fruita,CO,1500,,1.0,850.0,1.76,https://zillow.com/homedetails/1178-18-1-2-Rd-Fruita-CO-81521/331598194_zpid/,39.175392,-108.70978,APARTMENT,720100.0,1481.0,https://photos.zillowstatic.com/fp/8727d55ff22ed04a06240a2fd33c2c24-p_e.jpg,,
"296 Narrow Leaf Dr, Fruita, CO 81521",81521,Fruita,CO,2600,4.0,2.0,1762.0,1.48,https://zillow.com/homedetails/296-Narrow-Leaf-Dr-Fruita-CO-81521/61289080_zpid/,39.154236,-108.713264,SINGLE_FAMILY,510200.0,2451.0,https://photos.zillowstatic.com/fp/03a0bdcec47172a22901dac9c40bebc4-p_e.jpg,,
"140 S Ash St #A, Fruita, CO 81521",81521,Fruita,CO,1700,2.0,1.0,800.0,2.13,https://zillow.com/homedetails/140-S-Ash-St-A-Fruita-CO-81521/2060665255_zpid/,39.15776,-108.72523,APARTMENT,,1368.0,https://photos.zillowstatic.com/fp/98611250746553330ecee01d27aae106-p_e.jpg,,
"490 Sundown Dr, Grand Junction, CO 81504",81504,Grand Junction,CO,2150,3.0,2.0,1252.0,1.72,https://zillow.com/homedetails/490-Sundown-Dr-Grand-Junction-CO-81504/13957678_zpid/,39.0764,-108.4709,SINGLE_FAMILY,363300.0,1878.0,https://photos.zillowstatic.com/fp/5a351e1048b9ddd21ffc5b98372ce505-p_e.jpg,,
"373 Ridges Blvd APT 113, Grand Junction, CO 81507",81507,Grand Junction,CO,1750,2.0,2.0,1024.0,1.71,https://zillow.com/homedetails/373-Ridges-Blvd-APT-113-Grand-Junction-CO-81507/13972541_zpid/,39.05895,-108.61099,APARTMENT,259600.0,1665.0,https://photos.zillowstatic.com/fp/79309ff325ecea67cd2a186055162acf-p_e.jpg,,
"3133 Platte River Dr, Grand Junction, CO 81504",81504,Grand Junction,CO,3000,3.0,2.0,1275.0,2.35,https://zillow.com/homedetails/3133-Platte-River-Dr-Grand-Junction-CO-81504/331600517_zpid/,39.062183,-108.473404,SINGLE_FAMILY,377300.0,2404.0,https://photos.zillowstatic.com/fp/9ce6861fc6a904e12ce45ee261e5fa75-p_e.jpg,,
"2945 Bunting Ave APT 5, Grand Junction, CO 81504",81504,Grand Junction,CO,1800,3.0,2.0,1000.0,1.8,https://zillow.com/homedetails/2945-Bunting-Ave-APT-5-Grand-Junction-CO-81504/13953311_zpid/,39.07861,-108.50687,TOWNHOUSE,265400.0,1680.0,https://photos.zillowstatic.com/fp/c77e40f457bb36645a5cba9b2821571d-p_e.jpg,,
"1346 Kennedy Ave #1348, Grand Junction, CO 81501",81501,Grand Junction,CO,1525,2.0,1.0,,,https://zillow.com/homedetails/1346-Kennedy-Ave-1348-Grand-Junction-CO-81501/440719384_zpid/,39.08036,-108.54945,TOWNHOUSE,336400.0,,https://photos.zillowstatic.com/fp/2d871a9f1ee0eacc3aa49efaad31df21-p_e.jpg,,
"495 1/2 32 1/8 Rd APT 3, Clifton, CO 81520",81520,Clifton,CO,1200,2.0,1.0,850.0,1.41,https://zillow.com/homedetails/495-1-2-32-1-8-Rd-APT-3-Clifton-CO-81520/454846930_zpid/,39.07656,-108.45691,APARTMENT,,,https://photos.zillowstatic.com/fp/5c5139968ecb2810fd2096c56a373667-p_e.jpg,,
"2217 1/2 Broadway #B, Grand Junction, CO 81507",81507,Grand Junction,CO,1750,2.0,1.0,1000.0,1.75,https://zillow.com/homedetails/2217-1-2-Broadway-B-Grand-Junction-CO-81507/2057628163_zpid/,39.081615,-108.64109,TOWNHOUSE,295300.0,1541.0,https://photos.zillowstatic.com/fp/035866b0dc4b1ecf7fcbbf3fdb1b4746-p_e.jpg,,
"1930 N 21st St, Grand Junction, CO 81501",81501,Grand Junction,CO,1800,3.0,1.0,960.0,1.88,https://zillow.com/homedetails/1930-N-21st-St-Grand-Junction-CO-81501/13967878_zpid/,39.085175,-108.540955,SINGLE_FAMILY,296200.0,1845.0,https://photos.zillowstatic.com/fp/1fbf049eea376c4a9815c82a09507788-p_e.jpg,,
"200 Secret Canyon Ct, Grand Junction, CO 81503",81503,Grand Junction,CO,2800,3.0,2.0,1672.0,1.67,https://zillow.com/homedetails/200-Secret-Canyon-Ct-Grand-Junction-CO-81503/113061808_zpid/,39.03421,-108.55512,SINGLE_FAMILY,470800.0,2544.0,https://photos.zillowstatic.com/fp/5491d57e0b1e788e7c5b3817b8423d75-p_e.jpg,,
"1450 Colorado Ave APT D, Grand Junction, CO 81501",81501,Grand Junction,CO,1750,3.0,1.0,1250.0,1.4,https://zillow.com/homedetails/1450-Colorado-Ave-APT-D-Grand-Junction-CO-81501/454932739_zpid/,39.06659,-108.547745,APARTMENT,,,https://photos.zillowstatic.com/fp/84d22e451ed44d0c31bc702b06a6d820-p_e.jpg,,
"166 N Mulberry St, Fruita, CO 81521",81521,Fruita,CO,1900,3.0,2.0,1068.0,1.78,https://zillow.com/homedetails/166-N-Mulberry-St-Fruita-CO-81521/13943498_zpid/,39.160194,-108.73214,SINGLE_FAMILY,390000.0,1865.0,https://photos.zillowstatic.com/fp/23b662539a977361f762775530354abb-p_e.jpg,,
"212 Gunnison Ave UNIT B, Grand Junction, CO 81501",81501,Grand Junction,CO,1700,2.0,2.0,750.0,2.27,https://zillow.com/homedetails/212-Gunnison-Ave-UNIT-B-Grand-Junction-CO-81501/2062388397_zpid/,39.073753,-108.56912,APARTMENT,,1639.0,https://photos.zillowstatic.com/fp/e7744e7c93beb478d8294a5d25e62a6c-p_e.jpg,,
"623 Saffron Way, Grand Junction, CO 81505",81505,Grand Junction,CO,2150,2.0,2.0,1547.0,1.39,https://zillow.com/homedetails/623-Saffron-Way-Grand-Junction-CO-81505/113059340_zpid/,39.094967,-108.57705,SINGLE_FAMILY,450900.0,2145.0,https://photos.zillowstatic.com/fp/c38cebf5be56f9b875f35d4ffbeb5a62-p_e.jpg,,
"2778 Caspian Way, Grand Junction, CO 81503",81503,Grand Junction,CO,2400,3.0,3.0,1736.0,1.38,https://zillow.com/homedetails/2778-Caspian-Way-Grand-Junction-CO-81503/452961336_zpid/,39.04094,-108.537865,TOWNHOUSE,412800.0,,https://photos.zillowstatic.com/fp/fdcc67ab4bc7d1e08d5a6e499df0547c-p_e.jpg,,
"1031 Colorado Ave #B, Grand Junction, CO 81501",81501,Grand Junction,CO,1750,3.0,1.0,1000.0,1.75,https://zillow.com/homedetails/1031-Colorado-Ave-B-Grand-Junction-CO-81501/446665665_zpid/,39.066032,-108.55504,APARTMENT,,,https://photos.zillowstatic.com/fp/0d4501b6763e57c0e492cdac60fbca22-p_e.jpg,,
"1250 Elm Ave #1250, Grand Junction, CO 81501",81501,Grand Junction,CO,1600,2.0,1.0,672.0,2.38,https://zillow.com/homedetails/1250-Elm-Ave-1250-Grand-Junction-CO-81501/455005457_zpid/,39.081333,-108.5506,APARTMENT,,,https://photos.zillowstatic.com/fp/d0053d1425cade186c5708c7740d756e-p_e.jpg,,
"1545 N 19th St, Grand Junction, CO 81501",81501,Grand Junction,CO,2500,3.0,2.0,1561.0,1.6,https://zillow.com/homedetails/1545-N-19th-St-Grand-Junction-CO-81501/13968448_zpid/,39.081726,-108.543396,SINGLE_FAMILY,526900.0,2718.0,https://photos.zillowstatic.com/fp/8135fdf949bceaee9710cb8983aebc92-p_e.jpg,,
"701 Glen Ct UNIT 30, Grand Junction, CO 81506",81506,Grand Junction,CO,2250,2.0,2.0,1340.0,1.68,https://zillow.com/homedetails/701-Glen-Ct-UNIT-30-Grand-Junction-CO-81506/50947498_zpid/,39.09424,-108.56125,TOWNHOUSE,318600.0,1941.0,https://photos.zillowstatic.com/fp/0abbd38c3421bd7dd0e339fe35201fd3-p_e.jpg,,
"3126 Applewood St, Grand Junction, CO 81506",81506,Grand Junction,CO,2795,3.0,3.0,2067.0,1.35,https://zillow.com/homedetails/3126-Applewood-St-Grand-Junction-CO-81506/13963355_zpid/,39.095463,-108.53778,SINGLE_FAMILY,539900.0,2563.0,https://photos.zillowstatic.com/fp/0e3bf4ce66bd8d990ac694e56c4e67ff-p_e.jpg,,
"2650 N 1st St APT 9, Grand Junction, CO 81501",81501,Grand Junction,CO,1500,2.0,2.0,861.0,1.74,https://zillow.com/homedetails/2650-N-1st-St-APT-9-Grand-Junction-CO-81501/13966938_zpid/,39.091602,-108.57038,APARTMENT,215800.0,1390.0,https://photos.zillowstatic.com/fp/3afad14d86fe71c8f4ab4943fb477d30-p_e.jpg,,
"420 Orchard Ave, Grand Junction, CO 81501",81501,Grand Junction,CO,2400,4.0,2.0,1848.0,1.3,https://zillow.com/homedetails/420-Orchard-Ave-Grand-Junction-CO-81501/13966832_zpid/,39.084797,-108.56485,SINGLE_FAMILY,406400.0,2388.0,https://photos.zillowstatic.com/fp/cc25577a6442a51fa507694929393097-p_e.jpg,,
"811 Gunnison Ave, Grand Junction, CO 81501",81501,Grand Junction,CO,2300,4.0,2.0,1580.0,1.46,https://zillow.com/homedetails/811-Gunnison-Ave-Grand-Junction-CO-81501/13970229_zpid/,39.07306,-108.558945,SINGLE_FAMILY,423200.0,2377.0,https://photos.zillowstatic.com/fp/74bc80b60fe7e2d1a62c11185f8e4719-p_e.jpg,,
"486 Red River Loop, Clifton, CO 81520",81520,Clifton,CO,2100,2.0,1.0,785.0,2.68,https://zillow.com/homedetails/486-Red-River-Loop-Clifton-CO-81520/331600487_zpid/,39.070335,-108.43773,SINGLE_FAMILY,397800.0,1974.0,https://photos.zillowstatic.com/fp/8a7482599383a539d397ccab76be0329-p_e.jpg,,
"391 Valley View Way, Grand Junction, CO 81507",81507,Grand Junction,CO,2800,4.0,3.0,1976.0,1.42,https://zillow.com/homedetails/391-Valley-View-Way-Grand-Junction-CO-81507/13972488_zpid/,39.061565,-108.61163,SINGLE_FAMILY,478900.0,2706.0,https://photos.zillowstatic.com/fp/069e89f27d62eb0f308b0b6f50844085-p_e.jpg,,
"411 W 4th St, Palisade, CO 81526",81526,Palisade,CO,2300,3.0,2.0,1500.0,1.53,https://zillow.com/homedetails/411-W-4th-St-Palisade-CO-81526/13947270_zpid/,39.109177,-108.35596,SINGLE_FAMILY,522500.0,2048.0,https://photos.zillowstatic.com/fp/0dd5fcd62f4253e8eddde22f7e316c2c-p_e.jpg,,
"3782 F 1/4 Rd, Palisade, CO 81526",81526,Palisade,CO,2950,4.0,2.0,2500.0,1.18,https://zillow.com/homedetails/3782-F-1-4-Rd-Palisade-CO-81526/13981151_zpid/,39.097126,-108.34976,SINGLE_FAMILY,833700.0,2903.0,https://photos.zillowstatic.com/fp/04384f4871f5d28e9214b2a5866fe75a-p_e.jpg,,
"1320 Elm Ave, Grand Junction, CO 81501",81501,Grand Junction,CO,2250,3.0,2.0,,,https://zillow.com/homedetails/1320-Elm-Ave-Grand-Junction-CO-81501/13968526_zpid/,39.081207,-108.55023,TOWNHOUSE,379300.0,2051.0,https://photos.zillowstatic.com/fp/f88a03d99bb877ee3afd3566d878d581-p_e.jpg,,
"259 Quincy Ln APT A, Grand Junction, CO 81503",81503,Grand Junction,CO,2100,2.0,1.0,900.0,2.33,https://zillow.com/homedetails/259-Quincy-Ln-APT-A-Grand-Junction-CO-81503/13961071_zpid/,39.042828,-108.52803,TOWNHOUSE,254800.0,1384.0,https://photos.zillowstatic.com/fp/59c13dc25de0df5d7a4f3db3189cbb99-p_e.jpg,,
"2772 Caspian Way #A, Grand Junction, CO 81503",81503,Grand Junction,CO,2400,3.0,3.0,1512.0,1.59,https://zillow.com/homedetails/2772-Caspian-Way-A-Grand-Junction-CO-81503/439163622_zpid/,39.04097,-108.53829,TOWNHOUSE,,,https://photos.zillowstatic.com/fp/ca9bcbe0b050a8591ac454361dd82955-p_e.jpg,,
"439 Bluebell Ln #2, Grand Junction, CO 81507",81507,Grand Junction,CO,1650,2.0,1.0,800.0,2.06,https://zillow.com/homedetails/439-Bluebell-Ln-2-Grand-Junction-CO-81507/347563342_zpid/,39.068287,-108.61305,APARTMENT,,1299.0,https://photos.zillowstatic.com/fp/28805b4a38d8334e326add747133a867-p_e.jpg,,
"2457 Thunder Mountain Dr UNIT 221, Grand Junction, CO 81505",81505,Grand Junction,CO,2250,2.0,2.0,1180.0,1.91,https://zillow.com/homedetails/2457-Thunder-Mountain-Dr-UNIT-221-Grand-Junction-CO-81505/58184686_zpid/,39.094536,-108.595695,APARTMENT,,1820.0,https://photos.zillowstatic.com/fp/c410fda9f012c55ceb0bddef5d51135e-p_e.jpg,,
"1403 Glenwood Ave APT 1, Grand Junction, CO 81501",81501,Grand Junction,CO,1300,2.0,1.0,,,https://zillow.com/homedetails/1403-Glenwood-Ave-APT-1-Grand-Junction-CO-81501/453597523_zpid/,39.078064,-108.54925,APARTMENT,,,https://photos.zillowstatic.com/fp/650b1c03f63538510bbdd45d5945c969-p_e.jpg,,
"615 Gunnison Ave #617-1/2, Grand Junction, CO 81501",81501,Grand Junction,CO,1425,1.0,1.0,650.0,2.19,https://zillow.com/homedetails/615-Gunnison-Ave-617-1-2-Grand-Junction-CO-81501/2078593536_zpid/,39.0731,-108.56226,APARTMENT,,1189.0,https://photos.zillowstatic.com/fp/34feb0f2868907595b642760636f2de6-p_e.jpg,,
"655 Serenity Ln, Grand Junction, CO 81505",81505,Grand Junction,CO,1875,2.0,3.0,1368.0,1.37,https://zillow.com/homedetails/655-Serenity-Ln-Grand-Junction-CO-81505/113061633_zpid/,39.100353,-108.598434,TOWNHOUSE,308300.0,1787.0,https://photos.zillowstatic.com/fp/e74d42cca4b854e4d2f73dcb11698894-p_e.jpg,,
"1025 Kannah Creek Rd, Whitewater, CO 81527",81527,Whitewater,CO,2900,3.0,2.0,2680.0,1.08,https://zillow.com/homedetails/1025-Kannah-Creek-Rd-Whitewater-CO-81527/305378014_zpid/,38.932697,-108.37482,SINGLE_FAMILY,643400.0,3104.0,https://photos.zillowstatic.com/fp/9d18b74a074df5948451fc7da277fbf1-p_e.jpg,,
"2965 Red Cloud Ln, Grand Junction, CO 81504",81504,Grand Junction,CO,3500,3.0,3.0,1816.0,1.93,https://zillow.com/homedetails/2965-Red-Cloud-Ln-Grand-Junction-CO-81504/337985979_zpid/,39.064514,-108.50328,TOWNHOUSE,413400.0,2907.0,https://photos.zillowstatic.com/fp/00b26174fc1e0e71c6f298a81a1ed8aa-p_e.jpg,,
"562 Red Cedar Way, Grand Junction, CO 81504",81504,Grand Junction,CO,2970,4.0,2.0,1814.0,1.64,https://zillow.com/homedetails/562-Red-Cedar-Way-Grand-Junction-CO-81504/305378287_zpid/,39.085922,-108.5107,SINGLE_FAMILY,447900.0,2615.0,https://photos.zillowstatic.com/fp/d6cf19cce95b66eac2a8f2cbb5842e77-p_e.jpg,,
"60O9 Panorama Dr, Grand Junction, CO 81507",81507,Grand Junction,CO,1500,2.0,1.0,1100.0,1.36,https://zillow.com/homedetails/60O9-Panorama-Dr-Grand-Junction-CO-81507/2069978029_zpid/,39.09478,-108.658775,APARTMENT,,1483.0,https://photos.zillowstatic.com/fp/8cc8e498c21f2d401d8aa6162aba6df3-p_e.jpg,,
"1254 Glenwood Ave, Grand Junction, CO 81501",81501,Grand Junction,CO,1650,3.0,2.0,1350.0,1.22,https://zillow.com/homedetails/1254-Glenwood-Ave-Grand-Junction-CO-81501/455347117_zpid/,39.078564,-108.55099,APARTMENT,,,https://photos.zillowstatic.com/fp/30281c5504c07840779bdb306c5e9da1-p_e.jpg,,
"506 E Pabor Ave, Fruita, CO 81521",81521,Fruita,CO,2100,2.0,1.0,880.0,2.39,https://zillow.com/homedetails/506-E-Pabor-Ave-Fruita-CO-81521/13943136_zpid/,39.160446,-108.7286,SINGLE_FAMILY,370600.0,1869.0,https://photos.zillowstatic.com/fp/fdf9eced5c182bee814002fd16f654c6-p_e.jpg,,
"665 Lincoln Ct, Grand Junction, CO 81507",81507,Grand Junction,CO,5995,4.0,4.0,5711.0,1.05,https://zillow.com/homedetails/665-Lincoln-Ct-Grand-Junction-CO-81507/92356366_zpid/,39.09924,-108.67474,SINGLE_FAMILY,1255800.0,5265.0,https://photos.zillowstatic.com/fp/9c1197e88ae606755ec6024e8755ec1d-p_e.jpg,,
"2481 Thunder Mountain Dr UNIT 57, Grand Junction, CO 81505",81505,Grand Junction,CO,1700,2.0,3.0,1216.0,1.4,https://zillow.com/homedetails/2481-Thunder-Mountain-Dr-UNIT-57-Grand-Junction-CO-81505/89242553_zpid/,39.094627,-108.592964,APARTMENT,,1926.0,https://photos.zillowstatic.com/fp/5d5598e9a9d6853319437b27bdb0ca91-p_e.jpg,,
"487 Tracy Dr APT 3, Clifton, CO 81520",81520,Clifton,CO,1300,2.0,1.0,904.0,1.44,https://zillow.com/homedetails/487-Tracy-Dr-APT-3-Clifton-CO-81520/13956847_zpid/,39.075375,-108.45783,APARTMENT,141000.0,1398.0,https://photos.zillowstatic.com/fp/d51a978bfb7538fd00ea034d7acc8410-p_e.jpg,,
"488-32 1/8 Rd #2, Clifton, CO 81520",81520,Clifton,CO,1025,2.0,1.0,898.0,1.14,https://zillow.com/homedetails/488-32-1-8-Rd-2-Clifton-CO-81520/13956879_zpid/,39.07567,-108.45621,APARTMENT,157300.0,1199.0,https://photos.zillowstatic.com/fp/aaeb0eac390fc04d02350424efa69a1e-p_e.jpg,,
"410 W 8th St #4, Palisade, CO 81526",81526,Palisade,CO,750,,1.0,,,https://zillow.com/homedetails/410-W-8th-St-4-Palisade-CO-81526/455098099_zpid/,39.10647,-108.35654,APARTMENT,,,https://photos.zillowstatic.com/fp/8e989e95e0e96e84506fb246b2819116-p_e.jpg,,
"3246 1/2 D 1/4 Rd, Clifton, CO 81520",81520,Clifton,CO,1295,2.0,1.0,1150.0,1.13,https://zillow.com/homedetails/3246-1-2-D-1-4-Rd-Clifton-CO-81520/89241317_zpid/,39.06664,-108.450775,TOWNHOUSE,420700.0,1378.0,https://photos.zillowstatic.com/fp/1c726446e8eadd53af0e9e7532dcfe7f-p_e.jpg,,
"494 Arabian Way, Grand Junction, CO 81504",81504,Grand Junction,CO,1875,3.0,2.0,1350.0,1.39,https://zillow.com/homedetails/494-Arabian-Way-Grand-Junction-CO-81504/54213853_zpid/,39.07557,-108.47429,SINGLE_FAMILY,373800.0,2008.0,https://photos.zillowstatic.com/fp/8256b098def83992715a9339bc34a858-p_e.jpg,,
"1020 N 10th St, Grand Junction, CO 81501",81501,Grand Junction,CO,1500,1.0,1.0,532.0,2.82,https://zillow.com/homedetails/1020-N-10th-St-Grand-Junction-CO-81501/13970053_zpid/,39.076748,-108.55572,SINGLE_FAMILY,223600.0,1136.0,https://photos.zillowstatic.com/fp/1671b49a769fe5c3124fe0806c47aaa0-p_e.jpg,,
"1221 Main St, Grand Junction, CO 81501",81501,Grand Junction,CO,4200,5.0,3.0,2516.0,1.67,https://zillow.com/homedetails/1221-Main-St-Grand-Junction-CO-81501/13969922_zpid/,39.066994,-108.55184,SINGLE_FAMILY,567900.0,3701.0,https://photos.zillowstatic.com/fp/91dece4cbfcf1ff080a07ef5c6f2f346-p_e.jpg,,
"1824 N 19th St, Grand Junction, CO 81501",81501,Grand Junction,CO,2500,5.0,2.0,1992.0,1.26,https://zillow.com/homedetails/1824-N-19th-St-Grand-Junction-CO-81501/13968767_zpid/,39.08407,-108.542755,SINGLE_FAMILY,375700.0,2725.0,https://photos.zillowstatic.com/fp/1df4851d5924135a1539c4ef06c27fa7-p_e.jpg,,
"152 N Mulberry St, Fruita, CO 81521",81521,Fruita,CO,2600,4.0,2.0,2100.0,1.24,https://zillow.com/homedetails/152-N-Mulberry-St-Fruita-CO-81521/13943491_zpid/,39.15999,-108.73214,SINGLE_FAMILY,593600.0,2194.0,https://photos.zillowstatic.com/fp/65df9d851549be38985dd5f9ea106613-p_e.jpg,,
"1225 Bunting Ave APT 1, Grand Junction, CO 81501",81501,Grand Junction,CO,1100,1.0,1.0,500.0,2.2,https://zillow.com/homedetails/1225-Bunting-Ave-APT-1-Grand-Junction-CO-81501/113066566_zpid/,39.078995,-108.55148,APARTMENT,,1104.0,https://photos.zillowstatic.com/fp/0f7fdd867e575ae287970f2dfbc604ee-p_e.jpg,,
"11 Merlot Ct, Grand Junction, CO 81507",81507,Grand Junction,CO,1775,2.0,2.0,1325.0,1.34,https://zillow.com/homedetails/11-Merlot-Ct-Grand-Junction-CO-81507/13965394_zpid/,39.087788,-108.64161,SINGLE_FAMILY,382100.0,1886.0,https://photos.zillowstatic.com/fp/75ffc0493a653a9a90be651520c3f5f1-p_e.jpg,,
"2910 Bunting Ave APT 10, Grand Junction, CO 81504",81504,Grand Junction,CO,1293,2.0,1.0,,,https://zillow.com/homedetails/2910-Bunting-Ave-APT-10-Grand-Junction-CO-81504/454517864_zpid/,39.079597,-108.51366,APARTMENT,,,https://photos.zillowstatic.com/fp/5369e4474b7058b10385346517e37595-p_e.jpg,,
"531-28 3/4 Rd, Grand Junction, CO 81501",81501,Grand Junction,CO,3200,5.0,3.0,2408.0,1.33,https://zillow.com/homedetails/531-28-3-4-Rd-Grand-Junction-CO-81501/13952167_zpid/,39.081585,-108.52004,SINGLE_FAMILY,420000.0,3145.0,https://photos.zillowstatic.com/fp/795406ce310354d576b10bf0536e9284-p_e.jpg,,
"788-36 3/10 Rd, Palisade, CO 81526",81526,Palisade,CO,2350,4.0,3.0,2592.0,0.91,https://zillow.com/homedetails/788-36-3-10-Rd-Palisade-CO-81526/203031670_zpid/,39.119198,-108.378265,SINGLE_FAMILY,777500.0,3294.0,https://photos.zillowstatic.com/fp/c1baf64a070dc703feb33d6bcd0eb2b3-p_e.jpg,,
"1505 N 20th St #B, Grand Junction, CO 81501",81501,Grand Junction,CO,800,1.0,1.0,1250.0,0.64,https://zillow.com/homedetails/1505-N-20th-St-B-Grand-Junction-CO-81501/448331173_zpid/,39.081234,-108.54212,APARTMENT,,,https://photos.zillowstatic.com/fp/30ed481529214cb1f12adbd750455e24-p_e.jpg,,
"1755 N 18th St #A, Grand Junction, CO 81501",81501,Grand Junction,CO,800,1.0,1.0,1400.0,0.57,https://zillow.com/homedetails/1755-N-18th-St-A-Grand-Junction-CO-81501/441870013_zpid/,39.083656,-108.544685,APARTMENT,,,https://photos.zillowstatic.com/fp/74d6afdc9f548426c3650481fb787bcf-p_e.jpg,,
"961 Lakeside Dr APT 207, Grand Junction, CO 81506",81506,Grand Junction,CO,1495,2.0,2.0,994.0,1.5,https://zillow.com/homedetails/961-Lakeside-Dr-APT-207-Grand-Junction-CO-81506/13964253_zpid/,39.09754,-108.555565,APARTMENT,235300.0,1562.0,https://photos.zillowstatic.com/fp/1ff6d20a9e05c3f6a65049e3761a6c73-p_e.jpg,,
"372 W 7th St, Palisade, CO 81526",81526,Palisade,CO,2000,3.0,3.0,1849.0,1.08,https://zillow.com/homedetails/372-W-7th-St-Palisade-CO-81526/92356374_zpid/,39.107162,-108.35519,SINGLE_FAMILY,429800.0,2294.0,https://photos.zillowstatic.com/fp/dbe83f0fa74897f6933a148986e9232d-p_e.jpg,,
"385 Sunnyside Cir UNIT D, Grand Junction, CO 81504",81504,Grand Junction,CO,1750,3.0,2.0,1036.0,1.69,https://zillow.com/homedetails/385-Sunnyside-Cir-UNIT-D-Grand-Junction-CO-81504/13960264_zpid/,39.06112,-108.47756,TOWNHOUSE,248800.0,1774.0,https://photos.zillowstatic.com/fp/92c9b08698768009a0daa015749549aa-p_e.jpg,,
"2233 Hall Ave, Grand Junction, CO 81501",81501,Grand Junction,CO,800,1.0,1.0,1250.0,0.64,https://zillow.com/homedetails/2233-Hall-Ave-Grand-Junction-CO-81501/13968781_zpid/,39.08342,-108.53867,SINGLE_FAMILY,448900.0,2639.0,https://photos.zillowstatic.com/fp/dd8a8b86cc73dd3ef6a32dd9ebcd159e-p_e.jpg,,
"1225 Main St, Grand Junction, CO 81501",81501,Grand Junction,CO,1300,2.0,1.0,,,https://zillow.com/homedetails/1225-Main-St-Grand-Junction-CO-81501/13969923_zpid/,39.066994,-108.55167,SINGLE_FAMILY,278300.0,1297.0,https://photos.zillowstatic.com/fp/356069295f9fd286bbd03f33b31f34ea-p_e.jpg,,
"526 Rado Dr, Grand Junction, CO 81507",81507,Grand Junction,CO,1650,2.0,2.0,,,https://zillow.com/homedetails/526-Rado-Dr-Grand-Junction-CO-81507/2083272981_zpid/,39.08106,-108.669304,APARTMENT,,1906.0,https://photos.zillowstatic.com/fp/c4c0b4e7687d63c6f4a02949821b3168-p_e.jpg,,
"2012 N 21st St, Grand Junction, CO 81501",81501,Grand Junction,CO,2700,5.0,2.0,1920.0,1.41,https://zillow.com/homedetails/2012-N-21st-St-Grand-Junction-CO-81501/13967870_zpid/,39.085827,-108.541084,SINGLE_FAMILY,443100.0,2702.0,https://photos.zillowstatic.com/fp/218d00036ddf228657bfc0c3709367e1-p_e.jpg,,
"1870 Wellington Ave, Grand Junction, CO 81501",81501,Grand Junction,CO,3000,2.0,2.0,1419.0,2.11,https://zillow.com/homedetails/1870-Wellington-Ave-Grand-Junction-CO-81501/102971389_zpid/,39.089478,-108.5433,SINGLE_FAMILY,422500.0,2281.0,"https://maps.googleapis.com/maps/api/staticmap?mobile=false&sensor=true&maptype=satellite&size=575x242&zoom=17&center=39.0894775390625,-108.54329681396484&key=AIzaSyBWYJWCA8FNMQvSe_k3LKfDGJaEgdKwsco&signature=Pk0oxm9F2JWkhDWV8dYL6uY0u5g=",,
"102 Kaley St, Fruita, CO 81521",81521,Fruita,CO,2300,4.0,2.0,1754.0,1.31,https://zillow.com/homedetails/102-Kaley-St-Fruita-CO-81521/68061718_zpid/,39.14689,-108.7334,SINGLE_FAMILY,476300.0,2263.0,https://photos.zillowstatic.com/fp/df9273f56672efa1c6e1cbf93fa4ed4a-p_e.jpg,,
"846 Fire Quartz Ln, Grand Junction, CO 81506",81506,Grand Junction,CO,3510,4.0,4.0,2625.0,1.34,https://zillow.com/homedetails/846-Fire-Quartz-Ln-Grand-Junction-CO-81506/337985793_zpid/,39.12697,-108.56302,SINGLE_FAMILY,828600.0,3720.0,https://photos.zillowstatic.com/fp/484011bc78a7646e24499c08192b7579-p_e.jpg,,
"384 Explorer Ct APT 3, Grand Junction, CO 81507",81507,Grand Junction,CO,2200,3.0,2.0,1496.0,1.47,https://zillow.com/homedetails/384-Explorer-Ct-APT-3-Grand-Junction-CO-81507/13972411_zpid/,39.0606,-108.608116,APARTMENT,349700.0,2123.0,https://photos.zillowstatic.com/fp/1e71b2a9b158ae76ff7b4caaa8674632-p_e.jpg,,
"2043 White Ave, Grand Junction, CO 81501",81501,Grand Junction,CO,1350,2.0,1.0,840.0,1.61,https://zillow.com/homedetails/2043-White-Ave-Grand-Junction-CO-81501/455326348_zpid/,39.069004,-108.540955,SINGLE_FAMILY,,,https://photos.zillowstatic.com/fp/f395fc08c80cf89c118b345a09b1f352-p_e.jpg,,
"152 N Mulberry St #A, Fruita, CO 81521",81521,Fruita,CO,2600,4.0,2.0,2100.0,1.24,https://zillow.com/homedetails/152-N-Mulberry-St-A-Fruita-CO-81521/360466086_zpid/,39.159992,-108.732155,TOWNHOUSE,527300.0,2418.0,https://photos.zillowstatic.com/fp/a0cd90f23d074d2c58fdca1292587987-p_e.jpg,,
"3058 Hill Ave, Grand Junction, CO 81504",81504,Grand Junction,CO,2500,4.0,3.0,1536.0,1.63,https://zillow.com/homedetails/3058-Hill-Ave-Grand-Junction-CO-81504/13958128_zpid/,39.075462,-108.48624,SINGLE_FAMILY,362400.0,2253.0,https://photos.zillowstatic.com/fp/d7948bb594a3848d5d4854964a574357-p_e.jpg,,
"350 S Ash St, Fruita, CO 81521",81521,Fruita,CO,2200,3.0,2.0,1150.0,1.91,https://zillow.com/homedetails/350-S-Ash-St-Fruita-CO-81521/50946456_zpid/,39.155647,-108.72536,SINGLE_FAMILY,397400.0,2104.0,https://photos.zillowstatic.com/fp/3d6e456f0a421b958151c091e8d6a9a3-p_e.jpg,,
"2374 J Rd, Grand Junction, CO 81505",81505,Grand Junction,CO,3100,4.0,3.0,3000.0,1.03,https://zillow.com/homedetails/2374-J-Rd-Grand-Junction-CO-81505/203027287_zpid/,39.151764,-108.613884,SINGLE_FAMILY,1016300.0,3219.0,https://photos.zillowstatic.com/fp/6f37c45d64d49ee742c16bce6e8cd110-p_e.jpg,,
"1228 Bonito Ave, Grand Junction, CO 81506",81506,Grand Junction,CO,2100,3.0,1.0,1552.0,1.35,https://zillow.com/homedetails/1228-Bonito-Ave-Grand-Junction-CO-81506/13963053_zpid/,39.094666,-108.55085,SINGLE_FAMILY,360600.0,2290.0,https://photos.zillowstatic.com/fp/6b7fb33ca6490784fedc7f20f81df36c-p_e.jpg,,
"1913 N 2nd Ct, Grand Junction, CO 81501",81501,Grand Junction,CO,3010,5.0,2.0,2232.0,1.35,https://zillow.com/homedetails/1913-N-2nd-Ct-Grand-Junction-CO-81501/13967012_zpid/,39.084675,-108.56795,SINGLE_FAMILY,420500.0,2774.0,https://photos.zillowstatic.com/fp/1b0e6d0a3ced583630e7e5d2dee9f9dc-p_e.jpg,,
"1910 N 26th St, Grand Junction, CO 81501",81501,Grand Junction,CO,3000,5.0,2.0,2132.0,1.41,https://zillow.com/homedetails/1910-N-26th-St-Grand-Junction-CO-81501/13967664_zpid/,39.085003,-108.53467,SINGLE_FAMILY,404300.0,2585.0,https://photos.zillowstatic.com/fp/b90bcb0daa2b2e0c9a2892b5270ae51e-p_e.jpg,,
"612 Mesa Canyon Ln #J, Grand Junction, CO 81505",81505,Grand Junction,CO,1895,3.0,2.0,1323.0,1.43,https://zillow.com/apartments/grand-junction-co/pxp1-sundance-llc-612/9LqksM/,39.09405,-108.59248,APARTMENT,,1979.0,"https://maps.googleapis.com/maps/api/staticmap?mobile=false&sensor=true&maptype=satellite&size=575x242&zoom=17&center=39.094051361083984,-108.59248352050781&key=AIzaSyBWYJWCA8FNMQvSe_k3LKfDGJaEgdKwsco&signature=Y5BlG4Z5ue8HOUw4E3U89h0WEJE=",,
"908 White Ave APT 2, Grand Junction, CO 81501",81501,Grand Junction,CO,1550,2.0,1.0,968.0,1.6,https://zillow.com/apartments/grand-junction-co/908-white-avenue/5YC4Xs/,39.069542,-108.55734,APARTMENT,,1601.0,"https://maps.googleapis.com/maps/api/staticmap?mobile=false&sensor=true&maptype=satellite&size=575x242&zoom=17&center=39.069541931152344,-108.55734252929688&key=AIzaSyBWYJWCA8FNMQvSe_k3LKfDGJaEgdKwsco&signature=gJaorugSqY7tgZhaffGDuxhCqQo=",,
"484 Coronado Ct UNIT C, Clifton, CO 81520",81520,Clifton,CO,1500,3.0,2.0,1090.0,1.38,https://zillow.com/homedetails/484-Coronado-Ct-UNIT-C-Clifton-CO-81520/63384671_zpid/,39.075596,-108.45746,APARTMENT,195600.0,1539.0,https://photos.zillowstatic.com/fp/4f60c685cc7cb07a5941d2f502f73fba-p_e.jpg,,
"2475 Theresea Ln, Grand Junction, CO 81505",81505,Grand Junction,CO,1685,2.0,3.0,1368.0,1.23,https://zillow.com/homedetails/2475-Theresea-Ln-Grand-Junction-CO-81505/82290343_zpid/,39.102207,-108.596,APARTMENT,322000.0,1783.0,https://photos.zillowstatic.com/fp/29ade89d8e4324478388c8e8d6d01642-p_e.jpg,,
"1235 Mesa Ave, Grand Junction, CO 81501",81501,Grand Junction,CO,1600,3.0,1.0,950.0,1.68,https://zillow.com/homedetails/1235-Mesa-Ave-Grand-Junction-CO-81501/13968485_zpid/,39.08254,-108.55145,SINGLE_FAMILY,331900.0,1941.0,https://photos.zillowstatic.com/fp/18aecba140d6013e9cf4546968ddd38c-p_e.jpg,,
"2838 Grand Falls Cir UNIT B, Grand Junction, CO 81501",81501,Grand Junction,CO,1650,2.0,2.0,1342.0,1.23,https://zillow.com/homedetails/2838-Grand-Falls-Cir-UNIT-B-Grand-Junction-CO-81501/13951630_zpid/,39.090576,-108.52713,SINGLE_FAMILY,333300.0,1676.0,https://photos.zillowstatic.com/fp/80f6fc8fd3a4f6ef2158aca66fa1c779-p_e.jpg,,
"2906 Dawn Dr, Grand Junction, CO 81504",81504,Grand Junction,CO,1200,2.0,1.0,,,https://zillow.com/apartments/grand-junction-co/2906-dawn-drive-1/9LqdwX/,39.08752,-108.51412,APARTMENT,,,"https://maps.googleapis.com/maps/api/staticmap?mobile=false&sensor=true&maptype=satellite&size=575x242&zoom=17&center=39.087520599365234,-108.51412200927734&key=AIzaSyBWYJWCA8FNMQvSe_k3LKfDGJaEgdKwsco&signature=_3djGnYbkobfWqYSBsxRIbbdObQ=",,
"920 Colorado Ave, Grand Junction, CO 81501",81501,Grand Junction,CO,1500,2.0,1.0,1184.0,1.27,https://zillow.com/apartments/grand-junction-co/920-colorado-avenue-1/9LqbVw/,39.0666,-108.55708,APARTMENT,,,https://photos.zillowstatic.com/fp/ffdda4d512b32da0aee772575044ecc7-p_e.jpg,,
"487 Coronado Ct UNIT C, Clifton, CO 81520",81520,Clifton,CO,1300,3.0,2.0,,,https://zillow.com/homedetails/487-Coronado-Ct-UNIT-C-Clifton-CO-81520/63384679_zpid/,39.07604,-108.45793,APARTMENT,196600.0,1539.0,"https://maps.googleapis.com/maps/api/staticmap?mobile=false&sensor=true&maptype=satellite&size=575x242&zoom=17&center=39.0760383605957,-108.45793151855469&key=AIzaSyBWYJWCA8FNMQvSe_k3LKfDGJaEgdKwsco&signature=33O94jKwnjI3rBM7-gHA454efFE=",,
"457 1/2 Bulla Dr, Grand Junction, CO 81504",81504,Grand Junction,CO,2500,4.0,2.0,,,https://zillow.com/homedetails/457-1-2-Bulla-Dr-Grand-Junction-CO-81504/82294250_zpid/,39.07088,-108.46796,SINGLE_FAMILY,452100.0,2470.0,https://photos.zillowstatic.com/fp/ef07228c766f5039c36f732732e00fe1-p_e.jpg,,
"1325 Texas Ave UNIT A, Grand Junction, CO 81501",81501,Grand Junction,CO,1900,3.0,1.0,1324.0,1.44,https://zillow.com/apartments/grand-junction-co/1325-texas-avenue/5YC5hr/,39.081657,-108.54996,APARTMENT,,1441.0,https://photos.zillowstatic.com/fp/addd53ecb04e9f0f6e65f5cb7d8fe22d-p_e.jpg,,
"486 Coronado Ct UNIT D, Clifton, CO 81520",81520,Clifton,CO,1500,3.0,2.0,1090.0,1.38,https://zillow.com/homedetails/486-Coronado-Ct-UNIT-D-Clifton-CO-81520/63384676_zpid/,39.075577,-108.45732,SINGLE_FAMILY,206900.0,1530.0,https://photos.zillowstatic.com/fp/249bb390d5eddfe8789605aab4ce0a30-p_e.jpg,,
"1412 Glenwood Ave APT 2, Grand Junction, CO 81501",81501,Grand Junction,CO,1595,3.0,1.0,900.0,1.77,https://zillow.com/homedetails/1412-Glenwood-Ave-APT-2-Grand-Junction-CO-81501/2086242339_zpid/,39.078568,-108.54901,APARTMENT,,1484.0,https://photos.zillowstatic.com/fp/1f55ed089d300356989c95c5fd243c52-p_e.jpg,,
"2472 Flat Top Ln #11, Grand Junction, CO 81505",81505,Grand Junction,CO,1900,3.0,3.0,1466.0,1.3,https://zillow.com/homedetails/2472-Flat-Top-Ln-11-Grand-Junction-CO-81505/113058837_zpid/,39.093918,-108.59469,TOWNHOUSE,340700.0,2021.0,"https://maps.googleapis.com/maps/api/staticmap?mobile=false&sensor=true&maptype=satellite&size=575x242&zoom=17&center=39.09391784667969,-108.59468841552734&key=AIzaSyBWYJWCA8FNMQvSe_k3LKfDGJaEgdKwsco&signature=qCpG7xAXKmKySNdijMDBjyk1164=",,
"461 1/2 Seckel St, Clifton, CO 81520",81520,Clifton,CO,2400,5.0,2.0,1724.0,1.39,https://zillow.com/homedetails/461-1-2-Seckel-St-Clifton-CO-81520/13956746_zpid/,39.07179,-108.445274,SINGLE_FAMILY,366600.0,2333.0,"https://maps.googleapis.com/maps/api/staticmap?mobile=false&sensor=true&maptype=satellite&size=575x242&zoom=17&center=39.0717887878418,-108.44527435302734&key=AIzaSyBWYJWCA8FNMQvSe_k3LKfDGJaEgdKwsco&signature=iZXVsHtYY6NhsSK0FxQE6eQVVRQ=",,
"127 Crawford Ln, Palisade, CO 81526",81526,Palisade,CO,1395,2.0,1.0,700.0,1.99,https://zillow.com/apartments/palisade-co/cute-apartment-located-in-palisade/9LqwdM/,39.111473,-108.357216,APARTMENT,,,https://photos.zillowstatic.com/fp/f07f4e340553867ab927c48c8ff7dda6-p_e.jpg,,
"307 Honeysuckle Cir, Fruita, CO 81521",81521,Fruita,CO,1500,3.0,2.0,960.0,1.56,https://zillow.com/homedetails/307-Honeysuckle-Cir-Fruita-CO-81521/54213445_zpid/,39.146465,-108.737755,SINGLE_FAMILY,240800.0,1647.0,https://photos.zillowstatic.com/fp/b29ae8625368c8a76a94318ff9e6924c-p_e.jpg,,
"807 Montclair Dr, Palisade, CO 81526",81526,Palisade,CO,2200,3.0,3.0,1760.0,1.25,https://zillow.com/homedetails/807-Montclair-Dr-Palisade-CO-81526/82294457_zpid/,39.10572,-108.362144,SINGLE_FAMILY,402000.0,2119.0,https://photos.zillowstatic.com/fp/1d6deba2e86336bdd9124092c02ed30e-p_e.jpg,,
"3286 Point Ave, Clifton, CO 81520",81520,Clifton,CO,1950,3.0,2.0,1063.0,1.83,https://zillow.com/homedetails/3286-Point-Ave-Clifton-CO-81520/54213743_zpid/,39.08622,-108.44303,SINGLE_FAMILY,319600.0,2020.0,https://photos.zillowstatic.com/fp/236cfec2765ac6dd5f1871c1348f96a5-p_e.jpg,,
"178 Hollyberry Way, Fruita, CO 81521",81521,Fruita,CO,1600,3.0,2.0,1352.0,1.18,https://zillow.com/homedetails/178-Hollyberry-Way-Fruita-CO-81521/13944187_zpid/,39.144524,-108.73441,APARTMENT,228900.0,1645.0,https://photos.zillowstatic.com/fp/00dbf8a2c97986bf1714792f3e17e144-p_e.jpg,,
"3156 Cross Canyon Ln, Grand Junction, CO 81504",81504,Grand Junction,CO,2200,3.0,2.0,1657.0,1.33,https://zillow.com/homedetails/3156-Cross-Canyon-Ln-Grand-Junction-CO-81504/113063821_zpid/,39.072598,-108.46703,SINGLE_FAMILY,417500.0,2197.0,https://photos.zillowstatic.com/fp/931aad0945cbc7d0542f5e26490160d1-p_e.jpg,,
"1225 N 23rd St #202, Grand Junction, CO 81501",81501,Grand Junction,CO,1100,,1.0,300.0,3.67,https://zillow.com/apartments/grand-junction-co/1225-north-23rd-st/9TG2ks/,39.078533,-108.53878,APARTMENT,,1033.0,https://photos.zillowstatic.com/fp/b7c348f26f5d80104fd6bcfd106b953c-p_e.jpg,,
"405 Dressell Dr #B, Grand Junction, CO 81507",81507,Grand Junction,CO,1650,3.0,1.0,1037.0,1.59,https://zillow.com/homedetails/405-Dressell-Dr-B-Grand-Junction-CO-81507/2078302778_zpid/,39.063934,-108.59975,SINGLE_FAMILY,390800.0,1827.0,https://photos.zillowstatic.com/fp/0fc344733c61ee9c0230109f37f960e8-p_e.jpg,,
"3154 Lakeside Dr APT 110, Grand Junction, CO 81506",81506,Grand Junction,CO,1300,2.0,1.0,,,https://zillow.com/homedetails/3154-Lakeside-Dr-APT-110-Grand-Junction-CO-81506/13964146_zpid/,39.09781,-108.55318,APARTMENT,181000.0,1378.0,https://photos.zillowstatic.com/fp/da3acb736d6f411b0733cde0d8a566b2-p_e.jpg,,
"2071 Stagecoach Ct, Grand Junction, CO 81507",81507,Grand Junction,CO,3000,3.0,2.0,2202.0,1.36,https://zillow.com/homedetails/2071-Stagecoach-Ct-Grand-Junction-CO-81507/50947671_zpid/,39.103752,-108.66361,SINGLE_FAMILY,760900.0,2977.0,https://photos.zillowstatic.com/fp/113b50e69fac6708390db2a72d9bf15a-p_e.jpg,,
"733 Lakeview Ct UNIT B, Grand Junction, CO 81505",81505,Grand Junction,CO,2150,3.0,3.0,1660.0,1.3,https://zillow.com/homedetails/733-Lakeview-Ct-UNIT-B-Grand-Junction-CO-81505/61325800_zpid/,39.110886,-108.59062,SINGLE_FAMILY,468200.0,2360.0,https://photos.zillowstatic.com/fp/0ed49a8c7202276f6860e1b271e51f87-p_e.jpg,,
"135 S 10th St APT 2, Grand Junction, CO 81501",81501,Grand Junction,CO,950,,1.0,200.0,4.75,https://zillow.com/apartments/grand-junction-co/135-s-10th-st/5XrsJB/,39.066597,-108.5562,APARTMENT,,1584.0,https://photos.zillowstatic.com/fp/18d7aa6a60ebd5020829b94d07923b17-p_e.jpg,,
"2801 Hall Ave, Grand Junction, CO 81501",81501,Grand Junction,CO,2060,3.0,2.0,1632.0,1.26,https://zillow.com/homedetails/2801-Hall-Ave-Grand-Junction-CO-81501/13951878_zpid/,39.08374,-108.53345,SINGLE_FAMILY,348700.0,2092.0,https://photos.zillowstatic.com/fp/b5e5d1072956887aa08d6ef79946849f-p_e.jpg,,
"251 Gloucester Cir E, Grand Junction, CO 81503",81503,Grand Junction,CO,1800,3.0,2.0,,,https://zillow.com/homedetails/251-Gloucester-Cir-E-Grand-Junction-CO-81503/454606103_zpid/,39.04174,-108.53524,SINGLE_FAMILY,410200.0,,https://photos.zillowstatic.com/fp/c4777f2ceb4a359a7440579a498b3432-p_e.jpg,,
"552 Garden Cress Ct, Grand Junction, CO 81501",81501,Grand Junction,CO,1645,2.0,2.0,1208.0,1.36,https://zillow.com/homedetails/552-Garden-Cress-Ct-Grand-Junction-CO-81501/68064628_zpid/,39.085384,-108.52594,SINGLE_FAMILY,331400.0,1733.0,https://photos.zillowstatic.com/fp/3e566699b67fdd3bc2fa3474b14b1039-p_e.jpg,,
"3244 Rood Ct, Clifton, CO 81520",81520,Clifton,CO,1650,3.0,2.0,1158.0,1.42,https://zillow.com/apartments/clifton-co/3244-rood-court-2/9LqrrS/,39.068783,-108.451416,APARTMENT,,,https://photos.zillowstatic.com/fp/505f29a7681a9ed3aee86a013087ce28-p_e.jpg,,
"679 Eadin Ln, Grand Junction, CO 81504",81504,Grand Junction,CO,2500,3.0,2.0,1653.0,1.51,https://zillow.com/homedetails/679-Eadin-Ln-Grand-Junction-CO-81504/2063284963_zpid/,39.103592,-108.512405,SINGLE_FAMILY,526300.0,2542.0,https://photos.zillowstatic.com/fp/6a044d9c19fd54e0a66789393e50f76a-p_e.jpg,,
"1262 Bookcliff Ave, Grand Junction, CO 81501",81501,Grand Junction,CO,1350,,1.0,488.0,2.77,https://zillow.com/homedetails/1262-Bookcliff-Ave-Grand-Junction-CO-81501/338946243_zpid/,39.08854,-108.55059,SINGLE_FAMILY,473800.0,1391.0,https://photos.zillowstatic.com/fp/8d49dc74abc04ac15d6ac66c320d2228-p_e.jpg,,
"517-29 3/8 Rd, Grand Junction, CO 81504",81504,Grand Junction,CO,1700,3.0,2.0,1034.0,1.64,https://zillow.com/homedetails/517-29-3-8-Rd-Grand-Junction-CO-81504/453789136_zpid/,39.07999,-108.50786,APARTMENT,,,https://photos.zillowstatic.com/fp/93e3a5f36e3e6eb9e3800c964f4bb9ad-p_e.jpg,,
"1741 Ouray Ave, Grand Junction, CO 81501",81501,Grand Junction,CO,1700,3.0,1.0,1000.0,1.7,https://zillow.com/homedetails/1741-Ouray-Ave-Grand-Junction-CO-81501/13969609_zpid/,39.071198,-108.54456,TOWNHOUSE,380300.0,1683.0,https://photos.zillowstatic.com/fp/c49e8d375db0eb793f4e52cea6b970c6-p_e.jpg,,
"1271 E Carolina Ave, Fruita, CO 81521",81521,Fruita,CO,1775,3.0,2.0,1518.0,1.17,https://zillow.com/homedetails/1271-E-Carolina-Ave-Fruita-CO-81521/72300366_zpid/,39.156925,-108.7157,SINGLE_FAMILY,380500.0,2178.0,https://photos.zillowstatic.com/fp/9eac69240bbc0b8adace7de125f9ecdf-p_e.jpg,,
"3233 Lakeside Dr APT 303, Grand Junction, CO 81506",81506,Grand Junction,CO,1100,1.0,1.0,695.0,1.58,https://zillow.com/homedetails/3233-Lakeside-Dr-APT-303-Grand-Junction-CO-81506/13964303_zpid/,39.09858,-108.55597,APARTMENT,161700.0,1196.0,https://photos.zillowstatic.com/fp/76281e077c24130e50b1a30717e19bd9-p_e.jpg,,
"2245 Idella Ct, Grand Junction, CO 81505",81505,Grand Junction,CO,3500,4.0,4.0,3500.0,1.0,https://zillow.com/homedetails/2245-Idella-Ct-Grand-Junction-CO-81505/61326135_zpid/,39.088577,-108.575195,SINGLE_FAMILY,956900.0,3442.0,https://photos.zillowstatic.com/fp/9d19272febac96ba2c15613a7d80b0b2-p_e.jpg,,
"402 Ouray Ave #408, Grand Junction, CO 81501",81501,Grand Junction,CO,1325,1.0,1.0,775.0,1.71,https://zillow.com/apartments/grand-junction-co/402-ouray-avenue/5Y237K/,39.071667,-108.56589,APARTMENT,,1291.0,https://photos.zillowstatic.com/fp/396ec88215196a5683943f3ebbf208c1-p_e.jpg,,
"520 N 7th St, Grand Junction, CO 81501",81501,Grand junction,CO,4200,4.0,4.0,3400.0,1.24,https://zillow.com/homedetails/520-N-7th-St-Grand-Junction-CO-81501/13970345_zpid/,39.071766,-108.56059,SINGLE_FAMILY,,2285.0,https://photos.zillowstatic.com/fp/cf310b9400ca36cf9d3affd625ca94d0-p_e.jpg,,
"674 Gemstone Ct #A, Grand Junction, CO 81505",81505,Grand Junction,CO,1800,2.0,2.0,1313.0,1.37,https://zillow.com/homedetails/674-Gemstone-Ct-A-Grand-Junction-CO-81505/50947565_zpid/,39.101334,-108.58584,SINGLE_FAMILY,371000.0,1829.0,https://photos.zillowstatic.com/fp/0a39a98638727a2138338ae05b20cfc2-p_e.jpg,,
"333 Highway #25, Fruita, CO 81521",81521,Fruita,CO,800,1.0,1.0,220.0,3.64,https://zillow.com/apartments/fruita-co/fruita-flats/Cm7LJG/,39.15513,-108.73039,APARTMENT,,,https://photos.zillowstatic.com/fp/698e964d002eee449294d3486d1e7c30-p_e.jpg,,
"763-23 1/2 Rd, Grand Junction, CO 81505",81505,Grand Junction,CO,2300,3.0,3.0,1806.0,1.27,https://zillow.com/homedetails/763-23-1-2-Rd-Grand-Junction-CO-81505/203028768_zpid/,39.11556,-108.61762,SINGLE_FAMILY,609700.0,2382.0,https://photos.zillowstatic.com/fp/1432da417f06e5665bc87f830b348e36-p_e.jpg,,
"260 Park Dr, Grand Junction, CO 81501",81501,Grand Junction,CO,1300,,,,,https://zillow.com/homedetails/260-Park-Dr-Grand-Junction-CO-81501/89241582_zpid/,39.0912,-108.569305,SINGLE_FAMILY,570700.0,1629.0,"https://maps.googleapis.com/maps/api/staticmap?mobile=false&sensor=true&maptype=satellite&size=575x242&zoom=17&center=39.09120178222656,-108.56930541992188&key=AIzaSyBWYJWCA8FNMQvSe_k3LKfDGJaEgdKwsco&signature=f_I_VYBnv42goh3Tp1Jd_fmBVBQ=",,
"1231 N 23rd St #107, Grand Junction, CO 81501",81501,Grand Junction,CO,1195,,1.0,680.0,1.76,https://zillow.com/apartments/grand-junction-co/1231-n.-23rd-st/9TG2m8/,39.078945,-108.53882,APARTMENT,,,https://photos.zillowstatic.com/fp/3f9e3dc71da4abbb61d69062aad298f5-p_e.jpg,,
"1717 Elm Ave, Grand Junction, CO 81501",81501,Grand Junction,CO,1400,2.0,1.0,864.0,1.62,https://zillow.com/homedetails/1717-Elm-Ave-Grand-Junction-CO-81501/13968631_zpid/,39.08076,-108.544975,SINGLE_FAMILY,275200.0,1564.0,https://photos.zillowstatic.com/fp/feefca873aa1878084a37b3e5bfb0553-p_e.jpg,,
"565 W Willow Ct, Clifton, CO 81520",81520,Clifton,CO,1695,2.0,2.0,1325.0,1.28,https://zillow.com/homedetails/565-W-Willow-Ct-Clifton-CO-81520/13955625_zpid/,39.08785,-108.44532,TOWNHOUSE,246600.0,1785.0,https://photos.zillowstatic.com/fp/34e35717af3e4a0670b264922f43b9bb-p_e.jpg,,
"1302 Glenwood Ave APT 202, Grand Junction, CO 81501",81501,Grand Junction,CO,1200,2.0,1.0,654.0,1.83,https://zillow.com/apartments/grand-junction-co/1302-glenwood-avenue/9LqXts/,39.078598,-108.550285,APARTMENT,,1179.0,https://photos.zillowstatic.com/fp/c240c8a704315212ecb8fa317a02360d-p_e.jpg,,
"702 1/2 Willow Creek Rd, Grand Junction, CO 81505",81505,Grand Junction,CO,2400,3.0,2.0,1693.0,1.42,https://zillow.com/homedetails/702-1-2-Willow-Creek-Rd-Grand-Junction-CO-81505/60205606_zpid/,39.107296,-108.600136,SINGLE_FAMILY,477700.0,2360.0,https://photos.zillowstatic.com/fp/2466d6a3c16dcfc3b33780cd2761e140-p_e.jpg,,
"3505 N 12th St, Grand Junction, CO 81506",81506,Grand Junction,CO,1120,2.0,2.0,995.0,1.13,https://zillow.com/apartments/grand-junction-co/northwoods-apartments/CkkqSV/,39.099667,-108.553444,APARTMENT,,,https://photos.zillowstatic.com/fp/778310519535bc3414ab210b4fbe0f8c-p_e.jpg,,
"2415 Ryan Gulch Ct #2415, Silverthorne, CO 80498",80498,Silverthorne,CO,3200,2.0,1.0,789.0,4.06,https://zillow.com/homedetails/2415-Ryan-Gulch-Ct-2415-Silverthorne-CO-80498/2093822175_zpid/,39.61786,-106.075745,APARTMENT,,2788.0,https://photos.zillowstatic.com/fp/c81f0b8149764f8413bd167d6f6ae0a8-p_e.jpg,,
"1890 Argentine St, Georgetown, CO 80444",80444,Georgetown,CO,2200,2.0,1.0,852.0,2.58,https://zillow.com/homedetails/1890-Argentine-St-Georgetown-CO-80444/13266935_zpid/,39.71962,-105.69447,APARTMENT,303600.0,2050.0,https://photos.zillowstatic.com/fp/72c1c0c67e23773e22e2100097d8d4c0-p_e.jpg,,
"518 Bighorn Cir, Silverthorne, CO 80498",80498,Silverthorne,CO,5500,4.0,3.0,1886.0,2.92,https://zillow.com/homedetails/518-Bighorn-Cir-Silverthorne-CO-80498/194067238_zpid/,39.652016,-106.0905,SINGLE_FAMILY,1227700.0,5070.0,https://photos.zillowstatic.com/fp/024bbc5eec8c0d6f460a18f3da0dc2d2-p_e.jpg,,
"114 Yarrow Ln, Dillon, CO 80435",80435,Dillon,CO,12000,6.0,6.0,4248.0,2.82,https://zillow.com/homedetails/114-Yarrow-Ln-Dillon-CO-80435/194070857_zpid/,39.586777,-105.99727,SINGLE_FAMILY,2222400.0,7551.0,https://photos.zillowstatic.com/fp/6891b93b45866b3dc5205423d76cff94-p_e.jpg,,
"2673 Cortina Ln APT A, Vail, CO 81657",81657,Vail,CO,10000,3.0,3.0,2354.0,4.25,https://zillow.com/homedetails/2673-Cortina-Ln-APT-A-Vail-CO-81657/13507372_zpid/,39.62546,-106.42881,APARTMENT,,4908.0,https://photos.zillowstatic.com/fp/44ae82178562e31792357a31b67d1e16-p_e.jpg,,
"4811 Ryan Gulch Rd #4827, Silverthorne, CO 80498",80498,Silverthorne,CO,3400,2.0,2.0,1084.0,3.14,https://zillow.com/homedetails/4811-Ryan-Gulch-Rd-4827-Silverthorne-CO-80498/2107156147_zpid/,39.617085,-106.081696,APARTMENT,,3015.0,https://photos.zillowstatic.com/fp/ed055b846fb34d2eb81f601e4508815e-p_e.jpg,,
"32 Sauterne Ln #1, Silverthorne, CO 80498",80498,Silverthorne,CO,3200,2.0,1.0,1100.0,2.91,https://zillow.com/homedetails/32-Sauterne-Ln-1-Silverthorne-CO-80498/454835527_zpid/,39.618813,-106.0849,APARTMENT,,,https://photos.zillowstatic.com/fp/aaf0ffff0ce5d0d838f0fd0f45a4edb4-p_e.jpg,,
"160 Creekside Dr APT 10-B, Frisco, CO 80443",80443,Frisco,CO,3000,2.0,1.0,715.0,4.2,https://zillow.com/homedetails/160-Creekside-Dr-APT-10-B-Frisco-CO-80443/2063551450_zpid/,39.57762,-106.10572,APARTMENT,,2602.0,https://photos.zillowstatic.com/fp/de8189c94119d279694d73ef98185752-p_e.jpg,,
"1128 Baldy Rd #10, Breckenridge, CO 80424",80424,Breckenridge,CO,4800,4.0,3.0,1750.0,2.74,https://zillow.com/homedetails/1128-Baldy-Rd-10-Breckenridge-CO-80424/2121697140_zpid/,39.469215,-106.01725,TOWNHOUSE,942700.0,4345.0,https://photos.zillowstatic.com/fp/610f4107ccf912ea587d53656b3c5261-p_e.jpg,,
"1851 Peregrine Ln, Silverthorne, CO 80498",80498,Silverthorne,CO,6400,4.0,4.0,2475.0,2.59,https://zillow.com/homedetails/1851-Peregrine-Ln-Silverthorne-CO-80498/2063068455_zpid/,39.658993,-106.08837,SINGLE_FAMILY,1518300.0,6137.0,https://photos.zillowstatic.com/fp/44ccd21226907eadd2aa9022bf762653-p_e.jpg,,
"107 Springbeauty Dr, Silverthorne, CO 80498",80498,Silverthorne,CO,5400,4.0,3.0,2030.0,2.66,https://zillow.com/homedetails/107-Springbeauty-Dr-Silverthorne-CO-80498/194066335_zpid/,39.62238,-106.09725,SINGLE_FAMILY,1344900.0,5137.0,https://photos.zillowstatic.com/fp/7849d76505e728d919eb1d102393ce9c-p_e.jpg,,
"326 Miners Loop, Silverthorne, CO 80498",80498,Silverthorne,CO,3900,3.0,1.0,1600.0,2.44,https://zillow.com/homedetails/326-Miners-Loop-Silverthorne-CO-80498/194067187_zpid/,39.634182,-106.07986,SINGLE_FAMILY,777500.0,3761.0,https://photos.zillowstatic.com/fp/4df8f116d81b2a0eb6509f341114a0cc-p_e.jpg,,
"101 Blue Grouse Ln #G, Silverthorne, CO 80498",80498,Silverthorne,CO,3200,2.0,3.0,1543.0,2.07,https://zillow.com/homedetails/101-Blue-Grouse-Ln-G-Silverthorne-CO-80498/2091601767_zpid/,39.654255,-106.082726,APARTMENT,,3326.0,https://photos.zillowstatic.com/fp/6b1cc4953173ed23cbb3737d3482ca97-p_e.jpg,,
"265 Pine Dr, Frisco, CO 80443",80443,Frisco,CO,8000,4.0,3.0,2129.0,3.76,https://zillow.com/homedetails/265-Pine-Dr-Frisco-CO-80443/194065834_zpid/,39.571217,-106.100975,SINGLE_FAMILY,1777000.0,5566.0,https://photos.zillowstatic.com/fp/a259f1d44c76e7236eb0de9baf73492e-p_e.jpg,,
"31 Corinthian Cir, Dillon, CO 80435",80435,Dillon,CO,8200,3.0,3.0,2350.0,3.49,https://zillow.com/homedetails/31-Corinthian-Cir-Dillon-CO-80435/194073053_zpid/,39.623775,-106.03144,SINGLE_FAMILY,1392800.0,4607.0,https://photos.zillowstatic.com/fp/9d908305550bfac35ccc6a0aa90c3d9a-p_e.jpg,,
"464 Silver Cir, Breckenridge, CO 80424",80424,Breckenridge,CO,8000,3.0,5.0,4400.0,1.82,https://zillow.com/homedetails/464-Silver-Cir-Breckenridge-CO-80424/96876353_zpid/,39.525177,-106.03865,SINGLE_FAMILY,2644400.0,7302.0,https://photos.zillowstatic.com/fp/8f158b0382f6bf94967653407bc72951-p_e.jpg,,
"300 Argentine St, Georgetown, CO 80444",80444,Georgetown,CO,3000,4.0,3.0,2301.0,1.3,https://zillow.com/homedetails/300-Argentine-St-Georgetown-CO-80444/13267274_zpid/,39.7046,-105.69825,SINGLE_FAMILY,807600.0,3494.0,https://photos.zillowstatic.com/fp/87167f257e29ec722619a3ab095e2c7e-p_e.jpg,,
"17 Granite St, Frisco, CO 80443",80443,Frisco,CO,3000,3.0,3.0,1292.0,2.32,https://zillow.com/homedetails/17-Granite-St-Frisco-CO-80443/194064570_zpid/,39.57428,-106.10217,TOWNHOUSE,893400.0,4017.0,https://photos.zillowstatic.com/fp/c83badec1cf08cd774175a790696fcc0-p_e.jpg,,
"450 Four Oclock Rd #7, Breckenridge, CO 80424",80424,Breckenridge,CO,5500,3.0,3.0,1007.0,5.46,https://zillow.com/homedetails/450-Four-Oclock-Rd-7-Breckenridge-CO-80424/246304791_zpid/,39.479954,-106.050644,TOWNHOUSE,1385000.0,4917.0,https://photos.zillowstatic.com/fp/99984fae7fcfe60068b6bace41dff6ac-p_e.jpg,,
"240 E La Bonte St UNIT 21, Dillon, CO 80435",80435,Dillon,CO,3000,2.0,2.0,784.0,3.83,https://zillow.com/homedetails/240-E-La-Bonte-St-UNIT-21-Dillon-CO-80435/248568244_zpid/,39.62926,-106.04284,APARTMENT,567900.0,3101.0,https://photos.zillowstatic.com/fp/1264533f9deb0fb2a15dcf7d139fa4dc-p_e.jpg,,
"167 Gold King Way, Breckenridge, CO 80424",80424,Breckenridge,CO,2650,,1.0,650.0,4.08,https://zillow.com/homedetails/167-Gold-King-Way-Breckenridge-CO-80424/194074658_zpid/,39.464252,-106.04708,APARTMENT,1945000.0,2596.0,https://photos.zillowstatic.com/fp/3413ea3358d30edd9a99ef67c80dd98b-p_e.jpg,,
"21630 Us Highway 6, Dillon, CO 80435",80435,Dillon,CO,2800,2.0,2.0,1112.0,2.52,https://zillow.com/homedetails/21630-Us-Highway-6-Dillon-CO-80435/2062522748_zpid/,39.603436,-105.98035,SINGLE_FAMILY,684900.0,3029.0,https://photos.zillowstatic.com/fp/3e6b2e30c0b96c7aeeb588ec7311d85a-p_e.jpg,,
"16 Magnum Bonum Dr #B, Breckenridge, CO 80424",80424,Breckenridge,CO,4300,3.0,2.0,960.0,4.48,https://zillow.com/homedetails/16-Magnum-Bonum-Dr-B-Breckenridge-CO-80424/453632156_zpid/,39.49098,-106.04095,APARTMENT,,,https://photos.zillowstatic.com/fp/ec5b2abe46cb07afa465899ec2c6c2c7-p_e.jpg,,
"6273 Us Highway 40, Empire, CO 80438",80438,Empire,CO,1900,2.0,1.0,1030.0,1.84,https://zillow.com/homedetails/6273-Us-Highway-40-Empire-CO-80438/13266548_zpid/,39.771027,-105.80908,SINGLE_FAMILY,257200.0,2616.0,https://photos.zillowstatic.com/fp/828930f1f9d400491e12573bfedebe5e-p_e.jpg,,
"143 Uncle Sam Lode Rd, Breckenridge, CO 80424",80424,Breckenridge,CO,8000,3.0,3.0,2880.0,2.78,https://zillow.com/homedetails/143-Uncle-Sam-Lode-Rd-Breckenridge-CO-80424/2054167226_zpid/,39.474155,-106.013565,SINGLE_FAMILY,1602600.0,5028.0,https://photos.zillowstatic.com/fp/ed690d6837a17e9ed4088a9e1dcf1bab-p_e.jpg,,
"88 Midnight Sun Rd, Breckenridge, CO 80424",80424,Breckenridge,CO,8000,4.0,3.0,2643.0,3.03,https://zillow.com/apartments/breckenridge-co/88-midnight-sun/Cn6rh6/,39.48403,-106.02758,APARTMENT,1850500.0,4825.0,https://photos.zillowstatic.com/fp/0f42538ac943d26dbcafd0f0fcf11525-p_e.jpg,,
"8034 Ryan Gulch Rd BUILDING D-107, Silverthorne, CO 80498",80498,Silverthorne,CO,2500,2.0,1.0,552.0,4.53,https://zillow.com/homedetails/8034-Ryan-Gulch-Rd-BUILDING-D-107-Silverthorne-CO-80498/455297664_zpid/,39.61901,-106.08807,SINGLE_FAMILY,,,https://photos.zillowstatic.com/fp/3dc053eb3b51fc92fd272307761ab45e-p_e.jpg,,
"1625 Airport Rd #2, Breckenridge, CO 80424",80424,Breckenridge,CO,3400,2.0,2.0,749.0,4.54,https://zillow.com/homedetails/1625-Airport-Rd-2-Breckenridge-CO-80424/2078509166_zpid/,39.50518,-106.05222,SINGLE_FAMILY,538700.0,2962.0,https://photos.zillowstatic.com/fp/6ee0a39dea8b7929a8544809462ed9bb-p_e.jpg,,
"57 El Dorado Ln, Breckenridge, CO 80424",80424,Breckenridge,CO,3400,3.0,2.0,1106.0,3.07,https://zillow.com/homedetails/57-El-Dorado-Ln-Breckenridge-CO-80424/2062210903_zpid/,39.415092,-106.04355,SINGLE_FAMILY,822800.0,4102.0,https://photos.zillowstatic.com/fp/401154389b241ecc92b2d008d788efe0-p_e.jpg,,
"105 S High St #B, Breckenridge, CO 80424",80424,Breckenridge,CO,7000,3.0,3.0,1813.0,3.86,https://zillow.com/homedetails/105-S-High-St-B-Breckenridge-CO-80424/455326433_zpid/,39.48179,-106.041374,SINGLE_FAMILY,,,https://photos.zillowstatic.com/fp/ff5f0010919a29b3713c9b295ec06fe7-p_e.jpg,,
"43 Red Feather Rd, Breckenridge, CO 80424",80424,Breckenridge,CO,2200,1.0,1.0,500.0,4.4,https://zillow.com/homedetails/43-Red-Feather-Rd-Breckenridge-CO-80424/194074530_zpid/,39.466938,-106.04328,SINGLE_FAMILY,1421900.0,2346.0,https://photos.zillowstatic.com/fp/a860740cc2af62d87805c9c8b0b6a70c-p_e.jpg,,
"5040 Main Gore Pl, Vail, CO 81657",81657,Vail,CO,6500,3.0,4.0,1800.0,3.61,https://zillow.com/homedetails/5040-Main-Gore-Pl-Vail-CO-81657/451091640_zpid/,39.627373,-106.284256,TOWNHOUSE,1773600.0,,https://photos.zillowstatic.com/fp/daf0bcd4b0ebd12bc135af55dae74d60-p_e.jpg,,
"6393 Highway 9, Breckenridge, CO 80424",80424,Breckenridge,CO,4600,3.0,2.0,1864.0,2.47,https://zillow.com/homedetails/6393-Highway-9-Breckenridge-CO-80424/350504905_zpid/,39.431164,-106.04407,SINGLE_FAMILY,815000.0,4569.0,https://photos.zillowstatic.com/fp/38c008975a75da0f0731313654ed3b78-p_e.jpg,,
"27 Peaks View Ct UNIT 113, Breckenridge, CO 80424",80424,Breckenridge,CO,3100,3.0,2.0,840.0,3.69,https://zillow.com/homedetails/27-Peaks-View-Ct-UNIT-113-Breckenridge-CO-80424/2069994963_zpid/,39.40816,-106.04488,SINGLE_FAMILY,697700.0,3638.0,https://photos.zillowstatic.com/fp/33fe19c83a137ffbde1c60abdf32bf49-p_e.jpg,,
"1012 High Point Dr, Breckenridge, CO 80424",80424,Breckenridge,CO,2200,2.0,1.0,800.0,2.75,https://zillow.com/homedetails/1012-High-Point-Dr-Breckenridge-CO-80424/194068323_zpid/,39.478607,-106.01964,APARTMENT,1574800.0,4309.0,https://photos.zillowstatic.com/fp/dc3e0be5033e2a26f7fd7f040d9a69ab-p_e.jpg,,
"808 Deer Path Rd, Dillon, CO 80435",80435,Dillon,CO,7600,6.0,4.0,3000.0,2.53,https://zillow.com/homedetails/808-Deer-Path-Rd-Dillon-CO-80435/194081998_zpid/,39.633423,-106.0492,SINGLE_FAMILY,1272900.0,4306.0,https://photos.zillowstatic.com/fp/535a445aa68427bbe577f761428824cc-p_e.jpg,,
"9339 State Highway 9 BUILDING C, Breckenridge, CO 80424",80424,Breckenridge,CO,4000,2.0,2.0,1059.0,3.78,https://zillow.com/homedetails/9339-State-Highway-9-BUILDING-C-Breckenridge-CO-80424/2067668033_zpid/,39.470863,-106.043686,APARTMENT,,3114.0,https://photos.zillowstatic.com/fp/29488eb46f664a44fecd8af998ab850e-p_e.jpg,,
"201 Bunker Hill Lode Rd #22-8, Breckenridge, CO 80424",80424,Breckenridge,CO,3700,4.0,2.0,1428.0,2.59,https://zillow.com/homedetails/201-Bunker-Hill-Lode-Rd-22-8-Breckenridge-CO-80424/402301521_zpid/,39.465317,-106.01587,SINGLE_FAMILY,863600.0,,https://photos.zillowstatic.com/fp/a5772c6d696b4a54511ab50e46921e27-p_e.jpg,,
"213 Buffalo Dr #2-0021, Silverthorne, CO 80498",80498,Silverthorne,CO,2800,2.0,2.0,952.0,2.94,https://zillow.com/homedetails/213-Buffalo-Dr-2-0021-Silverthorne-CO-80498/2077489943_zpid/,39.6193,-106.082695,SINGLE_FAMILY,554100.0,3286.0,https://photos.zillowstatic.com/fp/29f31c6e6a9ea6198aadf51919436a62-p_e.jpg,,
"404 Bayview Dr APT D, Frisco, CO 80443",80443,Frisco,CO,3275,3.0,3.0,1383.0,2.37,https://zillow.com/homedetails/404-Bayview-Dr-APT-D-Frisco-CO-80443/2070849009_zpid/,39.57394,-106.08911,TOWNHOUSE,846500.0,3817.0,https://photos.zillowstatic.com/fp/51beaba28f0e3ec3658dced9c8c8a26d-p_e.jpg,,
"458 N Fuller Placer Rd, Breckenridge, CO 80424",80424,Breckenridge,CO,5500,3.0,2.0,1784.0,3.08,https://zillow.com/homedetails/458-N-Fuller-Placer-Rd-Breckenridge-CO-80424/2063534696_zpid/,39.473705,-106.01162,SINGLE_FAMILY,1209200.0,4272.0,https://photos.zillowstatic.com/fp/d69e8d969e70c0996b44f99643f73dc0-p_e.jpg,,
"29 Ryan Gulch Rd #250, Silverthorne, CO 80498",80498,Silverthorne,CO,2795,2.0,2.0,1000.0,2.79,https://zillow.com/homedetails/29-Ryan-Gulch-Rd-250-Silverthorne-CO-80498/2077276654_zpid/,39.61845,-106.07772,APARTMENT,,2969.0,https://photos.zillowstatic.com/fp/e658776f9a1f855391848b487ba63a54-p_e.jpg,,
"2212 Alvarado Rd, Georgetown, CO 80444",80444,Georgetown,CO,1775,1.0,1.0,520.0,3.41,https://zillow.com/homedetails/2212-Alvarado-Rd-Georgetown-CO-80444/13266533_zpid/,39.7483,-105.66619,SINGLE_FAMILY,228600.0,1788.0,https://photos.zillowstatic.com/fp/d610360cd8d0fc5473b0707637d6a49a-p_e.jpg,,
"1121 Ski Hill Rd #E-85, Breckenridge, CO 80424",80424,Breckenridge,CO,3000,2.0,1.0,780.0,3.85,https://zillow.com/homedetails/1121-Ski-Hill-Rd-E-85-Breckenridge-CO-80424/450364886_zpid/,39.48209,-106.05915,APARTMENT,,,https://photos.zillowstatic.com/fp/6a1e17d0ef86136ad6c32d1b9c2796a1-p_e.jpg,,
"301 S French St, Breckenridge, CO 80424",80424,Breckenridge,CO,9000,4.0,3.0,1850.0,4.86,https://zillow.com/homedetails/301-S-French-St-Breckenridge-CO-80424/194083836_zpid/,39.47961,-106.043655,SINGLE_FAMILY,2603800.0,5038.0,https://photos.zillowstatic.com/fp/9b22f035230a91e43297aa3261cfc8d6-p_e.jpg,,
"1449 American Way, Breckenridge, CO 80424",80424,Breckenridge,CO,8000,6.0,4.0,4504.0,1.78,https://zillow.com/homedetails/1449-American-Way-Breckenridge-CO-80424/194067845_zpid/,39.50017,-106.06319,SINGLE_FAMILY,1893900.0,6823.0,https://photos.zillowstatic.com/fp/34f896c00c353e77281b56c17641d0f1-p_e.jpg,,
"34 Magnum Bonum Dr, Breckenridge, CO 80424",80424,Breckenridge,CO,4200,3.0,2.0,1464.0,2.87,https://zillow.com/homedetails/34-Magnum-Bonum-Dr-Breckenridge-CO-80424/194068416_zpid/,39.4919,-106.043,SINGLE_FAMILY,870200.0,4109.0,https://photos.zillowstatic.com/fp/0ea4ff3a01a50c01481e317d751758f2-p_e.jpg,,
"31 Sally Cir, Breckenridge, CO 80424",80424,Breckenridge,CO,3500,4.0,2.0,1620.0,2.16,https://zillow.com/homedetails/31-Sally-Cir-Breckenridge-CO-80424/194068854_zpid/,39.38799,-106.05141,SINGLE_FAMILY,987000.0,4565.0,https://photos.zillowstatic.com/fp/ea9de9e1d09823e5e4893c06a8a23078-p_e.jpg,,
"2 Magnum Bonum Dr, Breckenridge, CO 80424",80424,Breckenridge,CO,3200,2.0,1.0,784.0,4.08,https://zillow.com/homedetails/2-Magnum-Bonum-Dr-Breckenridge-CO-80424/194068665_zpid/,39.48996,-106.03897,SINGLE_FAMILY,577400.0,3165.0,https://photos.zillowstatic.com/fp/c58b34f8aa209e45187f6b32a55fb818-p_e.jpg,,
"530 Woodward St, Silver Plume, CO 80476",80476,Silver Plume,CO,1925,1.0,1.0,700.0,2.75,https://zillow.com/homedetails/530-Woodward-St-Silver-Plume-CO-80476/13266626_zpid/,39.695965,-105.726074,SINGLE_FAMILY,277400.0,1692.0,https://photos.zillowstatic.com/fp/db7b7cc691400a0450a2ed9a0ad57378-p_e.jpg,,
"471 High Point Dr, Breckenridge, CO 80424",80424,Breckenridge,CO,4500,4.0,2.0,1800.0,2.5,https://zillow.com/apartments/breckenridge-co/471-high-point-dr./CmPBFb/,39.4818,-106.02917,APARTMENT,1523800.0,2364.0,https://photos.zillowstatic.com/fp/bcab3178cce79ca2b7fbd5c3f790d760-p_e.jpg,,
"2111 Hummingbird Way, Georgetown, CO 80444",80444,Georgetown,CO,1495,1.0,1.0,473.0,3.16,https://zillow.com/apartments/georgetown-co/hummingbird-way-2111/CktRDD/,39.638073,-105.736305,APARTMENT,,,https://photos.zillowstatic.com/fp/3f80e0a94e413e11b29889327d244f3f-p_e.jpg,,
"4400 Lodgepole Ct UNIT 107-H, Silverthorne, CO 80498",80498,Silverthorne,CO,3000,2.0,2.0,758.0,3.96,https://zillow.com/homedetails/4400-Lodgepole-Ct-UNIT-107-H-Silverthorne-CO-80498/453837330_zpid/,39.619785,-106.098755,APARTMENT,411400.0,,https://photos.zillowstatic.com/fp/e6040ecfa4a9bd1bc765261c2da10ddb-p_e.jpg,,
"1250 Baldy Rd, Breckenridge, CO 80424",80424,Breckenridge,CO,3400,3.0,2.0,1077.0,3.16,https://zillow.com/homedetails/1250-Baldy-Rd-Breckenridge-CO-80424/306696372_zpid/,39.468723,-106.014694,SINGLE_FAMILY,723500.0,4038.0,https://photos.zillowstatic.com/fp/ef84d66156f02f1e525e4ddaf9e4c908-p_e.jpg,,
"330 Wilderness Dr, Breckenridge, CO 80424",80424,Breckenridge,CO,1975,,1.0,625.0,3.16,https://zillow.com/apartments/blue-river-co/330-wilderness-drive/CmHWPK/,39.425648,-106.04066,APARTMENT,1590500.0,2253.0,https://photos.zillowstatic.com/fp/cf3639bc2d9c148516f91bc338c4f94c-p_e.jpg,,
"217 Lake View Cir E, Breckenridge, CO 80424",80424,Breckenridge,CO,5200,3.0,2.0,2001.0,2.6,https://zillow.com/homedetails/217-Lake-View-Cir-E-Breckenridge-CO-80424/194069225_zpid/,39.55619,-106.05178,SINGLE_FAMILY,1132900.0,4760.0,https://photos.zillowstatic.com/fp/c87a4a03d277b046638c7573b2181629-p_e.jpg,,
"108 Salt Lick Cir #112, Silverthorne, CO 80498",80498,Silverthorne,CO,3325,2.0,2.0,917.0,3.63,https://zillow.com/homedetails/108-Salt-Lick-Cir-112-Silverthorne-CO-80498/2069494388_zpid/,39.617855,-106.0792,SINGLE_FAMILY,510600.0,3064.0,https://photos.zillowstatic.com/fp/90770c7964e67b9485715906dee27930-p_e.jpg,,
"1054 Straight Creek Dr, Dillon, CO 80435",80435,Dillon,CO,3900,3.0,2.0,1440.0,2.71,https://zillow.com/homedetails/1054-Straight-Creek-Dr-Dillon-CO-80435/194085227_zpid/,39.64187,-106.035545,SINGLE_FAMILY,920200.0,3876.0,https://photos.zillowstatic.com/fp/771b2cde2a7d7197d3d5290dad6e46c9-p_e.jpg,,
"412 S Main St #223, Breckenridge, CO 80424",80424,Breckenridge,CO,3100,2.0,1.0,608.0,5.1,https://zillow.com/homedetails/412-S-Main-St-223-Breckenridge-CO-80424/2067503293_zpid/,39.477844,-106.04481,APARTMENT,,2616.0,https://photos.zillowstatic.com/fp/9a74686ae949f2df1759b4076162b0d5-p_e.jpg,,
"9430 Ryan Gulch Rd #4, Silverthorne, CO 80498",80498,Silverthorne,CO,3500,3.0,3.0,1466.0,2.39,https://zillow.com/homedetails/9430-Ryan-Gulch-Rd-4-Silverthorne-CO-80498/449029349_zpid/,39.617012,-106.09806,SINGLE_FAMILY,768900.0,,https://photos.zillowstatic.com/fp/a30a64f9cecc02b0ab62d5e71f5d7e67-p_e.jpg,,
"97 Lake Ridge Cir #1858, Keystone, CO 80435",80435,Keystone,CO,4500,3.0,3.0,1450.0,3.1,https://zillow.com/homedetails/97-Lake-Ridge-Cir-1858-Keystone-CO-80435/194082182_zpid/,39.605145,-105.96808,APARTMENT,1107100.0,3408.0,https://photos.zillowstatic.com/fp/181d4f64f196fccadc676fb5b2ec97e2-p_e.jpg,,
"21 Buffalo Dr #221, Silverthorne, CO 80498",80498,Silverthorne,CO,3300,2.0,2.0,952.0,3.47,https://zillow.com/homedetails/21-Buffalo-Dr-221-Silverthorne-CO-80498/194075106_zpid/,39.61943,-106.08225,APARTMENT,572600.0,3168.0,https://photos.zillowstatic.com/fp/85b47383958058df709bf5c91b1c9f01-p_e.jpg,,
"303 Overlook Dr #4C, Breckenridge, CO 80424",80424,Breckenridge,CO,2900,1.0,1.0,624.0,4.65,https://zillow.com/homedetails/303-Overlook-Dr-4C-Breckenridge-CO-80424/246304620_zpid/,39.475414,-106.03333,APARTMENT,417900.0,2750.0,https://photos.zillowstatic.com/fp/8fc5bd11e6d148a68f6594aec190d923-p_e.jpg,,
"1043 Straight Creek Dr #O-303, Dillon, CO 80435",80435,Dillon,CO,3500,2.0,2.0,762.0,4.59,https://zillow.com/homedetails/1043-Straight-Creek-Dr-O-303-Dillon-CO-80435/455270951_zpid/,39.642296,-106.03715,APARTMENT,,,https://photos.zillowstatic.com/fp/ad0044a29e2ba7a83939bb18fd2ae647-p_e.jpg,,
"82 Wheeler Cir APT 114C, Frisco, CO 80443",80443,Frisco,CO,2750,,1.0,440.0,6.25,https://zillow.com/homedetails/82-Wheeler-Cir-APT-114C-Frisco-CO-80443/194085048_zpid/,39.50004,-106.144844,APARTMENT,442400.0,1929.0,https://photos.zillowstatic.com/fp/39587a3ffc9c0c6715d6be5f4e5ca26c-p_e.jpg,,
"921 Fairview Blvd, Breckenridge, CO 80424",80424,Breckenridge,CO,3200,2.0,2.0,1060.0,3.02,https://zillow.com/homedetails/921-Fairview-Blvd-Breckenridge-CO-80424/194076626_zpid/,39.52495,-106.04469,TOWNHOUSE,626400.0,2952.0,"https://maps.googleapis.com/maps/api/staticmap?mobile=false&sensor=true&maptype=satellite&size=575x242&zoom=17&center=39.52494812011719,-106.04469299316406&key=AIzaSyBWYJWCA8FNMQvSe_k3LKfDGJaEgdKwsco&signature=RPIxjKqDfDu4fNsv0P60wcW7neM=",,
"1233 Rainbow Dr, Silverthorne, CO 80498",80498,Silverthorne,CO,4800,4.0,3.0,1856.0,2.59,https://zillow.com/homedetails/1233-Rainbow-Dr-Silverthorne-CO-80498/2119070692_zpid/,39.643715,-106.07339,TOWNHOUSE,931400.0,3777.0,https://photos.zillowstatic.com/fp/aed2f45c02cdacad489c0238be509369-p_e.jpg,,
"79 County Road D, Silverthorne, CO 80498",80498,Silverthorne,CO,3000,2.0,1.0,1200.0,2.5,https://zillow.com/homedetails/79-County-Road-D-Silverthorne-CO-80498/349601133_zpid/,39.635048,-106.06193,APARTMENT,,,https://photos.zillowstatic.com/fp/cc643cb2d8e88495b6add9734963ba8e-p_e.jpg,,
"242 Burgundy Cir, Silverthorne, CO 80498",80498,Silverthorne,CO,4500,3.0,2.0,1407.0,3.2,https://zillow.com/homedetails/242-Burgundy-Cir-Silverthorne-CO-80498/445958555_zpid/,39.61696,-106.08864,TOWNHOUSE,970100.0,,https://photos.zillowstatic.com/fp/39482597916a39b90e5065ee2d0361e1-p_e.jpg,,
"430 S Frontage Rd E #RUK, Vail, CO 81657",81657,Vail,CO,6000,2.0,2.0,1100.0,5.45,https://zillow.com/homedetails/430-S-Frontage-Rd-E-RUK-Vail-CO-81657/440891987_zpid/,39.641823,-106.36965,APARTMENT,,,https://photos.zillowstatic.com/fp/f8e01880b2b00e08c604481db9c1a5fe-p_e.jpg,,
"206 Eagle St UNIT B, Red Cliff, CO 81649",81649,Red Cliff,CO,2400,2.0,2.0,1200.0,2.0,https://zillow.com/homedetails/206-Eagle-St-UNIT-B-Red-Cliff-CO-81649/2061152408_zpid/,39.512856,-106.36757,APARTMENT,,3082.0,https://photos.zillowstatic.com/fp/2aa8e6cc7535318e820acd0533892cb5-p_e.jpg,,
"16 Arrowhead Ct, Dillon, CO 80435",80435,Dillon,CO,4200,3.0,2.0,1625.0,2.58,https://zillow.com/homedetails/16-Arrowhead-Ct-Dillon-CO-80435/194085239_zpid/,39.635086,-106.04967,SINGLE_FAMILY,1006400.0,4680.0,https://photos.zillowstatic.com/fp/bb8c898ddcb734c51d1787aef43c5e2d-p_e.jpg,,
"975 N Ten Mile Dr #E1, Frisco, CO 80443",80443,Frisco,CO,3500,2.0,2.0,968.0,3.62,https://zillow.com/homedetails/975-N-Ten-Mile-Dr-E1-Frisco-CO-80443/194083950_zpid/,39.590145,-106.09314,APARTMENT,781600.0,2950.0,https://photos.zillowstatic.com/fp/84af78a6128ea5ba685ca5bda18f950b-p_e.jpg,,
"34 Highfield Trl #201, Breckenridge, CO 80424",80424,Breckenridge,CO,2900,1.0,1.0,583.0,4.97,https://zillow.com/homedetails/34-Highfield-Trl-201-Breckenridge-CO-80424/248568193_zpid/,39.532036,-106.04126,APARTMENT,488000.0,2375.0,https://photos.zillowstatic.com/fp/8313262e09eca76d480318f657b4457a-p_e.jpg,,
"1408 Rainbow Dr, Silverthorne, CO 80498",80498,Silverthorne,CO,3700,2.0,1.0,816.0,4.53,https://zillow.com/homedetails/1408-Rainbow-Dr-Silverthorne-CO-80498/194066501_zpid/,39.648968,-106.07176,SINGLE_FAMILY,814700.0,3006.0,https://photos.zillowstatic.com/fp/4ea2c85ee529bf4c4b29ff245c4184d4-p_e.jpg,,
"3094 Booth Falls Rd UNIT 14, Vail, CO 81657",81657,Vail,CO,10000,4.0,3.0,1980.0,5.05,https://zillow.com/homedetails/3094-Booth-Falls-Rd-UNIT-14-Vail-CO-81657/13500782_zpid/,39.649937,-106.31997,TOWNHOUSE,1860600.0,6495.0,https://photos.zillowstatic.com/fp/8454d3cb1303e194d9047a0306fedd4c-p_e.jpg,,
"22787 Us Highway 6 #213, Dillon, CO 80435",80435,Dillon,CO,3900,2.0,2.0,930.0,4.19,https://zillow.com/homedetails/22787-Us-Highway-6-213-Dillon-CO-80435/194081190_zpid/,39.608414,-105.956566,APARTMENT,703100.0,3321.0,https://photos.zillowstatic.com/fp/66306059857215ee26890d9487672d66-p_e.jpg,,
"117 Gold Run Cir, Dillon, CO 80435",80435,Dillon,CO,8600,4.0,4.0,3327.0,2.58,https://zillow.com/homedetails/117-Gold-Run-Cir-Dillon-CO-80435/194086916_zpid/,39.63063,-106.04164,SINGLE_FAMILY,2043600.0,6135.0,https://photos.zillowstatic.com/fp/181921de4dcb8f39664ca34503a7c37b-p_e.jpg,,
"385 Gore Creek Dr APT 201, Vail, CO 81657",81657,Vail,CO,12000,2.0,2.0,950.0,12.63,https://zillow.com/homedetails/385-Gore-Creek-Dr-APT-201-Vail-CO-81657/13502932_zpid/,39.64085,-106.37138,APARTMENT,2064700.0,4980.0,https://photos.zillowstatic.com/fp/f1ff4cdb250db7672abbf07c3dab0d44-p_e.jpg,,
"66 6th St, Silverthorne, CO 80498",80498,Silverthorne,CO,5400,4.0,4.0,2035.0,2.65,https://zillow.com/homedetails/66-6th-St-Silverthorne-CO-80498/2059000214_zpid/,39.63543,-106.07457,TOWNHOUSE,1197100.0,5127.0,https://photos.zillowstatic.com/fp/bcede1665539950b650fcbc6f2b0bc7c-p_e.jpg,,
"2400 Lodgepole Ct #D-107, Silverthorne, CO 80498",80498,Silverthorne,CO,3000,2.0,2.0,758.0,3.96,https://zillow.com/homedetails/2400-Lodgepole-Ct-D-107-Silverthorne-CO-80498/2059118755_zpid/,39.620056,-106.09935,APARTMENT,,2836.0,https://photos.zillowstatic.com/fp/a39b18d2ec37e2b087f5880e4e0f0eab-p_e.jpg,,
"1911 Boreas Pass Rd #14, Breckenridge, CO 80424",80424,Breckenridge,CO,2800,1.0,2.0,740.0,3.78,https://zillow.com/homedetails/1911-Boreas-Pass-Rd-14-Breckenridge-CO-80424/246306160_zpid/,39.474636,-106.03055,APARTMENT,454900.0,3006.0,https://photos.zillowstatic.com/fp/b7436de6c19cdadac1eb9550fc3f9d63-p_e.jpg,,
"655 Straight Creek Dr #H-104, Dillon, CO 80435",80435,Dillon,CO,2000,1.0,1.0,600.0,3.33,https://zillow.com/homedetails/655-Straight-Creek-Dr-H-104-Dillon-CO-80435/2063531992_zpid/,39.64006,-106.04218,APARTMENT,,2194.0,https://photos.zillowstatic.com/fp/ab794788071ce3c2efff97e10a91586f-p_e.jpg,,
"1070 Blue River Pkwy #2-303, Silverthorne, CO 80498",80498,Silverthorne,CO,4250,2.0,2.0,1080.0,3.94,https://zillow.com/homedetails/1070-Blue-River-Pkwy-2-303-Silverthorne-CO-80498/448171607_zpid/,39.642048,-106.07756,APARTMENT,,,https://photos.zillowstatic.com/fp/08f0345ffe31e92d77dbac37ccebdf73-p_e.jpg,,
"120 Cove Blvd UNIT 207, Dillon, CO 80435",80435,Dillon,CO,3000,2.0,2.0,971.0,3.09,https://zillow.com/homedetails/120-Cove-Blvd-UNIT-207-Dillon-CO-80435/194077913_zpid/,39.601437,-106.00869,APARTMENT,658800.0,3097.0,https://photos.zillowstatic.com/fp/d4e10d0dd12d4a0a0177a38d4ea9d871-p_e.jpg,,
"900 Rose St, Georgetown, CO 80444",80444,Georgetown,CO,3200,3.0,2.0,1200.0,2.67,https://zillow.com/homedetails/900-Rose-St-Georgetown-CO-80444/13267199_zpid/,39.708252,-105.69605,TOWNHOUSE,465300.0,2896.0,https://photos.zillowstatic.com/fp/b397ec60e5308ee06b7aae67f8311a64-p_e.jpg,,
"395 Cove Blvd UNIT G, Dillon, CO 80435",80435,Dillon,CO,2850,2.0,2.0,1100.0,2.59,https://zillow.com/homedetails/395-Cove-Blvd-UNIT-G-Dillon-CO-80435/2068467883_zpid/,39.59853,-106.01242,APARTMENT,,3658.0,https://photos.zillowstatic.com/fp/1a776255d3201a51714ce429c0faf7d4-p_e.jpg,,
"911 Taos St, Georgetown, CO 80444",80444,Georgetown,CO,2900,3.0,2.0,1346.0,2.15,https://zillow.com/homedetails/911-Taos-St-Georgetown-CO-80444/13267196_zpid/,39.70843,-105.69561,SINGLE_FAMILY,560100.0,2936.0,https://photos.zillowstatic.com/fp/7e3017642711c7db88bd47caaadc7f15-p_e.jpg,,
"4800 Meadow Dr UNIT 21, Vail, CO 81657",81657,Vail,CO,4500,3.0,3.0,1595.0,2.82,https://zillow.com/homedetails/4800-Meadow-Dr-UNIT-21-Vail-CO-81657/13504551_zpid/,39.629562,-106.28933,TOWNHOUSE,2252700.0,5852.0,"https://maps.googleapis.com/maps/api/staticmap?mobile=false&sensor=true&maptype=satellite&size=575x242&zoom=17&center=39.62956237792969,-106.2893295288086&key=AIzaSyBWYJWCA8FNMQvSe_k3LKfDGJaEgdKwsco&signature=bi2xPCufz0k9ugXq4EUrW7BXwIA=",,
"166 S Fuller Placer Rd #1, Breckenridge, CO 80424",80424,Breckenridge,CO,4700,3.0,2.0,1261.0,3.73,https://zillow.com/homedetails/166-S-Fuller-Placer-Rd-1-Breckenridge-CO-80424/334419971_zpid/,39.46811,-106.01284,APARTMENT,862200.0,4331.0,https://photos.zillowstatic.com/fp/f32b573d4a8f4819181eaf682b74dfeb-p_e.jpg,,
"1100 N Frontage Rd W #1407, Vail, CO 81657",81657,Vail,CO,3900,2.0,1.0,1038.0,3.76,https://zillow.com/homedetails/1100-N-Frontage-Rd-W-1407-Vail-CO-81657/13506297_zpid/,39.642166,-106.39957,APARTMENT,1021500.0,2674.0,https://photos.zillowstatic.com/fp/04db5cc6fd4923f919c1a305816ec527-p_e.jpg,,
"89410 Ryan Gulch Rd #DD-403E, Silverthorne, CO 80498",80498,Silverthorne,CO,2328,1.0,1.0,480.0,4.85,https://zillow.com/homedetails/89410-Ryan-Gulch-Rd-DD-403E-Silverthorne-CO-80498/347774599_zpid/,39.619568,-106.10232,APARTMENT,,,https://photos.zillowstatic.com/fp/8ddf9f8328dcc8057c2efe2d10260c42-p_e.jpg,,
"340 E La Bonte St, Dillon, CO 80435",80435,Dillon,CO,2450,1.0,1.0,500.0,4.9,https://zillow.com/homedetails/340-E-La-Bonte-St-Dillon-CO-80435/2124553182_zpid/,39.630283,-106.04273,APARTMENT,,1921.0,https://photos.zillowstatic.com/fp/0e75d23446a1b29ad3a7c310a62072cb-p_e.jpg,,
"1207 Argentine St #2, Georgetown, CO 80444",80444,Georgetown,CO,1550,1.0,1.0,715.0,2.17,https://zillow.com/homedetails/1207-Argentine-St-2-Georgetown-CO-80444/449955820_zpid/,39.712765,-105.69613,APARTMENT,,,https://photos.zillowstatic.com/fp/e4a20c0bbaf7ddf4fbb3f5472cc1f550-p_e.jpg,,
"1519 Point Dr #208, Frisco, CO 80443",80443,Frisco,CO,2750,1.0,1.0,864.0,3.18,https://zillow.com/homedetails/1519-Point-Dr-208-Frisco-CO-80443/2063532244_zpid/,39.595093,-106.09174,APARTMENT,,2661.0,https://photos.zillowstatic.com/fp/5d72d2ee806e7dfcd9d33d23b537aa02-p_e.jpg,,
"1915 Airport Rd #214, Breckenridge, CO 80424",80424,Breckenridge,CO,2500,1.0,1.0,548.0,4.56,https://zillow.com/homedetails/1915-Airport-Rd-214-Breckenridge-CO-80424/246306776_zpid/,39.509026,-106.0522,APARTMENT,423700.0,2513.0,https://photos.zillowstatic.com/fp/a778a7395f96e09b06286ff4449efdfb-p_e.jpg,,
"43 Glen Cove Dr #43, Dillon, CO 80435",80435,Dillon,CO,3500,2.0,2.0,820.0,4.27,https://zillow.com/homedetails/43-Glen-Cove-Dr-43-Dillon-CO-80435/2063551474_zpid/,39.602688,-106.00892,APARTMENT,,3181.0,https://photos.zillowstatic.com/fp/954aa56ee00c581fdc0c418193001d0d-p_e.jpg,,
"57 W Hanson Rd, Dillon, CO 80435",80435,Dillon,CO,3700,2.0,2.0,900.0,4.11,https://zillow.com/homedetails/57-W-Hanson-Rd-Dillon-CO-80435/194067649_zpid/,39.60911,-105.95554,SINGLE_FAMILY,633100.0,2938.0,https://photos.zillowstatic.com/fp/ad0589d1efdd589955815cbde40ac782-p_e.jpg,,
"1479 Main St, Georgetown, CO 80444",80444,Georgetown,CO,2100,3.0,1.0,1750.0,1.2,https://zillow.com/homedetails/1479-Main-St-Georgetown-CO-80444/13267068_zpid/,39.71451,-105.69297,TOWNHOUSE,407200.0,2702.0,https://photos.zillowstatic.com/fp/39bf830dae33a3e30ea06a65bda5007f-p_e.jpg,,
"316 E La Bonte St #B, Dillon, CO 80435",80435,Dillon,CO,6500,4.0,3.0,2237.0,2.91,https://zillow.com/homedetails/316-E-La-Bonte-St-B-Dillon-CO-80435/248568507_zpid/,39.629696,-106.04284,TOWNHOUSE,1506600.0,4766.0,https://photos.zillowstatic.com/fp/612fa3e01c1ffd0312463b66738dfa0b-p_e.jpg,,
"9460 Ryan Gulch Rd #74, Silverthorne, CO 80498",80498,Silverthorne,CO,3300,2.0,2.0,965.0,3.42,https://zillow.com/homedetails/9460-Ryan-Gulch-Rd-74-Silverthorne-CO-80498/2078095572_zpid/,39.617012,-106.09896,APARTMENT,,2925.0,https://photos.zillowstatic.com/fp/a160fcaf9e95c7c34fc0332de3978a42-p_e.jpg,,
"2892C Kinnikinnick Rd, Vail, CO 81657",81657,Vail,CO,17000,3.0,4.0,1800.0,9.44,https://zillow.com/homedetails/2892C-Kinnikinnick-Rd-Vail-CO-81657/2061828578_zpid/,39.619846,-106.42746,SINGLE_FAMILY,1959900.0,4575.0,https://photos.zillowstatic.com/fp/af994a09ecc8d4ac8f360a75057f9419-p_e.jpg,,
"2300 Lodge Pole Cir #303-C, Silverthorne, CO 80498",80498,Silverthorne,CO,4250,3.0,2.0,1150.0,3.7,https://zillow.com/homedetails/2300-Lodge-Pole-Cir-303-C-Silverthorne-CO-80498/2063526624_zpid/,39.618793,-106.096085,APARTMENT,,3078.0,https://photos.zillowstatic.com/fp/ee2fc9e46b63855ca707e20daf6cba97-p_e.jpg,,
"1435 Marion St #2, Georgetown, CO 80444",80444,Georgetown,CO,2395,2.0,1.0,860.0,2.78,https://zillow.com/homedetails/1435-Marion-St-2-Georgetown-CO-80444/345051336_zpid/,39.713905,-105.69413,TOWNHOUSE,338200.0,1834.0,https://photos.zillowstatic.com/fp/60e5a4758284d70b2ef10a70661e7f65-p_e.jpg,,
"235 Huron Rd, Breckenridge, CO 80424",80424,Breckenridge,CO,3300,2.0,2.0,1182.0,2.79,https://zillow.com/homedetails/235-Huron-Rd-Breckenridge-CO-80424/454917159_zpid/,39.493443,-106.04095,APARTMENT,,,https://photos.zillowstatic.com/fp/f6f14979244e5572341a81cabb979c8e-p_e.jpg,,
"125 Sunset Dr #C-1, Frisco, CO 80443",80443,Frisco,CO,4000,3.0,4.0,1650.0,2.42,https://zillow.com/homedetails/125-Sunset-Dr-C-1-Frisco-CO-80443/455124549_zpid/,39.576992,-106.1048,APARTMENT,,,https://photos.zillowstatic.com/fp/674cfa0d0c8e462fc17bbc17bed2b022-p_e.jpg,,
"1059 Royal Coachman Blvd, Keystone, CO 80435",80435,Keystone,CO,3900,3.0,3.0,1600.0,2.44,https://zillow.com/homedetails/1059-Royal-Coachman-Blvd-Keystone-CO-80435/194083377_zpid/,39.587288,-106.018585,TOWNHOUSE,962000.0,3692.0,https://photos.zillowstatic.com/fp/b7d3bcf9a2d27e9eb79e154aacbe8010-p_e.jpg,,
"138 Woodchuck Ct, Silverthorne, CO 80498",80498,Silverthorne,CO,7000,3.0,2.0,1327.0,5.28,https://zillow.com/homedetails/138-Woodchuck-Ct-Silverthorne-CO-80498/194066879_zpid/,39.65094,-106.08406,SINGLE_FAMILY,1055800.0,3901.0,https://photos.zillowstatic.com/fp/158931bc24ede98a290a4ca7b07c4719-p_e.jpg,,
"2614 Larkspur Ln #E, Vail, CO 81657",81657,Vail,CO,19000,4.0,4.0,2145.0,8.86,https://zillow.com/homedetails/2614-Larkspur-Ln-E-Vail-CO-81657/349559197_zpid/,39.618538,-106.42707,TOWNHOUSE,2858200.0,5796.0,https://photos.zillowstatic.com/fp/ec7a74e7263ede229183890470a34040-p_e.jpg,,
"187 N Fuller Placer Rd #5-F, Breckenridge, CO 80424",80424,Breckenridge,CO,8000,3.0,3.0,1547.0,5.17,https://zillow.com/homedetails/187-N-Fuller-Placer-Rd-5-F-Breckenridge-CO-80424/444137501_zpid/,39.4715,-106.01602,APARTMENT,,,https://photos.zillowstatic.com/fp/a391dba863296d1020731a4d3d9d4c83-p_e.jpg,,
"1937 Soda Ridge Rd #1141, Montezuma, CO 80435",80435,Montezuma,CO,3000,,1.0,553.0,5.42,https://zillow.com/homedetails/1937-Soda-Ridge-Rd-1141-Montezuma-CO-80435/194070493_zpid/,39.601974,-105.97511,APARTMENT,434700.0,2157.0,https://photos.zillowstatic.com/fp/8d00118f06fee792edbc4d4c61fb645a-p_e.jpg,,
"223 Lone Hand Way, Breckenridge, CO 80424",80424,Breckenridge,CO,4900,3.0,3.0,2470.0,1.98,https://zillow.com/homedetails/223-Lone-Hand-Way-Breckenridge-CO-80424/194067851_zpid/,39.50099,-106.06502,SINGLE_FAMILY,1557900.0,4118.0,https://photos.zillowstatic.com/fp/719715a14a228ca0d9244127e726641b-p_e.jpg,,
"121 Elk Horn Ln, Breckenridge, CO 80424",80424,Breckenridge,CO,7200,4.0,3.0,2000.0,3.6,https://zillow.com/homedetails/121-Elk-Horn-Ln-Breckenridge-CO-80424/194068566_zpid/,39.48099,-106.03201,SINGLE_FAMILY,1520800.0,6626.0,https://photos.zillowstatic.com/fp/720d17697b5975059bc92ba0cbd4d0f4-p_e.jpg,,
"18 Magnum Bonum Dr, Breckenridge, CO 80424",80424,Breckenridge,CO,4200,3.0,2.0,960.0,4.38,https://zillow.com/homedetails/18-Magnum-Bonum-Dr-Breckenridge-CO-80424/194068868_zpid/,39.49095,-106.041176,SINGLE_FAMILY,691800.0,4111.0,https://photos.zillowstatic.com/fp/a69bce54a9c6c2ff5603b452c999c432-p_e.jpg,,
"114 Windwood Cir, Breckenridge, CO 80424",80424,Breckenridge,CO,10000,4.0,5.0,4202.0,2.38,https://zillow.com/homedetails/114-Windwood-Cir-Breckenridge-CO-80424/246306191_zpid/,39.485542,-106.05297,SINGLE_FAMILY,4451400.0,7497.0,https://photos.zillowstatic.com/fp/8d323b909cf49926513a0e28c2a06963-p_e.jpg,,
"6915 Highway 9, Breckenridge, CO 80424",80424,Breckenridge,CO,3800,3.0,2.0,1300.0,2.92,https://zillow.com/homedetails/6915-Highway-9-Breckenridge-CO-80424/455058198_zpid/,39.43863,-106.043236,SINGLE_FAMILY,843200.0,,https://photos.zillowstatic.com/fp/f4ab23aa0633cbf4cf737985c2cd5d6d-p_e.jpg,,
"20 Cove Blvd #C2, Dillon, CO 80435",80435,Dillon,CO,2500,1.0,1.0,524.0,4.77,https://zillow.com/homedetails/20-Cove-Blvd-C2-Dillon-CO-80435/194079114_zpid/,39.60195,-106.007416,APARTMENT,412200.0,2306.0,https://photos.zillowstatic.com/fp/126f07fc216d2e875b12b65a74607c9f-p_e.jpg,,
"110 S 1st Ave #E, Frisco, CO 80443",80443,Frisco,CO,4000,2.0,3.0,1689.0,2.37,https://zillow.com/homedetails/110-S-1st-Ave-E-Frisco-CO-80443/2068540719_zpid/,39.57455,-106.101135,APARTMENT,,4274.0,https://photos.zillowstatic.com/fp/f7a942b7a0627a433b1e91b4ff561ff1-p_e.jpg,,
"455 Delaware Dr, Breckenridge, CO 80424",80424,Breckenridge,CO,5500,3.0,2.0,2200.0,2.5,https://zillow.com/homedetails/455-Delaware-Dr-Breckenridge-CO-80424/194069456_zpid/,39.53136,-106.03172,SINGLE_FAMILY,,4851.0,https://photos.zillowstatic.com/fp/97179f25fc94755d77f91aa108322c66-p_e.jpg,,
"102 Salt Lick Cir, Silverthorne, CO 80498",80498,Silverthorne,CO,2750,2.0,2.0,900.0,3.06,https://zillow.com/homedetails/102-Salt-Lick-Cir-Silverthorne-CO-80498/194083438_zpid/,39.617847,-106.07865,APARTMENT,555000.0,2951.0,https://photos.zillowstatic.com/fp/0d0d6dce3852b377ae2e3704cf28045e-p_e.jpg,,
"6954 Ryan Gulch Rd, Silverthorne, CO 80498",80498,Silverthorne,CO,3500,2.0,2.0,958.0,3.65,https://zillow.com/homedetails/6954-Ryan-Gulch-Rd-Silverthorne-CO-80498/194075376_zpid/,39.619617,-106.08976,APARTMENT,632100.0,3152.0,https://photos.zillowstatic.com/fp/642f1ec723d1ce0366c8b4e5ab987800-p_e.jpg,,
"2458 Garmisch Dr, Vail, CO 81657",81657,VAIL,CO,5500,3.0,3.0,1780.0,3.09,https://zillow.com/homedetails/2458-Garmisch-Dr-Vail-CO-81657/13505734_zpid/,39.628876,-106.42356,SINGLE_FAMILY,,7453.0,https://photos.zillowstatic.com/fp/8c60b743148a75ebec539bfd84fd4e22-p_e.jpg,,
"1650 Lakeview Ter #E204, Frisco, CO 80443",80443,Frisco,CO,3450,2.0,2.0,1054.0,3.27,https://zillow.com/homedetails/1650-Lakeview-Ter-E204-Frisco-CO-80443/441982507_zpid/,39.598137,-106.08975,APARTMENT,,,https://photos.zillowstatic.com/fp/05265a4107cc7e71c3b9e61a2b970661-p_e.jpg,,
"1525 Royal Buffalo Dr, Silverthorne, CO 80498",80498,Silverthorne,CO,5950,3.0,3.0,1837.0,3.24,https://zillow.com/homedetails/1525-Royal-Buffalo-Dr-Silverthorne-CO-80498/194066133_zpid/,39.6224,-106.0929,SINGLE_FAMILY,1406200.0,4266.0,https://photos.zillowstatic.com/fp/98c12447db8bff03b6890ddfc4507970-p_e.jpg,,
"1953 County Road 308, Dumont, CO 80436",80436,Dumont,CO,2300,2.0,1.0,896.0,2.57,https://zillow.com/homedetails/1953-County-Road-308-Dumont-CO-80436/13266175_zpid/,39.765244,-105.6295,SINGLE_FAMILY,378500.0,2241.0,https://photos.zillowstatic.com/fp/47b3bb07bda176d5c0c54db62d8b4a2f-p_e.jpg,,
"8300 Ryan Gulch Rd #F-104, Silverthorne, CO 80498",80498,Silverthorne,CO,2950,2.0,2.0,758.0,3.89,https://zillow.com/homedetails/8300-Ryan-Gulch-Rd-F-104-Silverthorne-CO-80498/450783605_zpid/,39.617924,-106.09718,APARTMENT,,,https://photos.zillowstatic.com/fp/a63e565c07a2e3d921796d7474540bae-p_e.jpg,,
"1090 Vail View Dr, Vail, CO 81657",81657,Vail,CO,4500,3.0,3.0,1742.0,2.58,https://zillow.com/homedetails/1090-Vail-View-Dr-Vail-CO-81657/2060379332_zpid/,39.643196,-106.39911,TOWNHOUSE,1450100.0,4550.0,https://photos.zillowstatic.com/fp/48892fbce63b840c9fe8f08a2e44dca9-p_e.jpg,,
"152 Bunker Hill Lode Rd, Breckenridge, CO 80424",80424,Breckenridge,CO,4795,3.0,4.0,1900.0,2.52,https://zillow.com/homedetails/152-Bunker-Hill-Lode-Rd-Breckenridge-CO-80424/453322128_zpid/,39.46484,-106.01719,TOWNHOUSE,1126500.0,,https://photos.zillowstatic.com/fp/1fe9e4692b65f2c0bc405ce4f12602c7-p_e.jpg,,
"2045 Bluebird Dr, Georgetown, CO 80444",80444,Georgetown,CO,1200,,1.0,460.0,2.61,https://zillow.com/homedetails/2045-Bluebird-Dr-Georgetown-CO-80444/248485184_zpid/,39.723186,-105.690506,SINGLE_FAMILY,,2047.0,https://photos.zillowstatic.com/fp/4e13f54bd1d01e14b29eb6c798b31527-p_e.jpg,,
"3334 Ski Hill Rd, Breckenridge, CO 80424",80424,Breckenridge,CO,4600,3.0,2.0,1650.0,2.79,https://zillow.com/homedetails/3334-Ski-Hill-Rd-Breckenridge-CO-80424/194068192_zpid/,39.495564,-106.05804,SINGLE_FAMILY,1433100.0,4439.0,https://photos.zillowstatic.com/fp/4cbaf45b6ee9725b7697622f54a2a39f-p_e.jpg,,
"423 Wild Irishman Rd #1009, Keystone, CO 80435",80435,Keystone,CO,2600,2.0,1.0,977.0,2.66,https://zillow.com/homedetails/423-Wild-Irishman-Rd-1009-Keystone-CO-80435/2099909078_zpid/,39.604187,-105.97234,APARTMENT,,2793.0,https://photos.zillowstatic.com/fp/5a15bfedd7d8948fbf4495fd6d22c58a-p_e.jpg,,
"3971 Bighorn Rd #14J, Vail, CO 81657",81657,Vail,CO,5000,3.0,3.0,1252.0,3.99,https://zillow.com/homedetails/3971-Bighorn-Rd-14J-Vail-CO-81657/453520008_zpid/,39.64165,-106.30355,APARTMENT,,,https://photos.zillowstatic.com/fp/68e2b252ecae10ab3be08b0b72eba34d-p_e.jpg,,
"8026 Ryan Gulch Rd, Silverthorne, CO 80498",80498,Silverthorne,CO,2800,2.0,1.0,552.0,5.07,https://zillow.com/homedetails/8026-Ryan-Gulch-Rd-Silverthorne-CO-80498/194075073_zpid/,39.619305,-106.088425,APARTMENT,403400.0,2707.0,https://photos.zillowstatic.com/fp/a29aade75c5a8520dbc60cae7c3aea00-p_e.jpg,,
"213C Ensign Dr, Dillon, CO 80435",80435,Dillon,CO,6500,3.0,3.0,2186.0,2.97,https://zillow.com/homedetails/213C-Ensign-Dr-Dillon-CO-80435/194073038_zpid/,39.62205,-106.025665,TOWNHOUSE,1241000.0,3994.0,https://photos.zillowstatic.com/fp/0d6f93541d028dab48bfdda2493daafd-p_e.jpg,,
"6375 Barton Rd, Breckenridge, CO 80424",80424,Breckenridge,CO,4500,3.0,2.0,1570.0,2.87,https://zillow.com/homedetails/6375-Barton-Rd-Breckenridge-CO-80424/194069833_zpid/,39.50721,-106.06144,SINGLE_FAMILY,1150000.0,4215.0,https://photos.zillowstatic.com/fp/6b6f21e78159051c450b76a67c40206d-p_e.jpg,,
"214 S Harris St UNIT 302, Breckenridge, CO 80424",80424,Breckenridge,CO,2600,1.0,1.0,480.0,5.42,https://zillow.com/homedetails/214-S-Harris-St-UNIT-302-Breckenridge-CO-80424/194071353_zpid/,39.480274,-106.04181,APARTMENT,421900.0,2470.0,https://photos.zillowstatic.com/fp/1003a0473bf12da02c3287b9f5a1227c-p_e.jpg,,
"170 Evergreen Rd #D202, Dillon, CO 80435",80435,Dillon,CO,2200,1.0,1.0,501.0,4.39,https://zillow.com/homedetails/170-Evergreen-Rd-D202-Dillon-CO-80435/454038162_zpid/,39.633595,-106.04497,APARTMENT,,,https://photos.zillowstatic.com/fp/3ace30b0d57a80716166037983d2f043-p_e.jpg,,
"124 Soda Creek Ct #B, Dillon, CO 80435",80435,Dillon,CO,3100,1.0,1.0,1000.0,3.1,https://zillow.com/homedetails/124-Soda-Creek-Ct-B-Dillon-CO-80435/2079452261_zpid/,39.59324,-106.00982,APARTMENT,,3067.0,https://photos.zillowstatic.com/fp/d5e1fd14addf7cdc21e8937fe43eac9a-p_e.jpg,,
