zpid,Status Type,Status Text,Time On Zillow,rent,Area,Price Per Sqft,Zestimate,Zestimate Price Per Sqft,Rent Zestimate,Lot Area,Lot Area Unit,Beds,Bathrooms,Address,Street,city,State,Zipcode,latitude,longitude,Broker Name,is zillow owned,Sold Date,Sold Price,fips_code,geo_id
455216751,FOR_RENT,Apartment for rent,,2529.0,1433.0,2.0,,,,,,3.0,2.0,"The Carlton at Robinson Gateway, 9940 Mahaffey Dr, Palmetto, FL 34221",9940 Mahaffey Dr #07B30B463,Palmetto,FL,34221,27.578691,-82.53994,,False,,,,
454792827,FOR_RENT,Apartment for rent,,2150.0,900.0,2.0,,,,,,2.0,2.0,"Viewmax Apartments, 2101 NW 55th Ave #2111-302, Fort Lauderdale, FL 33313",2101 NW 55th Ave #2111-302,Fort Lauderdale,FL,33313,26.153093,-80.22381,,False,,,,
455785036,FOR_RENT,Apartment for rent,,2150.0,1133.0,2.0,,,,,,3.0,2.0,"The Keys at Wildwood, 12246 N Us Highway 301, Oxford, FL 34484",12246 N Us Highway 301 #CC29B62AE,Oxford,FL,34484,28.93454,-82.03938,,False,,,,
456080274,FOR_RENT,Apartment for rent,,1699.0,750.0,2.0,,,,,,1.0,1.0,"Legacy Oaks Apartment Homes, 805 S Beneva Rd, Sarasota, FL 34232",805 S Beneva Rd #5C485D948,Sarasota,FL,34232,27.3286,-82.497116,,False,,,,
442000188,FOR_RENT,Apartment for rent,,2655.0,1678.0,2.0,,,,,,3.0,3.0,"The Domains, 13900 Tech City Cir #9-13166, Alachua, FL 32615",13900 Tech City Cir #9-13166,Alachua,FL,32615,29.776682,-82.440445,,False,,,,
456143031,FOR_RENT,Apartment for rent,,1515.0,760.0,2.0,,,,,,1.0,1.0,"Executive House Apartments, 1000 N Lockwood Ridge Rd, Sarasota, FL 34237",1000 N Lockwood Ridge Rd #F03D07AC5,Sarasota,FL,34237,27.347357,-82.50463,,False,,,,
455711334,FOR_RENT,Apartment for rent,,2539.0,1569.0,2.0,,,,,,3.0,2.0,"Eleven Oaks, 175 Eleven Oaks Cir #19, Eustis, FL 32726",175 Eleven Oaks Cir #19,Eustis,FL,32726,28.852686,-81.653175,,False,,,,
2080640222,FOR_RENT,Apartment for rent,,1899.0,1056.0,2.0,,,2545.0,,,2.0,2.0,"TGM Bay Isle, 11850 Dr Martin Luther King Jr St N #207, Saint Petersburg, FL 33716",11850 Dr Martin Luther King Jr St N #207,Saint Petersburg,FL,33716,27.880959,-82.65399,,False,,,,
2056217489,FOR_RENT,Apartment for rent,,2360.0,1064.0,2.0,,,2292.0,,,2.0,2.0,"The Lucie at Tradition, 10550 SW Innovation Way #107, Pt Saint Lucie, FL 34987",10550 SW Innovation Way #107,Pt Saint Lucie,FL,34987,27.259792,-80.43288,,False,,,,
384275741,FOR_RENT,Apartment for rent,,1850.0,,,,,,,,2.0,2.0,"Palms at Humphrey, 1500 E Humphrey St, Tampa, FL 33604",1500 E Humphrey St #2B-2BA,Tampa,FL,33604,28.030262,-82.44194,,False,,,,
456076706,FOR_RENT,Apartment for rent,,2385.0,1063.0,2.0,,,,,,2.0,2.0,"Serenity Stuart, 400 SE Central Pkwy #410-1211, Stuart, FL 34994",400 SE Central Pkwy #410-1211,Stuart,FL,34994,27.180296,-80.24608,,False,,,,
446665033,FOR_RENT,Apartment for rent,,1699.0,950.0,2.0,,,,,,2.0,1.0,"2221 NW 58th Ter, 2221 NW 58th Ter, Fort Lauderdale, FL 33313",2221 NW 58th Ter #2B-1BA-950SQFT,Fort Lauderdale,FL,33313,26.154373,-80.22854,,False,,,,
452652271,FOR_RENT,Apartment for rent,,2300.0,709.0,3.0,,,,,,1.0,1.0,"312 Northwood, 312 23rd St UNIT 433, West Palm Beach, FL 33407",312 23rd St UNIT 433,West Palm Beach,FL,33407,26.733982,-80.05225,,False,,,,
449020454,FOR_RENT,Apartment for rent,,1595.0,718.0,2.0,,,,,,1.0,1.0,"Crosswinds Apartments, 1500 Lewis Turner Blvd, Fort Walton Beach, FL 32547",1500 Lewis Turner Blvd #FC02F66B1,Fort Walton Beach,FL,32547,30.459337,-86.634,,False,,,,
2083239040,FOR_RENT,Apartment for rent,,2420.0,1515.0,2.0,,,2339.0,,,3.0,2.0,"Legacy Union Square Apartments, 201 Kenbrook Way #17-302, Davenport, FL 33896",201 Kenbrook Way #17-302,Davenport,FL,33896,28.257301,-81.60421,,False,,,,
452098732,FOR_RENT,Apartment for rent,,2050.0,798.0,3.0,,,,,,1.0,1.0,"Marina Walk Apartments, 3680 46th Ave S #523, Saint Petersburg, FL 33712",3680 46th Ave S #523,Saint Petersburg,FL,33712,27.725964,-82.680756,,False,,,,
402461475,FOR_RENT,Apartment for rent,,1595.0,700.0,2.0,,,,,,2.0,1.0,"Oak Leaf, 900 21st St E, Palmetto, FL 34221",900 21st St E #2B-1BA-700SQFT,Palmetto,FL,34221,27.53324,-82.55538,,False,,,,
442694048,FOR_RENT,Townhouse for rent,,1999.0,1377.0,1.0,225700.0,164.0,,,,3.0,3.0,"Pless Landing, 300 Gibbs Rd #1, Pensacola, FL 32507",300 Gibbs Rd #1,Pensacola,FL,32507,30.379753,-87.290146,,False,,,,
402460358,FOR_RENT,Apartment for rent,,1799.0,766.0,2.0,,,,,,2.0,1.0,"Park 29 - Park Portfolio, 4249 76th Ave N, Pinellas Park, FL 33781",4249 76th Ave N #2B-1BA-766SQFT,Pinellas Park,FL,33781,27.841967,-82.69138,,False,,,,
455274010,FOR_RENT,Apartment for rent,,2475.0,1077.0,2.0,,,,,,2.0,2.0,"The Oaks Apartments, 1065 94th St, Miami Beach, FL 33154",1065 94th St #325C0EF5D,Miami Beach,FL,33154,25.885038,-80.13058,,False,,,,
384152300,FOR_RENT,Apartment for rent,,1550.0,,,,,1541.0,,,1.0,1.0,"Park View, 674 22nd Ave S, Saint Petersburg, FL 33705",674 22nd Ave S #1B-1BA,Saint Petersburg,FL,33705,27.748241,-82.64201,,False,,,,
455790812,FOR_RENT,Townhouse for rent,,2450.0,1673.0,1.0,469000.0,280.0,,,,3.0,3.0,"Kensington Place Townhomes, 3001 Intrepid Ave #1091844, Sarasota, FL 34232",3001 Intrepid Ave #1091844,Sarasota,FL,34232,27.337574,-82.472176,,False,,,,
456182704,FOR_RENT,Apartment for rent,,980.0,700.0,1.0,,,,,,1.0,1.0,"The Pines Apartments, 3016 Pinewood Dr NE, Palm Bay, FL 32905",3016 Pinewood Dr NE #F509B8A0A,Palm Bay,FL,32905,28.03813,-80.61512,,False,,,,
455716467,FOR_RENT,Apartment for rent,,1830.0,948.0,2.0,,,,,,2.0,2.0,"Aventura Orlando Apartments, 5300 Cinderlane Pkwy #A-5312, Orlando, FL 32808",5300 Cinderlane Pkwy #A-5312,Orlando,FL,32808,28.607075,-81.43038,,False,,,,
453795895,FOR_RENT,Apartment for rent,,1902.0,750.0,3.0,,,,,,1.0,1.0,"Oakland Park Villas, 1720 NW 37th St APT 1, Fort Lauderdale, FL 33309",1720 NW 37th St APT 1,Fort Lauderdale,FL,33309,26.172499,-80.16563,,False,,,,
449037370,FOR_RENT,Apartment for rent,,1410.0,1080.0,1.0,,,,,,1.0,1.0,"Arbor Trace, 3900 Arbor Trace Dr, Lynn Haven, FL 32444",3900 Arbor Trace Dr #D1702CFFD,Lynn Haven,FL,32444,30.217947,-85.66567,,False,,,,
456086830,FOR_RENT,Apartment for rent,,1250.0,1050.0,1.0,,,,,,2.0,2.0,"Cypresside Townhouses -, 2201 SE 14th Ave #15, Ocala, FL 34471",2201 SE 14th Ave #15,Ocala,FL,34471,29.16517,-82.11849,,False,,,,
2067607518,FOR_RENT,Apartment for rent,,2499.0,1498.0,2.0,,,2380.0,,,2.0,2.0,"Residences at Blackburn Bay, 2090 S Tamiami Trl APT 102, Osprey, FL 34229",2090 S Tamiami Trl APT 102,Osprey,FL,34229,27.165916,-82.47669,,False,,,,
402460841,FOR_RENT,Apartment for rent,,1395.0,,,,,,,,1.0,1.0,"The Atlas Apartments- Sabal, 2800 4th St S, Saint Petersburg, FL 33705",2800 4th St S #1B-1BA,Saint Petersburg,FL,33705,27.743124,-82.63843,,False,,,,
440459145,FOR_RENT,Apartment for rent,,1425.0,504.0,3.0,,,,,,1.0,1.0,"The Jade, 1150 3rd St SW #150, Winter Haven, FL 33880",1150 3rd St SW #150,Winter Haven,FL,33880,28.010136,-81.73026,,False,,,,
55331870,FOR_SALE,House for sale,,1349900.0,3124.0,432.0,1283700.0,411.0,4317.0,0.251262626,acres,4.0,4.0,"17210 Broadoak Dr, Tampa, FL 33647",17210 Broadoak Dr,Tampa,FL,33647,28.122734,-82.387924,FUTURE HOME REALTY INC,False,,,,
47527981,FOR_SALE,House for sale,,1300000.0,3168.0,410.0,,,,0.307644628,acres,4.0,4.0,"8455 Woodbriar Dr, Sarasota, FL 34238",8455 Woodbriar Dr,Sarasota,FL,34238,27.227934,-82.47161,MICHAEL SAUNDERS & COMPANY,False,,,,
455636890,FOR_SALE,New construction,,1274990.0,3613.0,353.0,1228400.0,340.0,,,,4.0,4.0,"Kingsmont Plan, Parkland Royale : Crown Collection","Kingsmont Plan, Parkland Royale : Crown Collection",Pompano Beach,FL,33076,26.3538,-80.2921,,False,,,,
44946800,FOR_SALE,House for sale,,1325000.0,5206.0,255.0,,,,0.348599633,acres,4.0,5.0,"6107 Marbella Blvd, Apollo Beach, FL 33572",6107 Marbella Blvd,Apollo Beach,FL,33572,27.777975,-82.43169,KELLER WILLIAMS SOUTH SHORE,False,,,,
43539804,FOR_SALE,House for sale,,350000.0,4315.0,81.0,,,,0.268135904,acres,6.0,6.0,"21010 Midway Blvd, Pt Charlotte, FL 33952",21010 Midway Blvd,Pt Charlotte,FL,33952,26.999794,-82.10802,MARINA PARK REALTY LLC,False,,,,
121345499,FOR_SALE,House for sale,,22900000.0,25321.0,904.0,,,,21.9731,acres,6.0,12.0,"11865 Fort King Hwy, Thonotosassa, FL 33592",11865 Fort King Hwy,Thonotosassa,FL,33592,28.058617,-82.28817,PREMIER SOTHEBYS INTL REALTY,False,,,,
44328015,FOR_SALE,House for sale,,785000.0,2457.0,319.0,,,,5000.0,sqft,4.0,4.0,"14834 SW 140th St, Miami, FL 33196",14834 SW 140th St,Miami,FL,33196,25.636564,-80.43391,United Realty Group Inc.,False,,,,
332845644,FOR_SALE,Townhouse for sale,,299900.0,1758.0,171.0,297600.0,169.0,2361.0,2417.0,sqft,3.0,3.0,"10906 Flying Squirrel Ave, Tampa, FL 33610",10906 Flying Squirrel Ave,Tampa,FL,33610,27.989292,-82.3178,RE/MAX REALTY UNLIMITED,False,,,,
44419419,FOR_SALE,House for sale,,175000.0,1146.0,153.0,,,,9583.2,sqft,3.0,2.0,"7475 SHARBETH Drive S, Jacksonville, FL 32210",7475 SHARBETH Drive S,Jacksonville,FL,32210,30.259708,-81.770615,,False,,,,
45498969,FOR_SALE,House for sale,,259900.0,1309.0,199.0,,,,7884.36,sqft,4.0,2.0,"2259 Carrell RD, FORT MYERS, FL 33901",2259 Carrell RD,Fort Myers,FL,33901,26.611977,-81.86627,Knowledge Base Real Estate,False,,,,
44227492,FOR_SALE,New construction,,4549000.0,4824.0,943.0,4358600.0,904.0,3088.0,0.775298439,acres,5.0,7.0,"12190 NW 6th St, Miami, FL 33182",12190 NW 6th St,Miami,FL,33182,25.7731,-80.392784,Luxe Properties,False,,,,
44581316,FOR_SALE,House for sale,,825000.0,2095.0,394.0,793500.0,379.0,2682.0,0.41,acres,3.0,2.0,"5924 HECKSCHER Drive, Jacksonville, FL 32226",5924 HECKSCHER Drive,Jacksonville,FL,32226,30.409517,-81.5154,,False,,,,
47641305,FOR_SALE,House for sale,,1250000.0,4078.0,307.0,,,,0.5,acres,5.0,5.0,"202 Arrowhead Ct, Winter Springs, FL 32708",202 Arrowhead Ct,Winter Springs,FL,32708,28.677267,-81.257545,RE/MAX TOWN & COUNTRY REALTY,False,,,,
45068441,FOR_SALE,House for sale,,1150000.0,2763.0,416.0,,,,7750.0,sqft,4.0,4.0,"3406 W Cherokee Ave, Tampa, FL 33611",3406 W Cherokee Ave,Tampa,FL,33611,27.888935,-82.50068,KELLER WILLIAMS SUBURBAN TAMPA,False,,,,
44729076,FOR_SALE,House for sale,,305000.0,1987.0,153.0,,,,0.32107438,acres,3.0,2.0,"62 Foster Ln, Palm Coast, FL 32137",62 Foster Ln,Palm Coast,FL,32137,29.57189,-81.21595,PALM COAST REAL ESTATE COMPANY,False,,,,
54195510,FOR_SALE,New construction,,11995000.0,7281.0,1647.0,,,,1.22,acres,5.0,7.0,"208 Hickory RD, NAPLES, FL 34108",208 Hickory RD,Naples,FL,34108,26.248007,-81.792274,The Agency Naples,False,,,,
44324430,FOR_SALE,House for sale,,500000.0,1276.0,392.0,488700.0,383.0,2981.0,3661.0,sqft,3.0,2.0,"12343 SW 111th Ln, Miami, FL 33186",12343 SW 111th Ln,Miami,FL,33186,25.665752,-80.39458,Luxe Properties,False,,,,
43551477,FOR_SALE,House for sale,,375000.0,1741.0,215.0,,,,0.29,acres,3.0,2.0,"115 Sinclair St SE, Pt Charlotte, FL 33952",115 Sinclair St SE,Pt Charlotte,FL,33952,26.962915,-82.10354,Coldwell Banker Sunstar Realty,False,,,,
43587532,FOR_SALE,House for sale,,300000.0,2059.0,146.0,291900.0,142.0,3650.0,9999.0,sqft,3.0,2.0,"238 Mark Twain Ln, Rotonda West, FL 33947",238 Mark Twain Ln,Rotonda West,FL,33947,26.902624,-82.28459,KW PEACE RIVER PARTNERS,False,,,,
47496398,FOR_SALE,House for sale,,499000.0,2032.0,246.0,,,,8250.0,sqft,3.0,2.0,"3503 Kingswood Dr, Sarasota, FL 34232",3503 Kingswood Dr,Sarasota,FL,34232,27.302294,-82.456024,MICHAEL SAUNDERS & COMPANY,False,,,,
47493959,FOR_SALE,House for sale,,430000.0,1355.0,317.0,,,,9156.0,sqft,4.0,2.0,"3032 Golden Rain Dr, Sarasota, FL 34232",3032 Golden Rain Dr,Sarasota,FL,34232,27.306013,-82.46891,LOYD ROBBINS & CO. LLC,False,,,,
44623306,FOR_SALE,House for sale,,579000.0,1295.0,447.0,561500.0,434.0,3423.0,6098.4,sqft,3.0,2.0,"443 15TH Avenue S, Jacksonville Beach, FL 32250",443 15TH Avenue S,Jacksonville Beach,FL,32250,30.274246,-81.39063,,False,,,,
45429425,FOR_SALE,House for sale,,299900.0,1352.0,222.0,292000.0,216.0,1854.0,0.263,acres,3.0,2.0,"479 NE 2nd Pl, Cape Coral, FL 33909",479 NE 2nd Pl,Cape Coral,FL,33909,26.661808,-81.96879,"Michael J. Deskin, Broker",False,,,,
46647600,FOR_SALE,House for sale,,650000.0,1986.0,327.0,616800.0,311.0,3483.0,5883.0,sqft,3.0,2.0,"8681 Eagle Run Drive, Boca Raton, FL 33434",8681 Eagle Run Drive,Boca Raton,FL,33434,26.372276,-80.18079,Mastropieri Group LLC,False,,,,
66674065,FOR_SALE,House for sale,,1290000.0,3806.0,339.0,,,,0.861363636,acres,5.0,4.0,"10643 Echo Lake Dr, Odessa, FL 33556",10643 Echo Lake Dr,Odessa,FL,33556,28.110577,-82.605354,COMPASS FLORIDA LLC,False,,,,
44677266,FOR_SALE,House for sale,,219000.0,1182.0,185.0,,,,0.26,acres,3.0,2.0,"14 Mindoro Cir, Perdido Key, FL 32507",14 Mindoro Cir,Perdido Key,FL,32507,30.392685,-87.28033,Kuhn Realty,False,,,,
43960320,FOR_SALE,House for sale,,424900.0,780.0,545.0,416100.0,533.0,2403.0,6799.716,sqft,2.0,1.0,"725 E 19th St, Hialeah, FL 33013",725 E 19th St,Hialeah,FL,33013,25.83976,-80.26738,Charles Rutenberg Realty FTL,False,,,,
47512170,FOR_SALE,House for sale,,699000.0,2455.0,285.0,,,,10025.0,sqft,4.0,3.0,"4928 Three Oaks Blvd, Sarasota, FL 34233",4928 Three Oaks Blvd,Sarasota,FL,34233,27.28173,-82.46231,MICHAEL SAUNDERS & COMPANY,False,,,,
68096114,FOR_SALE,House for sale,,400000.0,2143.0,187.0,,,2453.0,0.2654,acres,4.0,2.0,"1210 Albemarle Cir, Lehigh Acres, FL 33936",1210 Albemarle Cir,Lehigh Acres,FL,33936,26.60001,-81.612236,Steelbridge Realty LLC,False,,,,
104232384,FOR_SALE,House for sale,,320000.0,1761.0,182.0,,,,6534.0,sqft,3.0,2.0,"121 Grande Berwick Ct, Daytona Beach, FL 32124",121 Grande Berwick Ct,Daytona Beach,FL,32124,29.17144,-81.10219,Century 21 McBride Realty Group,False,,,,
99883241,FOR_SALE,House for sale,,8985000.0,13549.0,663.0,,,4234.0,13.7634,acres,8.0,11.0,"3018 Kingfisher Point, Chuluota, FL 32766",3018 Kingfisher Point,Chuluota,FL,32766,28.641836,-81.1051,COLDWELL BANKER REALTY,False,,,,
43114829,FOR_SALE,Condo for sale,,525000.0,1540.0,341.0,506000.0,329.0,2655.0,,,2.0,2.0,"1850 S Ocean Blvd #712, Pompano Beach, FL 33062",1850 S Ocean Blvd #712,Lauderdale By The Sea,FL,33062,26.219221,-80.09592,LoKation,False,,,,
47579664,FOR_SALE,House for sale,,339900.0,1712.0,199.0,,,,8000.0,sqft,3.0,2.0,"5919 Diana Rd, Venice, FL 34293",5919 Diana Rd,Venice,FL,34293,27.02605,-82.407,KELLER WILLIAMS ON THE WATER S,False,,,,
54897400,FOR_SALE,House for sale,,349999.0,1317.0,266.0,,,,6656.0,sqft,3.0,2.0,"7395 Eleanor Cir, Sarasota, FL 34243",7395 Eleanor Cir,Sarasota,FL,34243,27.407726,-82.499176,EXP REALTY LLC,False,,,,
47712742,FOR_SALE,Townhouse for sale,,350000.0,1527.0,229.0,344900.0,226.0,2209.0,5203.0,sqft,3.0,2.0,"840 Hillary Ct, Longwood, FL 32750",840 Hillary Ct,Longwood,FL,32750,28.719446,-81.36,RE/MAX TOWN & COUNTRY REALTY,False,,,,
46391035,FOR_SALE,House for sale,,240000.0,1196.0,201.0,,,,6098.0,sqft,3.0,2.0,"4161 Highland Loop, New Port Richey, FL 34652",4161 Highland Loop,New Port Richey,FL,34652,28.21834,-82.727806,RE/MAX CHAMPIONS,False,,,,
47997408,FOR_SALE,House for sale,,1849000.0,2705.0,684.0,1750200.0,647.0,3418.0,0.33,acres,4.0,3.0,"22 Tiffany Cir, Ormond Beach, FL 32174",22 Tiffany Cir,Ormond Beach,FL,32174,29.309847,-81.06636,"Adams, Cameron & Co., Realtors",False,,,,
97364096,FOR_SALE,House for sale,,1100000.0,3546.0,310.0,1062300.0,300.0,4167.0,0.337006428,acres,5.0,4.0,"6572 Eagle View Loop, Lakeland, FL 33813",6572 Eagle View Loop,Lakeland,FL,33813,27.945976,-81.93972,BHHS FLORIDA PROPERTIES GROUP,False,,,,
316820596,FOR_SALE,House for sale,,390000.0,2382.0,164.0,384500.0,161.0,1919.0,0.25,acres,3.0,3.0,"10950 OSPREY HAMMOCK Boulevard, Jacksonville, FL 32218",10950 OSPREY HAMMOCK Boulevard,Jacksonville,FL,32218,30.433588,-81.73942,,False,,,,
121166067,FOR_SALE,House for sale,,397500.0,2244.0,177.0,,,,7405.0,sqft,4.0,3.0,"1819 Monte Cristo Ln, Kissimmee, FL 34758",1819 Monte Cristo Ln,Kissimmee,FL,34758,28.250793,-81.46732,BLUE MARLIN REAL ESTATE,False,,,,
113379074,FOR_SALE,Condo for sale,,2950000.0,2289.0,1289.0,2743800.0,1199.0,7623.0,,,3.0,4.0,"92 SW 3rd St APT 5204, Miami, FL 33130",92 SW 3rd St APT 5204,Miami,FL,33130,25.769596,-80.19516,Luxe Properties,False,,,,
446770685,FOR_RENT,Apartment for rent,,1250.0,576.0,2.0,,,,,,1.0,1.0,"Jaymar Apartments, 117 Alder Ave SE #1BDR, Fort Walton Beach, FL 32548",117 Alder Ave SE #1BDR,Fort Walton Beach,FL,32548,30.407614,-86.599976,,False,,,,
361046434,FOR_RENT,Apartment for rent,,1325.0,820.0,2.0,,,1275.0,,,2.0,2.0,"Ridgewood, 336-398 Hospital Dr #25, Crestview, FL 32539",336-398 Hospital Dr #25,Crestview,FL,32539,30.732048,-86.56487,,False,,,,
456095743,FOR_RENT,Apartment for rent,,1380.0,1150.0,1.0,,,,,,3.0,1.0,"Newport Square Apartments, 1 Forsman Cir NW #A-08, Fort Walton Beach, FL 32548",1 Forsman Cir NW #A-08,Fort Walton Beach,FL,32548,30.420525,-86.65453,,False,,,,
2080996012,FOR_RENT,Apartment for rent,,1668.0,815.0,2.0,,,1436.0,,,1.0,1.0,"The Reserve Apartments, 1899 Reserve Blvd APT 53, Gulf Breeze, FL 32563",1899 Reserve Blvd APT 53,Gulf Breeze,FL,32563,30.405603,-86.95761,,False,,,,
352173588,FOR_RENT,Apartment for rent,,1150.0,553.0,2.0,,,1115.0,,,1.0,1.0,"Villas of East Hill, 1177 E Lloyd St, Pensacola, FL 32503",1177 E Lloyd St #2ED53B500,Pensacola,FL,32503,30.428137,-87.20401,,False,,,,
352174387,FOR_RENT,Apartment for rent,,1150.0,600.0,2.0,,,1149.0,,,1.0,1.0,"Belmont Gardens, 222 W Belmont St, Pensacola, FL 32501",222 W Belmont St #3AF04DE74,Pensacola,FL,32501,30.417168,-87.22026,,False,,,,
455043817,FOR_RENT,Apartment for rent,,1880.0,900.0,2.0,,,,,,3.0,1.0,"397 Selina St #A, Pensacola, FL 32503",397 Selina St #A,Pensacola,FL,32503,30.466293,-87.229355,,False,,,,
333074300,FOR_RENT,Townhouse for rent,,2500.0,1600.0,2.0,331200.0,207.0,2947.0,,,3.0,2.0,"1816 W Gadsden St, Pensacola, FL 32501",1816 W Gadsden St,Pensacola,FL,32501,30.419851,-87.23857,,False,,,,
44717964,FOR_RENT,House for rent,,1650.0,1151.0,1.0,84900.0,74.0,1853.0,,,2.0,2.0,"121 E Jordan St, Pensacola, FL 32503",121 E Jordan St,Pensacola,FL,32503,30.433846,-87.21759,,False,,,,
44721281,FOR_RENT,House for rent,,2125.0,1300.0,2.0,339700.0,261.0,2020.0,,,3.0,2.0,"2603 N 16th Ave, Pensacola, FL 32503",2603 N 16th Ave,Pensacola,FL,32503,30.442165,-87.20107,,False,,,,
44675555,FOR_RENT,House for rent,,2600.0,1432.0,2.0,241100.0,168.0,2320.0,,,3.0,2.0,"205 N Pinewood Ln, Perdido Key, FL 32507",205 N Pinewood Ln,Perdido Key,FL,32507,30.412436,-87.26136,,False,,,,
55291899,FOR_RENT,House for rent,,1950.0,1808.0,1.0,243600.0,135.0,1950.0,,,3.0,3.0,"3163 Two Sisters Way, Pensacola, FL 32505",3163 Two Sisters Way,Pensacola,FL,32505,30.448606,-87.28187,,False,,,,
350566318,FOR_RENT,Apartment for rent,,1250.0,1350.0,1.0,,,2006.0,,,2.0,2.0,"Qunita Villa apartments, 125 W 1st Ave, Crestview, FL 32536",125 W 1st Ave #A1347C8C7,Crestview,FL,32536,30.765768,-86.57686,,False,,,,
453220492,FOR_RENT,Apartment for rent,,1715.0,1405.0,1.0,,,,,,2.0,2.0,"Twin Oaks at Southwood, 2500 Merchants Row Blvd, Tallahassee, FL 32311",2500 Merchants Row Blvd #A6952F69A,Tallahassee,FL,32311,30.393475,-84.22941,,False,,,,
456176374,FOR_RENT,Apartment for rent,,750.0,,,,,,,,1.0,1.0,"Campus Highland, 2501 S Meridian St, Tallahassee, FL 32301",2501 S Meridian St #C80C97FE2,Tallahassee,FL,32301,30.415854,-84.276855,,False,,,,
456176368,FOR_RENT,Apartment for rent,,850.0,540.0,2.0,,,,,,1.0,1.0,"Greystone Place, 2416 Jackson Bluff Rd, Tallahassee, FL 32304",2416 Jackson Bluff Rd #9C4934E92,Tallahassee,FL,32304,30.435312,-84.32725,,False,,,,
448963913,FOR_RENT,Apartment for rent,,1389.0,935.0,1.0,,,,,,1.0,1.0,"Eagles Landing, 1655 Eagles Landing Blvd, Tallahassee, FL 32308",1655 Eagles Landing Blvd #6F15A9061,Tallahassee,FL,32308,30.49637,-84.24939,,False,,,,
350515424,FOR_RENT,Apartment for rent,,1100.0,600.0,2.0,,,944.0,,,1.0,1.0,"Tallahassee Shine, 1514 Levy Ave, Tallahassee, FL 32310",1514 Levy Ave #454878687,Tallahassee,FL,32310,30.423368,-84.30735,,False,,,,
455215811,FOR_RENT,Apartment for rent,,1699.0,1480.0,1.0,,,,,,3.0,3.0,"The Lofts at Lake Ella, 1420 N Meridian Rd #0, Tallahassee, FL 32303",1420 N Meridian Rd #0,Tallahassee,FL,32303,30.458706,-84.27782,,False,,,,
2052840898,FOR_RENT,House for rent,,2245.0,1623.0,1.0,291700.0,180.0,2294.0,,,3.0,2.0,"19033 NW 165th Ln, High Springs, FL 32643",19033 NW 165th Ln,High Springs,FL,32643,29.806362,-82.54764,,False,,,,
441791004,FOR_RENT,Apartment for rent,,1600.0,1015.0,2.0,,,,,,3.0,2.0,"937 Bryson St NE #4, Live Oak, FL 32064",937 Bryson St NE #4,Live Oak,FL,32064,30.296518,-82.97423,,False,,,,
2080173781,FOR_RENT,Apartment for rent,,1850.0,1499.0,1.0,281100.0,188.0,1918.0,,,3.0,3.0,"358 SW 145th Dr, Newberry, FL 32669",358 SW 145th Dr,Newberry,FL,32669,29.650438,-82.49878,,False,,,,
43715030,FOR_RENT,Apartment for rent,,1400.0,1124.0,1.0,116800.0,104.0,1399.0,,,2.0,2.0,"194 SW Crescent St, Lake City, FL 32025",194 SW Crescent St,Lake City,FL,32025,30.176262,-82.638565,,False,,,,
43720418,FOR_RENT,House for rent,,1850.0,1215.0,2.0,201600.0,166.0,1634.0,,,3.0,2.0,"191 SW Shady Oak Way, Lake City, FL 32024",191 SW Shady Oak Way,Lake City,FL,32024,30.11927,-82.732895,,False,,,,
42697544,FOR_RENT,House for rent,,1950.0,1824.0,1.0,255000.0,140.0,2113.0,,,3.0,2.0,"12332 NW 7th Ln, Newberry, FL 32669",12332 NW 7th Ln,Newberry,FL,32669,29.660122,-82.474464,,False,,,,
455177812,FOR_RENT,Apartment for rent,,1500.0,1000.0,2.0,,,,,,2.0,2.0,"1439 N Paris St #C, Bell, FL 32619",1439 N Paris St #C,Bell,FL,32619,29.757778,-82.86619,,False,,,,
43726036,FOR_RENT,House for rent,,2300.0,1650.0,1.0,307900.0,187.0,1941.0,,,3.0,2.0,"6211 SW State Road 47, Lake City, FL 32024",6211 SW State Road 47,Lake City,FL,32024,30.090792,-82.67947,,False,,,,
42697767,FOR_RENT,House for rent,,2485.0,1699.0,1.0,366000.0,215.0,2639.0,,,3.0,2.0,"1446 NW 117th Ter, Gainesville, FL 32606",1446 NW 117th Ter,Gainesville,FL,32606,29.666334,-82.46696,,False,,,,
80757516,FOR_RENT,House for rent,,1950.0,1456.0,1.0,255100.0,175.0,1879.0,,,4.0,2.0,"1203 SW Yorktown Gln, Lake City, FL 32025",1203 SW Yorktown Gln,Lake City,FL,32025,30.17105,-82.655235,,False,,,,
338136909,FOR_RENT,House for rent,,3995.0,2023.0,2.0,399100.0,197.0,2549.0,,,4.0,3.0,"492 NW Forest Meadows Ave, Lake City, FL 32025",492 NW Forest Meadows Ave,Lake City,FL,32025,30.113737,-82.568405,,False,,,,
43725630,FOR_RENT,House for rent,,1995.0,1350.0,1.0,192800.0,143.0,1764.0,,,3.0,2.0,"353 SE Olustee Ave, Lake City, FL 32025",353 SE Olustee Ave,Lake City,FL,32025,30.179977,-82.60868,,False,,,,
44401185,FOR_RENT,House for rent,,1400.0,1100.0,1.0,214800.0,195.0,1366.0,,,2.0,1.0,"434 NE 354th Ave, Old Town, FL 32680",434 NE 354th Ave,Old Town,FL,32680,29.670635,-83.0312,,False,,,,
43713680,FOR_RENT,House for rent,,2250.0,1753.0,1.0,328100.0,187.0,2284.0,,,4.0,2.0,"211 SW Ainsley Gln, Lake City, FL 32024",211 SW Ainsley Gln,Lake City,FL,32024,30.081854,-82.66928,,False,,,,
43725018,FOR_RENT,House for rent,,2300.0,2254.0,1.0,198300.0,88.0,1805.0,,,3.0,2.0,"198 SE Montgomery Pl, Lake City, FL 32025",198 SE Montgomery Pl,Lake City,FL,32025,30.18109,-82.616005,,False,,,,
80758914,FOR_RENT,House for rent,,2395.0,1913.0,1.0,385000.0,201.0,1736.0,,,3.0,2.0,"135 SW Bulldawg Gln, Lake City, FL 32024",135 SW Bulldawg Gln,Lake City,FL,32024,30.125484,-82.71968,,False,,,,
43715027,FOR_RENT,Townhouse for rent,,1800.0,1506.0,1.0,164500.0,109.0,1644.0,,,3.0,2.0,"184 SW Crescent St, Lake City, FL 32025",184 SW Crescent St,Lake City,FL,32025,30.176308,-82.63838,,False,,,,
43714103,FOR_RENT,House for rent,,2000.0,2176.0,1.0,192100.0,88.0,2004.0,,,3.0,2.0,"287 SE Oak Hill St, Lake City, FL 32025",287 SE Oak Hill St,Lake City,FL,32025,30.1789,-82.60715,,False,,,,
80773286,FOR_RENT,House for rent,,1675.0,1200.0,1.0,,,1440.0,,,3.0,1.0,"278 NE Trinity Pl, Lake City, FL 32055",278 NE Trinity Pl,Lake City,FL,32055,30.19746,-82.634544,,False,,,,
226909053,FOR_RENT,House for rent,,1300.0,1350.0,1.0,,,1318.0,,,3.0,1.0,"440 SW Wakulla Way, Greenville, FL 32331",440 SW Wakulla Way,Greenville,FL,32331,30.308788,-83.665855,,False,,,,
45292287,FOR_RENT,House for rent,,1545.0,,,182700.0,,1592.0,,,3.0,1.0,"70 Wright Cut Rd, Monticello, FL 32344",70 Wright Cut Rd,Monticello,FL,32344,30.52642,-83.86778,,False,,,,
455372459,FOR_RENT,Townhouse for rent,,2030.0,1498.0,1.0,237800.0,159.0,,,,3.0,2.0,"25251 SW 15th Ave #25251, Newberry, FL 32669",25251 SW 15th Ave #25251,Newberry,FL,32669,29.638626,-82.60944,,False,,,,
2085288150,FOR_RENT,House for rent,,1335.0,625.0,2.0,77600.0,124.0,1160.0,,,2.0,1.0,"249 NE Ark Pl, Lake City, FL 32055",249 NE Ark Pl,Lake City,FL,32055,30.1974,-82.63454,,False,,,,
45291885,FOR_RENT,House for rent,,1595.0,,,47800.0,,1647.0,,,3.0,2.0,"82 W Bryant Cir, Monticello, FL 32344",82 W Bryant Cir,Monticello,FL,32344,30.547935,-83.88989,,False,,,,
80778584,FOR_RENT,House for rent,,1900.0,1573.0,1.0,296800.0,189.0,1948.0,,,3.0,2.0,"196 SW Timberland Ct, Lake City, FL 32024",196 SW Timberland Ct,Lake City,FL,32024,30.186947,-82.725815,,False,,,,
42697978,FOR_RENT,House for rent,,2195.0,1884.0,1.0,421200.0,224.0,2458.0,,,3.0,2.0,"13305 W Newberry Rd, Newberry, FL 32669",13305 W Newberry Rd,Newberry,FL,32669,29.654749,-82.48376,,False,,,,
454866501,FOR_RENT,Apartment for rent,,1195.0,,,,,,,,2.0,2.0,"520 Mississippi St, Monticello, FL 32344",520 Mississippi St,Monticello,FL,32344,30.557508,-83.86614,,False,,,,
454928388,FOR_RENT,Apartment for rent,,1495.0,1000.0,1.0,,,,,,2.0,2.0,"348 S Marion Ave UNIT A, Lake City, FL 32025",348 S Marion Ave UNIT A,Lake City,FL,32025,30.185719,-82.63737,,False,,,,
453796632,FOR_RENT,House for rent,,995.0,1000.0,1.0,175700.0,176.0,,,,3.0,1.0,"124 SW Socket Gln #2, Lake City, FL 32024",124 SW Socket Gln #2,Lake City,FL,32024,30.094522,-82.675995,,False,,,,
2052929301,FOR_RENT,Apartment for rent,,850.0,500.0,2.0,,,1057.0,,,1.0,1.0,"218 SE Hanover Pl APT 103, Lake City, FL 32025",218 SE Hanover Pl APT 103,Lake City,FL,32025,30.141012,-82.60714,,False,,,,
124139160,FOR_RENT,House for rent,,1990.0,1382.0,1.0,266100.0,193.0,1990.0,,,3.0,2.0,"536 SW 251st St, Newberry, FL 32669",536 SW 251st St,Newberry,FL,32669,29.641497,-82.607376,,False,,,,
47913331,FOR_RENT,House for rent,,2300.0,1800.0,1.0,227400.0,126.0,1814.0,,,3.0,2.0,"507 Governor Ave NE, Branford, FL 32008",507 Governor Ave NE,Branford,FL,32008,29.965385,-82.92339,,False,,,,
66688608,FOR_RENT,Townhouse for rent,,1800.0,938.0,2.0,218400.0,233.0,1626.0,,,2.0,2.0,"(undisclosed Address), Gainesville, FL 32606",(undisclosed Address),Gainesville,FL,32606,,,,False,,,,
138049073,FOR_RENT,House for rent,,2800.0,2100.0,1.0,542200.0,258.0,2829.0,,,3.0,2.0,"(undisclosed Address), Alachua, FL 32615",(undisclosed Address),Alachua,FL,32615,,,,False,,,,
55576022,FOR_RENT,House for rent,,1800.0,2436.0,1.0,257000.0,106.0,2056.0,,,3.0,2.0,"3018 NW County Road 125, Lawtey, FL 32058",3018 NW County Road 125,Lawtey,FL,32058,30.057354,-82.096146,,False,,,,
47927255,FOR_RENT,House for rent,,1850.0,1152.0,2.0,130600.0,113.0,1703.0,,,3.0,2.0,"(undisclosed Address), Worthington Springs, FL 32697",(undisclosed Address),Worthington Springs,FL,32697,,,,False,,,,
42817695,FOR_RENT,House for rent,,1849.0,1055.0,2.0,102000.0,97.0,1553.0,,,3.0,1.0,"661 Douberly Ln, Macclenny, FL 32063",661 Douberly Ln,Macclenny,FL,32063,30.282055,-82.13265,,False,,,,
305006915,FOR_RENT,House for rent,,1500.0,1135.0,1.0,227300.0,200.0,1085.0,,,4.0,3.0,"10479 Flintlock Dr, Sanderson, FL 32087",10479 Flintlock Dr,Sanderson,FL,32087,30.432127,-82.21595,,False,,,,
42703785,FOR_RENT,House for rent,,2495.0,2436.0,1.0,302000.0,124.0,2590.0,,,3.0,3.0,"6007 NW 29th Ter, Gainesville, FL 32653",6007 NW 29th Ter,Gainesville,FL,32653,29.70969,-82.36608,,False,,,,
109745805,FOR_RENT,House for rent,,1935.0,1383.0,1.0,260000.0,188.0,1996.0,,,3.0,2.0,"6190 Daylilly Rd, Macclenny, FL 32063",6190 Daylilly Rd,Macclenny,FL,32063,30.305023,-82.14376,,False,,,,
42726504,FOR_RENT,House for rent,,2095.0,1593.0,1.0,270000.0,169.0,2187.0,,,3.0,2.0,"7320 NW 21st Way, Gainesville, FL 32653",7320 NW 21st Way,Gainesville,FL,32653,29.72187,-82.35356,,False,,,,
120849457,FOR_RENT,House for rent,,1650.0,1400.0,1.0,198300.0,142.0,1640.0,,,4.0,2.0,"15166 SE 25th Ave, Starke, FL 32091",15166 SE 25th Ave,Starke,FL,32091,29.93664,-82.08967,,False,,,,
2053745221,FOR_RENT,House for rent,,1600.0,1267.0,1.0,235600.0,186.0,1601.0,,,3.0,2.0,"7123 Stetson St, Keystone Heights, FL 32656",7123 Stetson St,Keystone Heights,FL,32656,29.792059,-82.002556,,False,,,,
109748181,FOR_RENT,House for rent,,2095.0,1290.0,2.0,267200.0,207.0,2003.0,,,3.0,2.0,"10280 Greystone Dr, Glen Saint Mary, FL 32040",10280 Greystone Dr,Glen Saint Mary,FL,32040,30.27929,-82.15112,,False,,,,
42703837,FOR_RENT,House for rent,,1700.0,1296.0,1.0,227300.0,175.0,1771.0,,,2.0,2.0,"6330 NW 26th Ter, Gainesville, FL 32653",6330 NW 26th Ter,Gainesville,FL,32653,29.713007,-82.36216,,False,,,,
42703424,FOR_RENT,House for rent,,1850.0,1247.0,1.0,247200.0,198.0,1850.0,,,3.0,2.0,"5631 NW 26th St, Gainesville, FL 32653",5631 NW 26th St,Gainesville,FL,32653,29.706667,-82.36072,,False,,,,
299800842,FOR_RENT,House for rent,,2800.0,1700.0,2.0,317300.0,187.0,1854.0,,,3.0,2.0,"7678 NW Us Highway 41, Lake City, FL 32055",7678 NW Us Highway 41,Lake City,FL,32055,30.282772,-82.70291,,False,,,,
42739832,FOR_RENT,House for rent,,2800.0,1020.0,3.0,134000.0,131.0,1789.0,,,2.0,1.0,"14847 NE 142nd St, Waldo, FL 32694",14847 NE 142nd St,Waldo,FL,32694,29.79163,-82.171295,,False,,,,
455861924,FOR_RENT,Apartment for rent,,2100.0,1448.0,1.0,,,,,,3.0,2.0,"156 SW Legion Dr #156, Lake City, FL 32024",156 SW Legion Dr #156,Lake City,FL,32024,30.137993,-82.71452,,False,,,,
441831006,FOR_RENT,House for rent,,1295.0,,,170700.0,,,,,2.0,1.0,"113 SE Mink Gln, Lake City, FL 32025",113 SE Mink Gln,Lake City,FL,32025,30.10129,-82.58608,,False,,,,
43712170,FOR_RENT,House for rent,,1150.0,720.0,2.0,,,1310.0,,,2.0,1.0,"374 SW Saint Johns St, Lake City, FL 32025",374 SW Saint Johns St,Lake City,FL,32025,30.187603,-82.641785,,False,,,,
456046025,FOR_RENT,Apartment for rent,,1100.0,600.0,2.0,,,,,,1.0,1.0,"246 NE Trinity Pl #101, Lake City, FL 32055",246 NE Trinity Pl #101,Lake City,FL,32055,30.197742,-82.63497,,False,,,,
2055222315,FOR_RENT,Apartment for rent,,795.0,,,,,1002.0,,,1.0,1.0,"169 SE Camelot Loop APT 106, Lake City, FL 32025",169 SE Camelot Loop APT 106,Lake City,FL,32025,30.122454,-82.61908,,False,,,,
2053634094,FOR_RENT,Apartment for rent,,850.0,800.0,1.0,,,1048.0,,,1.0,1.0,"415 S Marion Ave #102, Lake City, FL 32025",415 S Marion Ave #102,Lake City,FL,32025,30.18473,-82.63707,,False,,,,
455648256,FOR_RENT,Apartment for rent,,1355.0,893.0,2.0,,,,,,2.0,1.0,"1099 SW McFarlane Ave #102, Lake City, FL 32025",1099 SW McFarlane Ave #102,Lake City,FL,32025,30.174814,-82.64842,,False,,,,
219231458,FOR_RENT,House for rent,,2000.0,1500.0,1.0,448900.0,299.0,1942.0,,,3.0,2.0,"1236 SW Centerville Ave, Fort White, FL 32038",1236 SW Centerville Ave,Fort White,FL,32038,29.970486,-82.728806,,False,,,,
2057192938,FOR_RENT,House for rent,,1295.0,,,149000.0,,1297.0,,,2.0,2.0,"118 NW Deer Run Gln, Lake City, FL 32055",118 NW Deer Run Gln,Lake City,FL,32055,30.228586,-82.63872,,False,,,,
43722110,FOR_RENT,House for rent,,3200.0,2686.0,1.0,800200.0,298.0,2935.0,,,3.0,3.0,"(undisclosed Address), Lake City, FL 32055",(undisclosed Address),Lake City,FL,32055,,,,False,,,,
328356440,FOR_RENT,House for rent,,995.0,,,583300.0,,1147.0,,,2.0,1.0,"118 SE Guinevere Ct, Lake City, FL 32025",118 SE Guinevere Ct,Lake City,FL,32025,30.122284,-82.61903,,False,,,,
104207776,FOR_RENT,House for rent,,2100.0,1205.0,2.0,,,1526.0,,,3.0,2.0,"443 NE Davis Ave, Lake City, FL 32055",443 NE Davis Ave,Lake City,FL,32055,30.194254,-82.63396,,False,,,,
52150041,FOR_RENT,House for rent,,1700.0,1296.0,1.0,150900.0,116.0,1736.0,,,3.0,2.0,"173 SW Whitetail Cir, Lake City, FL 32024",173 SW Whitetail Cir,Lake City,FL,32024,30.175215,-82.69914,,False,,,,
453026034,FOR_RENT,House for rent,,1295.0,,,156600.0,,,,,3.0,2.0,"140 NW Deer Run Gln, Lake City, FL 32055",140 NW Deer Run Gln,Lake City,FL,32055,30.228683,-82.64025,,False,,,,
454190043,FOR_RENT,Apartment for rent,,1100.0,960.0,1.0,,,,,,2.0,2.0,"5566 County Road 136 #26, Live Oak, FL 32060",5566 County Road 136 #26,Live Oak,FL,32060,30.312592,-82.85258,,False,,,,
43718489,FOR_RENT,House for rent,,2100.0,1800.0,1.0,,,2092.0,,,3.0,2.0,"240 SE Sandia Way, Lake City, FL 32025",240 SE Sandia Way,Lake City,FL,32025,30.145115,-82.608765,,False,,,,
43713668,FOR_RENT,House for rent,,3100.0,2000.0,2.0,320200.0,160.0,2262.0,,,3.0,3.0,"488 SW Meadow Ter, Lake City, FL 32024",488 SW Meadow Ter,Lake City,FL,32024,30.077179,-82.66851,,False,,,,
448035723,FOR_RENT,House for rent,,1250.0,,,126900.0,,,,,3.0,1.0,"213 NW Deer Run Gln, Lake City, FL 32055",213 NW Deer Run Gln,Lake City,FL,32055,30.228563,-82.6398,,False,,,,
453536658,FOR_RENT,Apartment for rent,,1550.0,1280.0,1.0,,,,,,3.0,2.0,"154 NW Alpata Ct #8, Lake City, FL 32055",154 NW Alpata Ct #8,Lake City,FL,32055,30.236977,-82.66444,,False,,,,
43724260,FOR_RENT,House for rent,,1750.0,1368.0,1.0,149700.0,109.0,1741.0,,,3.0,2.0,"1439 NW Avery Gln, Lake City, FL 32055",1439 NW Avery Gln,Lake City,FL,32055,30.184118,-82.6594,,False,,,,
43715313,FOR_RENT,House for rent,,1800.0,1324.0,1.0,228300.0,172.0,1842.0,,,3.0,2.0,"1196 SW Jamestown Gln, Lake City, FL 32025",1196 SW Jamestown Gln,Lake City,FL,32025,30.171951,-82.65554,,False,,,,
2080488528,FOR_RENT,Apartment for rent,,1050.0,900.0,1.0,,,1232.0,,,2.0,1.0,"3764 NW Huntsboro St #102, Lake City, FL 32055",3764 NW Huntsboro St #102,Lake City,FL,32055,30.186794,-82.69822,,False,,,,
43724186,FOR_RENT,House for rent,,1500.0,1279.0,1.0,148000.0,116.0,1576.0,,,3.0,2.0,"166 NW Burk Ave, Lake City, FL 32055",166 NW Burk Ave,Lake City,FL,32055,30.186617,-82.65378,,False,,,,
2053816603,FOR_RENT,Apartment for rent,,1099.0,576.0,2.0,,,1269.0,,,1.0,1.0,"Riverwood, 4803 Saint Johns Ave OFFICE 302, Palatka, FL 32177",4803 Saint Johns Ave OFFICE 302,Palatka,FL,32177,29.646755,-81.67742,,False,,,,
44727653,FOR_RENT,House for rent,,3000.0,1981.0,2.0,295600.0,149.0,2253.0,,,3.0,2.0,"8 Fanwood Ct, Palm Coast, FL 32137",8 Fanwood Ct,Palm Coast,FL,32137,29.56404,-81.20841,,False,,,,
84669000,FOR_RENT,House for rent,,3000.0,3010.0,1.0,498500.0,166.0,3419.0,,,4.0,4.0,"269 Porta Rosa Cir, Saint Augustine, FL 32092",269 Porta Rosa Cir,Saint Augustine,FL,32092,29.95262,-81.489494,,False,,,,
47777534,FOR_RENT,House for rent,,2700.0,889.0,3.0,416700.0,469.0,2025.0,,,2.0,2.0,"180 Martin Luther King Ave, Saint Augustine, FL 32084",180 Martin Luther King Ave,Saint Augustine,FL,32084,29.880121,-81.31297,,False,,,,
452029543,FOR_RENT,Apartment for rent,,1550.0,746.0,2.0,,,,,,1.0,1.0,"28 Sebastian Ave #C, Saint Augustine, FL 32084",28 Sebastian Ave #C,Saint Augustine,FL,32084,29.90549,-81.32049,,False,,,,
442963891,FOR_RENT,Apartment for rent,,1095.0,750.0,1.0,,,,,,1.0,1.0,"318 N 11th St #201, Palatka, FL 32177",318 N 11th St #201,Palatka,FL,32177,29.650803,-81.639755,,False,,,,
47463014,FOR_RENT,House for rent,,2285.0,1344.0,2.0,,,2099.0,,,3.0,2.0,"593 San Mateo Rd, San Mateo, FL 32187",593 San Mateo Rd,San Mateo,FL,32187,29.580765,-81.60188,,False,,,,
2053176803,FOR_RENT,Townhouse for rent,,2500.0,1994.0,1.0,381600.0,191.0,2213.0,,,3.0,3.0,"599 Cherry Elm Dr, Saint Augustine, FL 32092",599 Cherry Elm Dr,Saint Augustine,FL,32092,29.976658,-81.50547,,False,,,,
443764451,FOR_RENT,Apartment for rent,,1700.0,450.0,4.0,,,,,,1.0,1.0,"5596 Pelican Way #A, Saint Augustine, FL 32080",5596 Pelican Way #A,Saint Augustine,FL,32080,29.79052,-81.259735,,False,,,,
455931000,FOR_RENT,Apartment for rent,,1900.0,1500.0,1.0,,,,,,3.0,2.0,"19 Ryall Ln #B, Palm Coast, FL 32164",19 Ryall Ln #B,Palm Coast,FL,32164,29.50391,-81.23245,,False,,,,
2078546426,FOR_RENT,Apartment for rent,,1850.0,1549.0,1.0,268300.0,173.0,1853.0,,,3.0,2.0,"10 Buttonwood Ln #B, Palm Coast, FL 32137",10 Buttonwood Ln #B,Palm Coast,FL,32137,29.59179,-81.25416,,False,,,,
2083317527,FOR_RENT,Apartment for rent,,1195.0,800.0,1.0,,,1211.0,,,2.0,1.0,"313 Laurel St APT 3, Palatka, FL 32177",313 Laurel St APT 3,Palatka,FL,32177,29.644464,-81.63257,,False,,,,
44738335,FOR_RENT,House for rent,,1950.0,1092.0,2.0,261800.0,240.0,1682.0,,,3.0,2.0,"4 Pickcane Ln, Palm Coast, FL 32164",4 Pickcane Ln,Palm Coast,FL,32164,29.520779,-81.204666,,False,,,,
44736902,FOR_RENT,House for rent,,2150.0,1537.0,1.0,287600.0,187.0,1883.0,,,3.0,2.0,"12 White Horse Ln, Palm Coast, FL 32164",12 White Horse Ln,Palm Coast,FL,32164,29.519033,-81.23268,,False,,,,
84675876,FOR_RENT,House for rent,,2250.0,2086.0,1.0,339600.0,163.0,2326.0,,,3.0,2.0,"217 King Arthur Ct, Saint Augustine, FL 32086",217 King Arthur Ct,Saint Augustine,FL,32086,29.796997,-81.31509,,False,,,,
47777440,FOR_RENT,House for rent,,2200.0,1078.0,2.0,396300.0,368.0,2245.0,,,2.0,2.0,"148 Martin Luther King Ave, Saint Augustine, FL 32084",148 Martin Luther King Ave,Saint Augustine,FL,32084,29.882471,-81.31383,,False,,,,
47766946,FOR_RENT,House for rent,,2700.0,1050.0,3.0,561000.0,534.0,2856.0,,,3.0,2.0,"110 10th St, Saint Augustine, FL 32080",110 10th St,Saint Augustine,FL,32080,29.851543,-81.26857,,False,,,,
84670008,FOR_RENT,Apartment for rent,,1700.0,1049.0,2.0,181600.0,173.0,1678.0,,,2.0,2.0,"130 Old Town Pkwy UNIT 2102, Saint Augustine, FL 32084",130 Old Town Pkwy UNIT 2102,Saint Augustine,FL,32084,29.912518,-81.40008,,False,,,,
251532250,FOR_RENT,Apartment for rent,,1795.0,1350.0,1.0,,,1596.0,,,2.0,1.0,"23 Sanchez Ave #A, Saint Augustine, FL 32084",23 Sanchez Ave #A,Saint Augustine,FL,32084,29.905825,-81.32089,,False,,,,
99639272,FOR_RENT,House for rent,,2400.0,1873.0,1.0,340100.0,182.0,2386.0,,,4.0,2.0,"204 Boulder Rock Dr, Palm Coast, FL 32137",204 Boulder Rock Dr,Palm Coast,FL,32137,29.57016,-81.23089,,False,,,,
47772123,FOR_RENT,House for rent,,3200.0,1300.0,2.0,362400.0,279.0,2437.0,,,3.0,2.0,"7213 A1a S, Saint Augustine, FL 32080",7213 A1a S,Saint Augustine,FL,32080,29.762032,-81.25122,,False,,,,
44742196,FOR_RENT,House for rent,,2400.0,1664.0,1.0,168700.0,101.0,2189.0,,,3.0,2.0,"16 Bird Land Pl, Palm Coast, FL 32137",16 Bird Land Pl,Palm Coast,FL,32137,29.591074,-81.24906,,False,,,,
454833085,FOR_RENT,Apartment for rent,,1450.0,1265.0,1.0,,,,,,3.0,2.0,"Kings Tree, 1800 Kingsley Ave, Orange Park, FL 32073",1800 Kingsley Ave #362048B7D,Orange Park,FL,32073,30.164227,-81.73492,,False,,,,
450895992,FOR_RENT,Apartment for rent,,1794.0,1200.0,1.0,,,,,,2.0,3.0,"Le Montage, 3050 E Old River Rd, Jacksonville, FL 32223",3050 E Old River Rd #BAD0C4315,Jacksonville,FL,32223,30.169426,-81.62805,,False,,,,
439300766,FOR_RENT,House for rent,,3050.0,2300.0,1.0,532300.0,231.0,,,,4.0,3.0,"81 Wiltshire Dr, Saint Augustine, FL 32092",81 Wiltshire Dr,Saint Augustine,FL,32092,29.994982,-81.507484,,False,,,,
455153581,FOR_RENT,Apartment for rent,,1050.0,750.0,1.0,,,,,,1.0,1.0,"Park Place, 401 Loring Ave, Orange Park, FL 32073",401 Loring Ave #8AA8405B9,Orange Park,FL,32073,30.180838,-81.703575,,False,,,,
455786673,FOR_RENT,Apartment for rent,,1675.0,900.0,2.0,,,,,,1.0,1.0,"Village at Indigo Lakes Apts., (undisclosed Address), Daytona Beach, FL 32114",(undisclosed Address),Daytona Beach,FL,32114,,,,False,,,,
48032193,FOR_RENT,House for rent,,2200.0,1300.0,2.0,435300.0,335.0,1989.0,,,2.0,2.0,"212 S Wild Olive Ave, Daytona Beach, FL 32118",212 S Wild Olive Ave,Daytona Beach,FL,32118,29.221842,-81.008606,,False,,,,
2104790521,FOR_RENT,Apartment for rent,,1795.0,1016.0,2.0,,,1704.0,,,2.0,2.0,"101 White Fawn Dr, Daytona Beach, FL 32114",101 White Fawn Dr,Daytona Beach,FL,32114,29.20307,-81.0648,,False,,,,
443802940,FOR_RENT,Apartment for rent,,1650.0,1110.0,1.0,,,,,,2.0,1.0,"137 S Franklin St #137, Daytona Beach, FL 32114",137 S Franklin St #137,Daytona Beach,FL,32114,29.204906,-81.03287,,False,,,,
452027697,FOR_RENT,Apartment for rent,,2250.0,,,,,,,,3.0,1.0,"3047 1/2 S Peninsula Dr #1, Daytona Beach, FL 32118",3047 1/2 S Peninsula Dr #1,Daytona Beach,FL,32118,29.251032,-81.02638,,False,,,,
2057393750,FOR_RENT,Apartment for rent,,1550.0,800.0,2.0,,,1678.0,,,2.0,1.0,"520 Model St #2, Daytona Beach, FL 32114",520 Model St #2,Daytona Beach,FL,32114,29.2173,-81.03568,,False,,,,
2077950432,FOR_RENT,Apartment for rent,,1325.0,750.0,2.0,,,1237.0,,,1.0,1.0,"941 N Oleander Ave #3, Daytona Beach, FL 32118",941 N Oleander Ave #3,Daytona Beach,FL,32118,29.240772,-81.01903,,False,,,,
48031808,FOR_RENT,Apartment for rent,,1999.0,1210.0,2.0,193000.0,160.0,1935.0,,,2.0,2.0,"935 N Halifax Ave APT 207, Daytona Beach, FL 32118",935 N Halifax Ave APT 207,Daytona Beach,FL,32118,29.238602,-81.02235,,False,,,,
248543215,FOR_RENT,House for rent,,3000.0,2400.0,1.0,614300.0,256.0,3275.0,,,3.0,3.0,"132 Sunrise Blvd, Daytona Beach, FL 32118",132 Sunrise Blvd,Daytona Beach,FL,32118,29.199808,-80.9959,,False,,,,
443218720,FOR_RENT,House for rent,,1050.0,487.0,2.0,101200.0,208.0,,,,1.0,1.0,"1223 Holly Ave #D, Daytona Beach, FL 32117",1223 Holly Ave #D,Daytona Beach,FL,32117,29.24877,-81.04162,,False,,,,
2089967540,FOR_RENT,Apartment for rent,,1650.0,1650.0,1.0,,,1899.0,,,3.0,1.0,"330 N Peninsula Dr APT 2, Daytona Beach, FL 32118",330 N Peninsula Dr APT 2,Daytona Beach,FL,32118,29.230091,-81.01551,,False,,,,
48042123,FOR_RENT,House for rent,,1950.0,1004.0,2.0,183800.0,183.0,1839.0,,,3.0,1.0,"175 Center St, Daytona Beach, FL 32117",175 Center St,Daytona Beach,FL,32117,29.225124,-81.040504,,False,,,,
48026193,FOR_RENT,House for rent,,1895.0,1125.0,2.0,212300.0,189.0,1826.0,,,3.0,2.0,"1329 Idlewild Dr, Daytona Beach, FL 32114",1329 Idlewild Dr,Daytona Beach,FL,32114,29.212473,-81.05927,,False,,,,
2093025547,FOR_RENT,Apartment for rent,,1295.0,600.0,2.0,,,1224.0,,,1.0,1.0,"320 N Peninsula Dr #2, Daytona Beach, FL 32118",320 N Peninsula Dr #2,Daytona Beach,FL,32118,29.230465,-81.01548,,False,,,,
443324003,FOR_RENT,Apartment for rent,,1575.0,800.0,2.0,,,,,,2.0,1.0,"1290 9th St #30, Daytona Beach, FL 32117",1290 9th St #30,Daytona Beach,FL,32117,29.23048,-81.06292,,False,,,,
455579842,FOR_RENT,Apartment for rent,,960.0,550.0,2.0,,,,,,1.0,1.0,"116 S Coates St APT 6, Daytona Beach, FL 32118",116 S Coates St APT 6,Daytona Beach,FL,32118,29.224321,-81.0078,,False,,,,
48015339,FOR_RENT,House for rent,,1995.0,1465.0,1.0,208400.0,142.0,2141.0,,,3.0,2.0,"1620 Valencia Ave, Daytona Beach, FL 32117",1620 Valencia Ave,Daytona Beach,FL,32117,29.247086,-81.071,,False,,,,
443545764,FOR_RENT,House for rent,,1050.0,500.0,2.0,122200.0,244.0,,,,1.0,1.0,"1340 Woodward Ave, Daytona Beach, FL 32117",1340 Woodward Ave,Daytona Beach,FL,32117,29.250546,-81.04336,,False,,,,
450805901,FOR_RENT,Apartment for rent,,1380.0,687.0,2.0,,,,,,1.0,1.0,"Whispering Oaks Apartments, 240 Whispering Oaks Ct, Orange City, FL 32763",240 Whispering Oaks Ct #B96E3959F,Orange City,FL,32763,28.938519,-81.29663,,False,,,,
450477113,FOR_RENT,Apartment for rent,,1094.0,,,,,,,,1.0,1.0,"Clara Place Apartments, 1312 Water Willow Dr, Deland, FL 32720",1312 Water Willow Dr #2AE5D7840,Deland,FL,32720,29.005293,-81.30648,,False,,,,
450477120,FOR_RENT,Apartment for rent,,1074.0,,,,,,,,1.0,1.0,"Amelia Place Apartments, 301 Arrow Wood Trl, Deland, FL 32724",301 Arrow Wood Trl #D074B4A0D,Deland,FL,32724,29.052979,-81.299194,,False,,,,
453788927,FOR_RENT,Apartment for rent,,1195.0,575.0,2.0,,,,,,1.0,1.0,"Carriage House Apts, 916 W New York Ave #920B204, Deland, FL 32720",916 W New York Ave #920B204,Deland,FL,32720,29.027607,-81.3208,,False,,,,
450463372,FOR_RENT,Apartment for rent,,1074.0,,,,,,,,1.0,1.0,"Ashton Place Apartments, 300 Miller Rd, Deland, FL 32724",300 Miller Rd #75D29FE8F,Deland,FL,32724,29.032198,-81.28051,,False,,,,
450477101,FOR_RENT,Apartment for rent,,999.0,,,,,,,,1.0,1.0,"Lyn Garden Apartments, 506 E Wisconsin Ave, Deland, FL 32724",506 E Wisconsin Ave #939CE6697,Deland,FL,32724,29.031353,-81.29468,,False,,,,
252434192,FOR_RENT,Townhouse for rent,,2150.0,1093.0,2.0,437400.0,400.0,2100.0,,,3.0,2.0,"44 Bougainvillea Dr, Debary, FL 32713",44 Bougainvillea Dr,Debary,FL,32713,28.894941,-81.30847,,False,,,,
443617590,FOR_RENT,Apartment for rent,,2680.0,2034.0,1.0,,,,,,4.0,2.0,"1436 Chelsea Manor Cir #4077759641, Deland, FL 32724",1436 Chelsea Manor Cir #4077759641,Deland,FL,32724,29.00157,-81.2653,,False,,,,
47972733,FOR_RENT,House for rent,,2100.0,1458.0,1.0,274100.0,188.0,2063.0,,,3.0,3.0,"1612 N Merrick Dr, Deltona, FL 32725",1612 N Merrick Dr,Deltona,FL,32725,28.910116,-81.22537,,False,,,,
47937330,FOR_RENT,House for rent,,1995.0,1212.0,2.0,272400.0,225.0,1899.0,,,3.0,2.0,"688 Cumberland Rd, Deland, FL 32724",688 Cumberland Rd,Deland,FL,32724,29.04909,-81.292336,,False,,,,
104258166,FOR_RENT,House for rent,,2975.0,1750.0,2.0,292700.0,167.0,2716.0,,,4.0,3.0,"247 Debary Dr, Debary, FL 32713",247 Debary Dr,Debary,FL,32713,28.87433,-81.29265,,False,,,,
47956738,FOR_RENT,House for rent,,1850.0,1267.0,1.0,209600.0,165.0,1877.0,,,3.0,1.0,"224 Colomba Rd, Debary, FL 32713",224 Colomba Rd,Debary,FL,32713,28.882511,-81.29557,,False,,,,
81479243,FOR_RENT,House for rent,,2400.0,1792.0,1.0,288000.0,161.0,2263.0,,,2.0,1.0,"703 Larch St, Deltona, FL 32725",703 Larch St,Deltona,FL,32725,28.876759,-81.25974,,False,,,,
447672369,FOR_RENT,Apartment for rent,,1200.0,900.0,1.0,,,,,,2.0,2.0,"645 S Thompson Ave #B, Deland, FL 32720",645 S Thompson Ave #B,Deland,FL,32720,29.017878,-81.310005,,False,,,,
47957155,FOR_RENT,House for rent,,2000.0,1175.0,2.0,275800.0,235.0,1978.0,,,3.0,2.0,"244 Clara Vista St, Debary, FL 32713",244 Clara Vista St,Debary,FL,32713,28.870653,-81.30236,,False,,,,
2073725804,FOR_RENT,House for rent,,2950.0,2235.0,1.0,467000.0,209.0,2682.0,,,4.0,3.0,"706 Hyperion Dr, Debary, FL 32713",706 Hyperion Dr,Debary,FL,32713,28.852306,-81.335495,,False,,,,
448704721,FOR_RENT,Apartment for rent,,1750.0,500.0,4.0,,,,,,1.0,1.0,"202 E Voorhis Ave #2, Deland, FL 32724",202 E Voorhis Ave #2,Deland,FL,32724,29.024342,-81.30103,,False,,,,
170957087,FOR_RENT,House for rent,,1735.0,1279.0,1.0,203500.0,159.0,1741.0,,,2.0,2.0,"1016 Hartford Dr, Deland, FL 32724",1016 Hartford Dr,Deland,FL,32724,29.04598,-81.28627,,False,,,,
252433241,FOR_RENT,House for rent,,1900.0,1200.0,2.0,298800.0,249.0,1853.0,,,3.0,2.0,"1430 Monroe St, Deland, FL 32720",1430 Monroe St,Deland,FL,32720,29.001917,-81.32115,,False,,,,
243883131,FOR_RENT,House for rent,,2995.0,2017.0,1.0,366700.0,182.0,2553.0,,,3.0,2.0,"2359 Regency Park Dr, Deland, FL 32724",2359 Regency Park Dr,Deland,FL,32724,28.987392,-81.29473,,False,,,,
47974943,FOR_RENT,House for rent,,2150.0,1596.0,1.0,290300.0,182.0,2032.0,,,3.0,2.0,"387 Alexander Ave, Deltona, FL 32725",387 Alexander Ave,Deltona,FL,32725,28.87244,-81.24615,,False,,,,
47976741,FOR_RENT,House for rent,,1775.0,1008.0,2.0,240900.0,239.0,1699.0,,,3.0,2.0,"2806 Windsor Heights St, Deltona, FL 32738",2806 Windsor Heights St,Deltona,FL,32738,28.93738,-81.18909,,False,,,,
47947688,FOR_RENT,House for rent,,1550.0,1000.0,2.0,209800.0,210.0,1575.0,,,2.0,1.0,"687 Gleason St, Orange City, FL 32763",687 Gleason St,Orange City,FL,32763,28.955788,-81.310036,,False,,,,
114457169,FOR_RENT,House for rent,,1825.0,1450.0,1.0,297800.0,205.0,2098.0,,,2.0,2.0,"209 Lourdan Ct, Debary, FL 32713",209 Lourdan Ct,Debary,FL,32713,28.908451,-81.31143,,False,,,,
102978506,FOR_RENT,House for rent,,2050.0,1541.0,1.0,304500.0,198.0,2121.0,,,3.0,2.0,"1539 Teddington St, Deland, FL 32720",1539 Teddington St,Deland,FL,32720,29.055178,-81.3317,,False,,,,
347943428,FOR_RENT,House for rent,,2395.0,2071.0,1.0,398900.0,193.0,2499.0,,,4.0,3.0,"305 Pine St, Deland, FL 32724",305 Pine St,Deland,FL,32724,29.024107,-81.28854,,False,,,,
47943949,FOR_RENT,House for rent,,1949.0,1324.0,1.0,241400.0,182.0,1943.0,,,3.0,2.0,"1404 W Winnemissett Ave, Deland, FL 32720",1404 W Winnemissett Ave,Deland,FL,32720,29.01626,-81.33324,,False,,,,
47961705,FOR_RENT,House for rent,,2000.0,1374.0,1.0,,,1947.0,,,3.0,2.0,"485 S Goodwin St, Lake Helen, FL 32744",485 S Goodwin St,Lake Helen,FL,32744,28.977829,-81.243935,,False,,,,
349772541,FOR_RENT,House for rent,,2525.0,1823.0,1.0,397200.0,218.0,2306.0,,,3.0,3.0,"804 E Voorhis Ave, Deland, FL 32724",804 E Voorhis Ave,Deland,FL,32724,29.024286,-81.28801,,False,,,,
70818271,FOR_RENT,House for rent,,2495.0,1882.0,1.0,300800.0,160.0,2127.0,,,3.0,2.0,"501 Blue Water Ave, Orange City, FL 32763",501 Blue Water Ave,Orange City,FL,32763,28.94233,-81.29346,,False,,,,
170957085,FOR_RENT,House for rent,,1875.0,1510.0,1.0,231900.0,154.0,2044.0,,,3.0,2.0,"1012 Hartford Dr, Deland, FL 32724",1012 Hartford Dr,Deland,FL,32724,29.045979,-81.286644,,False,,,,
67183907,FOR_RENT,House for rent,,2249.0,1682.0,1.0,303500.0,180.0,1965.0,,,3.0,2.0,"2941 Grayton St, Deltona, FL 32738",2941 Grayton St,Deltona,FL,32738,28.960405,-81.1839,,False,,,,
352580118,FOR_RENT,House for rent,,2245.0,1334.0,2.0,342200.0,257.0,2064.0,,,3.0,2.0,"360 Whiteheart Dr, Deland, FL 32724",360 Whiteheart Dr,Deland,FL,32724,29.022999,-81.28821,,False,,,,
67188342,FOR_RENT,House for rent,,2499.0,2008.0,1.0,340800.0,170.0,2395.0,,,3.0,2.0,"1402 Bent Oaks Blvd, Deland, FL 32724",1402 Bent Oaks Blvd,Deland,FL,32724,29.00434,-81.28256,,False,,,,
89878399,FOR_RENT,House for rent,,2199.0,1233.0,2.0,271800.0,220.0,1997.0,,,3.0,2.0,"3491 Heath Dr, Deltona, FL 32725",3491 Heath Dr,Deltona,FL,32725,28.961622,-81.24657,,False,,,,
305843870,FOR_RENT,House for rent,,2699.0,2100.0,1.0,387000.0,184.0,2694.0,,,4.0,3.0,"1538 Scrub Jay Ct, Deland, FL 32724",1538 Scrub Jay Ct,Deland,FL,32724,29.003641,-81.264854,,False,,,,
252438683,FOR_RENT,House for rent,,2500.0,2161.0,1.0,374200.0,173.0,2568.0,,,4.0,2.0,"109 Big Pine Key Blvd, Deland, FL 32720",109 Big Pine Key Blvd,Deland,FL,32720,29.03286,-81.332306,,False,,,,
47939272,FOR_RENT,House for rent,,2175.0,1800.0,1.0,270700.0,150.0,2110.0,10062.36,sqft,4.0,3.0,"840 N Florida Ave, Deland, FL 32720",840 N Florida Ave,Deland,FL,32720,29.042551,-81.30622,,False,,,,
248569198,FOR_RENT,House for rent,,2500.0,2022.0,1.0,381600.0,189.0,2526.0,,,4.0,2.0,"1423 Chelsea Manor Cir, Deland, FL 32724",1423 Chelsea Manor Cir,Deland,FL,32724,29.000927,-81.26496,,False,,,,
2058445134,FOR_RENT,Apartment for rent,,1050.0,,,,,1009.0,,,1.0,1.0,"211 E Voorhis Ave #B, Deland, FL 32724",211 E Voorhis Ave #B,Deland,FL,32724,29.024815,-81.30069,,False,,,,
2081921078,FOR_RENT,House for rent,,1800.0,1170.0,2.0,246600.0,211.0,1863.0,,,3.0,3.0,"302 Ballard Ave, Deland, FL 32724",302 Ballard Ave,Deland,FL,32724,29.044046,-81.299324,,False,,,,
47944936,FOR_RENT,House for rent,,1795.0,1144.0,2.0,241500.0,211.0,2039.0,,,4.0,2.0,"928 Oakhurst Ave, Deland, FL 32720",928 Oakhurst Ave,Deland,FL,32720,29.011986,-81.321396,,False,,,,
47940556,FOR_RENT,House for rent,,1850.0,1495.0,1.0,264100.0,177.0,1969.0,,,3.0,2.0,"1077 Shady Hollow Dr, Deland, FL 32724",1077 Shady Hollow Dr,Deland,FL,32724,29.033098,-81.28368,,False,,,,
2065749927,FOR_RENT,House for rent,,2095.0,1826.0,1.0,366900.0,201.0,2135.0,,,3.0,3.0,"2344 Litchfield Loop, Deland, FL 32720",2344 Litchfield Loop,Deland,FL,32720,29.03846,-81.31015,,False,,,,
449976018,FOR_RENT,Apartment for rent,,1475.0,760.0,2.0,,,,,,2.0,2.0,"415 W Howry Ave #A, Deland, FL 32720",415 W Howry Ave #A,Deland,FL,32720,29.026562,-81.31055,,False,,,,
2102180210,FOR_RENT,Apartment for rent,,1250.0,800.0,2.0,,,1287.0,,,2.0,1.0,"Salisbury Apartments, 125 S Salisbury Ave APT A4, Deland, FL 32720",125 S Salisbury Ave APT A4,Deland,FL,32720,29.027098,-81.31457,,False,,,,
47939277,FOR_RENT,House for rent,,2210.0,1451.0,2.0,320100.0,221.0,2128.0,9757.44,sqft,3.0,2.0,"820 N Florida Ave, Deland, FL 32720",820 N Florida Ave,Deland,FL,32720,29.042187,-81.30618,,False,,,,
47937115,FOR_RENT,House for rent,,2220.0,1974.0,1.0,316100.0,160.0,2282.0,,,4.0,2.0,"334 Cumberland Rd, Deland, FL 32724",334 Cumberland Rd,Deland,FL,32724,29.04895,-81.29916,,False,,,,
452180915,FOR_RENT,House for rent,,2450.0,2046.0,1.0,381200.0,186.0,,,,4.0,2.0,"5024 Bear Lake Loop, Deland, FL 32724",5024 Bear Lake Loop,Deland,FL,32724,29.014935,-81.257225,,False,,,,
81484904,FOR_RENT,House for rent,,2449.0,2494.0,1.0,379100.0,152.0,2411.0,,,4.0,3.0,"1512 Clapton Dr, Deland, FL 32720",1512 Clapton Dr,Deland,FL,32720,29.053783,-81.33132,,False,,,,
104259276,FOR_RENT,House for rent,,2179.0,1874.0,1.0,343500.0,183.0,2373.0,,,4.0,2.0,"257 Sherri Lee Ln, Deland, FL 32720",257 Sherri Lee Ln,Deland,FL,32720,29.033026,-81.333176,,False,,,,
104270328,FOR_RENT,House for rent,,2055.0,1429.0,1.0,304400.0,213.0,2102.0,0.258,acres,3.0,2.0,"1499 West Pkwy, Deland, FL 32724",1499 West Pkwy,Deland,FL,32724,29.054327,-81.254105,,False,,,,
47940103,FOR_RENT,House for rent,,1775.0,1333.0,1.0,264800.0,199.0,1988.0,10149.48,sqft,3.0,2.0,"506 Ewing Ln, Deland, FL 32724",506 Ewing Ln,Deland,FL,32724,29.036661,-81.28223,,False,,,,
81470649,FOR_RENT,House for rent,,2645.0,3277.0,1.0,432900.0,132.0,2772.0,,,5.0,3.0,"1508 Clapton Dr, Deland, FL 32720",1508 Clapton Dr,Deland,FL,32720,29.05425,-81.33131,,False,,,,
351431565,FOR_RENT,House for rent,,2530.0,2071.0,1.0,415200.0,200.0,2500.0,,,4.0,3.0,"313 Whiteheart Dr, Deland, FL 32724",313 Whiteheart Dr,Deland,FL,32724,29.023743,-81.28694,,False,,,,
48027850,FOR_RENT,House for rent,,2100.0,1750.0,1.0,283100.0,162.0,2184.0,,,3.0,2.0,"24 Aspen St, Daytona Beach, FL 32124",24 Aspen St,Daytona Beach,FL,32124,29.131214,-81.13809,,False,,,,
2058085623,FOR_RENT,House for rent,,2550.0,1828.0,1.0,377100.0,206.0,2553.0,,,4.0,2.0,"536 Emily Glen St, Deland, FL 32724",536 Emily Glen St,Deland,FL,32724,29.079744,-81.2359,,False,,,,
47966376,FOR_RENT,House for rent,,2299.0,1917.0,1.0,300500.0,157.0,2058.0,,,3.0,2.0,"644 Vicksburg St, Deltona, FL 32725",644 Vicksburg St,Deltona,FL,32725,28.92906,-81.25918,,False,,,,
104299411,FOR_RENT,House for rent,,2485.0,2050.0,1.0,391600.0,191.0,2455.0,,,5.0,3.0,"482 Haversham Rd, Deltona, FL 32725",482 Haversham Rd,Deltona,FL,32725,28.905466,-81.267586,,False,,,,
47977409,FOR_RENT,House for rent,,1899.0,1599.0,1.0,238100.0,149.0,1969.0,,,3.0,2.0,"3132 Mandeville St, Deltona, FL 32738",3132 Mandeville St,Deltona,FL,32738,28.94731,-81.17753,,False,,,,
333452103,FOR_RENT,House for rent,,3100.0,2883.0,1.0,551000.0,191.0,3280.0,,,4.0,3.0,"4509 Latimer Way, Sanford, FL 32771",4509 Latimer Way,Sanford,FL,32771,28.829641,-81.33453,,False,,,,
2065413929,FOR_RENT,Apartment for rent,,1799.0,,,,,1663.0,,,1.0,1.0,"The Oaks at Royal Palm, 523 Royal Palm Blvd #F3, Vero Beach, FL 32960",523 Royal Palm Blvd #F3,Vero Beach,FL,32960,27.645071,-80.382286,,False,,,,
455838039,FOR_RENT,Apartment for rent,,1650.0,950.0,2.0,,,,,,2.0,1.0,"686 17th St, 686 17th St APT 4, Vero Beach, FL 32960",686 17th St APT 4,Vero Beach,FL,32960,27.633163,-80.386826,,False,,,,
454970461,FOR_RENT,Apartment for rent,,1375.0,850.0,2.0,,,,,,2.0,2.0,"Edgewood Place, 1925 16th Ave #207, Vero Beach, FL 32960",1925 16th Ave #207,Vero Beach,FL,32960,27.63663,-80.40174,,False,,,,
456145578,FOR_RENT,Apartment for rent,,1975.0,1200.0,2.0,,,,,,3.0,2.0,"115 Flint St #A, Sebastian, FL 32958",115 Flint St #A,Sebastian,FL,32958,27.775614,-80.46515,,False,,,,
45251325,FOR_RENT,Apartment for rent,,2600.0,1105.0,2.0,175200.0,159.0,2062.0,,,2.0,2.0,"6180 S Mirror Lake Dr UNIT 518, Sebastian, FL 32958",6180 S Mirror Lake Dr UNIT 518,Sebastian,FL,32958,27.788172,-80.45346,,False,,,,
87646888,FOR_RENT,Townhouse for rent,,3650.0,2146.0,2.0,354300.0,165.0,4164.0,,,2.0,3.0,"1945 Bridgepointe Cir, Vero Beach, FL 32967",1945 Bridgepointe Cir,Vero Beach,FL,32967,27.677105,-80.405045,,False,,,,
104078389,FOR_RENT,House for rent,,2600.0,2147.0,1.0,385400.0,180.0,2315.0,,,4.0,3.0,"942 Brocksmith St SE, Palm Bay, FL 32909",942 Brocksmith St SE,Palm Bay,FL,32909,27.987988,-80.64484,,False,,,,
45270143,FOR_RENT,Townhouse for rent,,3500.0,1532.0,2.0,415400.0,271.0,4999.0,,,2.0,3.0,"4904 Bethel Creek Dr APT 2, Vero Beach, FL 32963",4904 Bethel Creek Dr APT 2,Vero Beach,FL,32963,27.67126,-80.363045,,False,,,,
455776873,FOR_RENT,Apartment for rent,,3200.0,1000.0,3.0,,,,,,1.0,2.0,"5040 Harmony Cir, Vero Beach, FL 32967",5040 Harmony Cir,Vero Beach,FL,32967,27.684626,-80.39862,,False,,,,
43498478,FOR_RENT,House for rent,,1799.0,1176.0,2.0,,,1923.0,,,3.0,2.0,"771 Cayuga Ave NE, Palm Bay, FL 32905",771 Cayuga Ave NE,Palm Bay,FL,32905,28.016657,-80.6061,,False,,,,
2068440423,FOR_RENT,Apartment for rent,,1800.0,1200.0,2.0,,,1996.0,,,3.0,2.0,"274 Harp Ter #A, Sebastian, FL 32958",274 Harp Ter #A,Sebastian,FL,32958,27.79487,-80.47752,,False,,,,
99754236,FOR_RENT,House for rent,,2100.0,1300.0,2.0,273400.0,210.0,2098.0,,,3.0,2.0,"1245 11th Ct SW, Vero Beach, FL 32962",1245 11th Ct SW,Vero Beach,FL,32962,27.580688,-80.39649,,False,,,,
439806776,FOR_RENT,Apartment for rent,,1600.0,1000.0,2.0,,,,,,2.0,2.0,"78 Royal Oak Dr APT 206, Vero Beach, FL 32962",78 Royal Oak Dr APT 206,Vero Beach,FL,32962,27.6036,-80.376175,,False,,,,
450361519,FOR_RENT,Apartment for rent,,1620.0,,,,,,,,1.0,1.0,"Woodspring Suites Port St. Lucie, 11600 SW Village Pkwy, Pt Saint Lucie, FL 34987",11600 SW Village Pkwy #14EE56A16,Pt Saint Lucie,FL,34987,27.253883,-80.426636,,False,,,,
2071349193,FOR_RENT,Apartment for rent,,2379.0,1683.0,1.0,,,2386.0,,,3.0,3.0,"The Enclave at St. Lucie West, 150 SW Hidden Cove Way #206, Pt Saint Lucie, FL 34986",150 SW Hidden Cove Way #206,Pt Saint Lucie,FL,34986,27.302921,-80.38182,,False,,,,
452093623,FOR_RENT,Apartment for rent,,1700.0,1000.0,2.0,,,,,,2.0,1.0,"Edwards Landing, 3171 Morning Dew Ln, Fort Pierce, FL 34981",3171 Morning Dew Ln #3AF298E56,Fort Pierce,FL,34981,27.408327,-80.350655,,False,,,,
455593970,FOR_RENT,Apartment for rent,,1949.0,1400.0,1.0,,,,,,2.0,2.0,"Sabal Palm Villas, 5122 SE Lisbon Cir #5082, Stuart, FL 34997",5122 SE Lisbon Cir #5082,Stuart,FL,34997,27.143782,-80.20897,,False,,,,
82063092,FOR_RENT,Apartment for rent,,1700.0,876.0,2.0,140300.0,160.0,1685.0,,,2.0,1.0,"Hemingway LLC, 1600 S Kanner Hwy APT 212, Stuart, FL 34994",1600 S Kanner Hwy APT 212,Stuart,FL,34994,27.182814,-80.25441,,False,,,,
452993218,FOR_RENT,Apartment for rent,,1875.0,1100.0,2.0,,,,,,2.0,2.0,"Weatherbee Townhomes, 699 W Weatherbee Rd #699A, Fort Pierce, FL 34982",699 W Weatherbee Rd #699A,Fort Pierce,FL,34982,27.380524,-80.33103,,False,,,,
452029507,FOR_RENT,Apartment for rent,,1645.0,1300.0,1.0,,,,,,2.0,2.0,"Cortez Village Townhomes, 2101 Linda Sue Cir, Fort Pierce, FL 34982",2101 Linda Sue Cir #A404BA378,Fort Pierce,FL,34982,27.41792,-80.34683,,False,,,,
46815471,FOR_RENT,House for rent,,14750.0,2050.0,7.0,1165800.0,569.0,18000.0,,,3.0,4.0,"108 Sunfish Ln, Jupiter, FL 33477",108 Sunfish Ln,Jupiter,FL,33477,26.922672,-80.07332,,False,,,,
46879138,FOR_RENT,House for rent,,4850.0,1981.0,2.0,609900.0,308.0,3817.0,,,3.0,2.0,"523 N Dover Rd, Tequesta, FL 33469",523 N Dover Rd,Tequesta,FL,33469,26.95907,-80.10044,,False,,,,
455161564,FOR_RENT,Townhouse for rent,,2950.0,1152.0,3.0,310500.0,270.0,,,,2.0,2.0,"5203 Red Oak Ct #5203, Palm Beach Gardens, FL 33410",5203 Red Oak Ct #5203,Palm Beach Gardens,FL,33410,26.83573,-80.08658,,False,,,,
2054758222,FOR_RENT,Apartment for rent,,2800.0,920.0,3.0,,,2380.0,,,2.0,2.0,"10 Garden St APT 205, Jupiter, FL 33469",10 Garden St APT 205,Jupiter,FL,33469,26.962673,-80.09805,,False,,,,
46881263,FOR_RENT,Townhouse for rent,,3445.0,1298.0,3.0,476600.0,367.0,3693.0,,,3.0,3.0,"7 Oakland Ct, Tequesta, FL 33469",7 Oakland Ct,Tequesta,FL,33469,26.96103,-80.08683,,False,,,,
46814921,FOR_RENT,Apartment for rent,,4000.0,1960.0,2.0,368700.0,188.0,2735.0,,,2.0,2.0,"400 N A1a LOT 69, Jupiter, FL 33477",400 N A1a LOT 69,Jupiter,FL,33477,26.93837,-80.08024,,False,,,,
46855850,FOR_RENT,House for rent,,14700.0,2300.0,6.0,629200.0,274.0,5317.0,,,4.0,3.0,"509 Resort Ln, Palm Beach Gardens, FL 33418",509 Resort Ln,Palm Beach Gardens,FL,33418,26.83207,-80.138985,,False,,,,
248985962,FOR_RENT,House for rent,,3500.0,1868.0,2.0,512500.0,274.0,3621.0,,,4.0,2.0,"3428 Capri Rd, Palm Beach Gardens, FL 33410",3428 Capri Rd,Palm Beach Gardens,FL,33410,26.853779,-80.08727,,False,,,,
50940074,FOR_RENT,House for rent,,4150.0,1500.0,3.0,580400.0,387.0,3564.0,,,3.0,2.0,"6354 Hollywood St, Jupiter, FL 33458",6354 Hollywood St,Jupiter,FL,33458,26.89461,-80.133484,,False,,,,
455192061,FOR_RENT,Townhouse for rent,,3000.0,1600.0,2.0,413800.0,259.0,,,,3.0,3.0,"2410 24th Ln #2410, Palm Beach Gardens, FL 33418",2410 24th Ln #2410,Palm Beach Gardens,FL,33418,26.843306,-80.10733,,False,,,,
46673637,FOR_RENT,House for rent,,5900.0,2020.0,3.0,2203700.0,1091.0,5481.0,,,3.0,2.0,"14120 Harbor Ln, Palm Beach Gardens, FL 33410",14120 Harbor Ln,Palm Beach Gardens,FL,33410,26.88407,-80.072296,,False,,,,
64920220,FOR_RENT,Townhouse for rent,,4100.0,1812.0,2.0,657300.0,363.0,4148.0,,,3.0,3.0,"152 Caravelle Dr, Jupiter, FL 33458",152 Caravelle Dr,Jupiter,FL,33458,26.902388,-80.12481,,False,,,,
103481367,FOR_RENT,House for rent,,6500.0,2612.0,2.0,1160100.0,444.0,4532.0,,,4.0,4.0,"3463 E Mallory Blvd, Jupiter, FL 33458",3463 E Mallory Blvd,Jupiter,FL,33458,26.89924,-80.11514,,False,,,,
46810613,FOR_RENT,Townhouse for rent,,2495.0,1100.0,2.0,304200.0,277.0,2569.0,,,3.0,2.0,"319 Georgian Park Dr, Jupiter, FL 33458",319 Georgian Park Dr,Jupiter,FL,33458,26.925346,-80.10538,,False,,,,
2060481458,FOR_RENT,House for rent,,35000.0,5024.0,7.0,2979300.0,593.0,8155.0,,,5.0,6.0,"2629 Marcinski Rd, Jupiter, FL 33477",2629 Marcinski Rd,Jupiter,FL,33477,26.896914,-80.07257,,False,,,,
455791918,FOR_RENT,Apartment for rent,,1750.0,700.0,3.0,,,,,,1.0,1.0,"Brandon Palm Springs, 965 Manor Dr #A-01, Lake Worth, FL 33461",965 Manor Dr #A-01,Lake Worth,FL,33461,26.62859,-80.0916,,False,,,,
455817912,FOR_RENT,Apartment for rent,,2750.0,1347.0,2.0,,,,,,2.0,2.0,"San Marino, 20901 Saint Andrews Blvd #17, Boca Raton, FL 33433",20901 Saint Andrews Blvd #17,Boca Raton,FL,33433,26.366392,-80.13799,,False,,,,
454989594,FOR_RENT,Apartment for rent,,2000.0,1000.0,2.0,,,,,,2.0,2.0,"Boca Heights Apartments, 399 NW 19th St, Boca Raton, FL 33432",399 NW 19th St #4DB69D0CF,Boca Raton,FL,33432,26.36741,-80.09219,,False,,,,
453503603,FOR_RENT,Apartment for rent,,1539.0,650.0,2.0,,,,,,1.0,1.0,"Naranja Grand I, 28150 SW 147th Ave, Homestead, FL 33033",28150 SW 147th Ave #07FD349C6,Homestead,FL,33033,25.50609,-80.429405,,False,,,,
453503613,FOR_RENT,Apartment for rent,,1306.0,690.0,2.0,,,,,,1.0,1.0,"Naranja Grand II, 28050 SW 147th Ave, Homestead, FL 33033",28050 SW 147th Ave #7A1D415E7,Homestead,FL,33033,25.505358,-80.42929,,False,,,,
455605753,FOR_RENT,Apartment for rent,,1950.0,558.0,3.0,,,,,,1.0,1.0,"Bay Pointe Apartments, 18412 Homestead Ave, Miami, FL 33157",18412 Homestead Ave #28D6555D4,Miami,FL,33157,25.598051,-80.35773,,False,,,,
452844794,FOR_RENT,Apartment for rent,,4000.0,1469.0,3.0,,,,,,2.0,2.0,"Villa Majorca, 343 Majorca Ave #306, Miami, FL 33134",343 Majorca Ave #306,Miami,FL,33134,25.755308,-80.26197,,False,,,,
448973906,FOR_RENT,Apartment for rent,,1495.0,462.0,3.0,,,,,,1.0,1.0,"Naples 701 Apartments, 3531 Plantation Way, Naples, FL 34112",3531 Plantation Way #A80F966B1,Naples,FL,34112,26.120619,-81.767555,,False,,,,
447694885,FOR_RENT,Apartment for rent,,1583.0,946.0,2.0,,,,,,2.0,2.0,"Ekos Arbor Park, 1310 Citizens Pkwy #200, North Pt, FL 34288",1310 Citizens Pkwy #200,North Pt,FL,34288,27.065733,-82.16079,,False,,,,
2054216939,FOR_RENT,Townhouse for rent,,1749.0,1405.0,1.0,228000.0,162.0,1780.0,,,3.0,3.0,"1915 E Landings Way, Port Charlotte, FL 33953",1915 E Landings Way,Port Charlotte,FL,33953,27.004608,-82.17674,,False,,,,
103163073,FOR_RENT,House for rent,,2125.0,1725.0,1.0,311500.0,181.0,1810.0,,,3.0,3.0,"3318 Jamestown St, Port Charlotte, FL 33952",3318 Jamestown St,Port Charlotte,FL,33952,26.979908,-82.079636,,False,,,,
447475909,FOR_RENT,Apartment for rent,,1790.0,1248.0,1.0,230800.0,185.0,,,,3.0,2.0,"11154 Pendleton Ave, Englewood, FL 34224",11154 Pendleton Ave,Englewood,FL,34224,26.931408,-82.26771,,False,,,,
47597384,FOR_RENT,House for rent,,2150.0,1225.0,2.0,249100.0,203.0,1933.0,,,3.0,2.0,"3389 Abbotsford St, North Port, FL 34287",3389 Abbotsford St,North Port,FL,34287,27.053547,-82.2058,,False,,,,
47599718,FOR_RENT,House for rent,,2100.0,1522.0,1.0,248200.0,163.0,1844.0,,,2.0,2.0,"6370 Sooner St, North Port, FL 34287",6370 Sooner St,North Port,FL,34287,27.040472,-82.24735,,False,,,,
455956134,FOR_RENT,House for rent,,2650.0,1768.0,1.0,,,,,,3.0,2.0,"1525 Boswell St, North Pt, FL 34288",1525 Boswell St,North Pt,FL,34288,27.063936,-82.11446,,False,,,,
99864572,FOR_RENT,House for rent,,3995.0,1600.0,2.0,390100.0,244.0,3833.0,,,2.0,2.0,"10505 Crooked Creek Dr, Venice, FL 34293",10505 Crooked Creek Dr,Venice,FL,34293,27.045805,-82.37167,,False,,,,
99843646,FOR_RENT,House for rent,,2350.0,1496.0,2.0,,,2141.0,,,3.0,2.0,"4135 Watson Ave, North Port, FL 34288",4135 Watson Ave,North Port,FL,34288,27.03781,-82.13224,,False,,,,
99827285,FOR_RENT,House for rent,,2350.0,1496.0,2.0,368700.0,246.0,2288.0,,,3.0,2.0,"2340 Rushmore St, North Port, FL 34288",2340 Rushmore St,North Port,FL,34288,27.054913,-82.11815,,False,,,,
2091150848,FOR_RENT,Apartment for rent,,1495.0,850.0,2.0,,,1920.0,,,2.0,1.0,"1 Plaza Mayor, Venice, FL 34285",1 Plaza Mayor,Venice,FL,34285,27.084501,-82.4402,,False,,,,
348746450,FOR_RENT,Apartment for rent,,1295.0,579.0,2.0,,,1348.0,,,1.0,1.0,"Citadel Apartments of Venice, 125 Airport Ave E, Venice, FL 34285",125 Airport Ave E #259052EB3,Venice,FL,34285,27.078936,-82.44302,,False,,,,
47558132,FOR_RENT,House for rent,,1749.0,1368.0,1.0,250200.0,183.0,2282.0,,,3.0,2.0,"1109 Myrtle Ave, Venice, FL 34285",1109 Myrtle Ave,Venice,FL,34285,27.09588,-82.42528,,False,,,,
450672040,FOR_RENT,House for rent,,2425.0,1504.0,2.0,340800.0,227.0,,,,3.0,2.0,"8032 Majestic Palms Ct #6, Venice, FL 34293",8032 Majestic Palms Ct #6,Venice,FL,34293,27.055553,-82.40468,,False,,,,
47563901,FOR_RENT,House for rent,,2200.0,1196.0,2.0,209800.0,175.0,1928.0,,,2.0,2.0,"224 Glen Oak Rd, Venice, FL 34293",224 Glen Oak Rd,Venice,FL,34293,27.077965,-82.42244,,False,,,,
456187347,FOR_RENT,Townhouse for rent,,2270.0,1553.0,1.0,,,,,,3.0,3.0,"15168 Cuzcorro Ct, Nokomis, FL 34275",15168 Cuzcorro Ct,Nokomis,FL,34275,27.161482,-82.455055,,False,,,,
47575972,FOR_RENT,House for rent,,2500.0,1376.0,2.0,206700.0,150.0,2212.0,,,3.0,2.0,"695 Alligator Dr, Venice, FL 34293",695 Alligator Dr,Venice,FL,34293,27.047834,-82.415794,,False,,,,
47503545,FOR_RENT,Apartment for rent,,2000.0,1100.0,2.0,171100.0,156.0,1922.0,,,2.0,2.0,"2667 Woodgate Ln #E-12, Sarasota, FL 34231",2667 Woodgate Ln #E-12,Sarasota,FL,34231,27.284874,-82.51554,,False,,,,
63554758,FOR_RENT,Apartment for rent,,3000.0,1693.0,2.0,468500.0,277.0,3207.0,,,2.0,2.0,"7575 Quinto Dr, Sarasota, FL 34238",7575 Quinto Dr,Sarasota,FL,34238,27.244137,-82.46027,,False,,,,
99822981,FOR_RENT,House for rent,,2700.0,1640.0,2.0,424700.0,259.0,3095.0,,,3.0,2.0,"11707 Breadfruit Ln, Venice, FL 34292",11707 Breadfruit Ln,Venice,FL,34292,27.079271,-82.34603,,False,,,,
455779308,FOR_RENT,Apartment for rent,,2100.0,1000.0,2.0,,,,,,2.0,2.0,"3008 Sail Pointe Cir, Venice, FL 34293",3008 Sail Pointe Cir,Venice,FL,34293,27.072824,-82.37981,,False,,,,
339883770,FOR_RENT,Townhouse for rent,,2450.0,1555.0,2.0,366700.0,236.0,2478.0,,,3.0,3.0,"5734 Archipelago St, Nokomis, FL 34275",5734 Archipelago St,Nokomis,FL,34275,27.163532,-82.45939,,False,,,,
47571801,FOR_RENT,Apartment for rent,,3000.0,1070.0,3.0,217800.0,204.0,2052.0,,,2.0,2.0,"2046 Oakridge Cir #C-7, Venice, FL 34293",2046 Oakridge Cir #C-7,Venice,FL,34293,27.062246,-82.39397,,False,,,,
47562535,FOR_RENT,Apartment for rent,,1950.0,1064.0,2.0,210500.0,198.0,1885.0,,,2.0,2.0,"370 Three Lakes Ln UNIT C, Venice, FL 34285",370 Three Lakes Ln UNIT C,Venice,FL,34285,27.080166,-82.418945,,False,,,,
87675491,FOR_RENT,Apartment for rent,,3100.0,1705.0,2.0,597400.0,350.0,3488.0,,,2.0,2.0,"167 Tampa Ave E UNIT 813, Venice, FL 34285",167 Tampa Ave E UNIT 813,Venice,FL,34285,27.1012,-82.44256,,False,,,,
246058029,FOR_RENT,House for rent,,3900.0,2611.0,1.0,445000.0,170.0,3736.0,,,4.0,3.0,"12771 Cinqueterre Dr, Venice, FL 34293",12771 Cinqueterre Dr,Venice,FL,34293,27.063227,-82.33271,,False,,,,
2059853552,FOR_RENT,Apartment for rent,,2100.0,850.0,2.0,,,1912.0,,,1.0,1.0,"529 Manatee Ct #A, Venice, FL 34285",529 Manatee Ct #A,Venice,FL,34285,27.10217,-82.45333,,False,,,,
47562772,FOR_RENT,Apartment for rent,,1800.0,867.0,2.0,168100.0,194.0,1838.0,,,2.0,2.0,"616 Guild Dr APT 8, Venice, FL 34285",616 Guild Dr APT 8,Venice,FL,34285,27.089836,-82.443016,,False,,,,
47564128,FOR_RENT,House for rent,,2200.0,1246.0,2.0,271700.0,218.0,2279.0,,,3.0,3.0,"1940 Redfern Rd, Venice, FL 34293",1940 Redfern Rd,Venice,FL,34293,27.074005,-82.42679,,False,,,,
47542884,FOR_RENT,House for rent,,2400.0,1050.0,2.0,750500.0,715.0,2727.0,,,2.0,1.0,"400 Everglades Dr, Venice, FL 34285",400 Everglades Dr,Venice,FL,34285,27.08748,-82.45046,,False,,,,
2071739215,FOR_RENT,Apartment for rent,,2200.0,850.0,3.0,,,1035.0,,,1.0,1.0,"707 Golden Beach Blvd #A, Venice, FL 34285",707 Golden Beach Blvd #A,Venice,FL,34285,27.087513,-82.45443,,False,,,,
47542159,FOR_RENT,House for rent,,2975.0,1400.0,2.0,738000.0,527.0,3422.0,,,3.0,2.0,"433 Valencia Rd, Venice, FL 34285",433 Valencia Rd,Venice,FL,34285,27.094868,-82.45212,,False,,,,
47573344,FOR_RENT,House for rent,,2230.0,1368.0,2.0,306400.0,224.0,2185.0,8015.04,sqft,3.0,2.0,"290 Crane Rd, Venice, FL 34293",290 Crane Rd,Venice,FL,34293,27.051733,-82.41266,,False,,,,
172025369,FOR_RENT,House for rent,,1795.0,1050.0,2.0,,,2516.0,,,2.0,2.0,"918 Windemere St W, Venice, FL 34285",918 Windemere St W,Venice,FL,34285,27.113132,-82.426926,,False,,,,
47541130,FOR_RENT,Apartment for rent,,3500.0,1168.0,3.0,691900.0,592.0,3545.0,,,2.0,2.0,"333 The Esplanade N APT 205, Venice, FL 34285",333 The Esplanade N APT 205,Venice,FL,34285,27.102398,-82.46085,,False,,,,
99821179,FOR_RENT,House for rent,,2300.0,1665.0,1.0,260200.0,156.0,2258.0,,,3.0,2.0,"3247 Virginia Rd, Venice, FL 34293",3247 Virginia Rd,Venice,FL,34293,27.059208,-82.415405,,False,,,,
47557456,FOR_RENT,House for rent,,2100.0,1376.0,2.0,298600.0,217.0,2268.0,,,3.0,2.0,"1328 Karen Dr, Venice, FL 34285",1328 Karen Dr,Venice,FL,34285,27.104473,-82.41856,,False,,,,
47565985,FOR_RENT,House for rent,,2000.0,1242.0,2.0,270100.0,217.0,2063.0,,,2.0,2.0,"404 Clover Rd, Venice, FL 34293",404 Clover Rd,Venice,FL,34293,27.068947,-82.41277,,False,,,,
47562812,FOR_RENT,Apartment for rent,,2100.0,833.0,3.0,144000.0,173.0,1777.0,,,2.0,2.0,"649 Tamiami Trl S APT 105, Venice, FL 34285",649 Tamiami Trl S APT 105,Venice,FL,34285,27.088564,-82.442406,,False,,,,
47564273,FOR_RENT,House for rent,,2149.0,1560.0,1.0,351800.0,226.0,2390.0,,,3.0,2.0,"1761 Banyan Dr, Venice, FL 34293",1761 Banyan Dr,Venice,FL,34293,27.07046,-82.41886,,False,,,,
47574358,FOR_RENT,House for rent,,3185.0,2356.0,1.0,358400.0,152.0,2966.0,0.27,acres,5.0,2.0,"807 Indus Rd, Venice, FL 34293",807 Indus Rd,Venice,FL,34293,27.05558,-82.42299,,False,,,,
2060615455,FOR_RENT,Apartment for rent,,1750.0,800.0,2.0,,,1788.0,,,2.0,1.0,"505 Manatee Ct., 505 Manatee Ct APT 2, Venice, FL 34285",505 Manatee Ct APT 2,Venice,FL,34285,27.101727,-82.45218,,False,,,,
47574407,FOR_RENT,House for rent,,1795.0,1246.0,1.0,267500.0,215.0,3076.0,,,2.0,2.0,"3565 Sterling Rd, Venice, FL 34293",3565 Sterling Rd,Venice,FL,34293,27.054976,-82.4265,,False,,,,
47563650,FOR_RENT,Apartment for rent,,1800.0,716.0,3.0,162200.0,227.0,1827.0,,,2.0,1.0,"340 Base Ave E APT 325, Venice, FL 34285",340 Base Ave E APT 325,Venice,FL,34285,27.079405,-82.44008,,False,,,,
47554800,FOR_RENT,House for rent,,2680.0,1667.0,2.0,355500.0,213.0,2551.0,10062.36,sqft,3.0,2.0,"1303 Pine Needle Rd, Venice, FL 34285",1303 Pine Needle Rd,Venice,FL,34285,27.1116,-82.42396,,False,,,,
453192277,FOR_RENT,Apartment for rent,,1595.0,765.0,2.0,,,,,,1.0,1.0,"Valencia Apartments, 432 Armada Rd S APT 1, Venice, FL 34285",432 Armada Rd S APT 1,Venice,FL,34285,27.09643,-82.45213,,False,,,,
2057943904,FOR_RENT,Apartment for rent,,1750.0,800.0,2.0,,,1788.0,,,2.0,1.0,"220 Avenue Des Parques North, 220 Avenue Des Parques N UNIT B, Venice, FL 34285",220 Avenue Des Parques N UNIT B,Venice,FL,34285,27.101728,-82.451454,,False,,,,
47541043,FOR_RENT,Apartment for rent,,5650.0,970.0,6.0,441200.0,455.0,2645.0,,,2.0,2.0,"(undisclosed Address), Venice, FL 34285",(undisclosed Address),Venice,FL,34285,,,,False,,,,
455926798,FOR_RENT,House for rent,,2500.0,1200.0,2.0,234500.0,195.0,,,,2.0,1.0,"733.5 Myrtle Ave, Venice, FL 34285",733.5 Myrtle Ave,Venice,FL,34285,27.09584,-82.43252,,False,,,,
455927161,FOR_RENT,House for rent,,2500.0,1100.0,2.0,226100.0,206.0,,,,2.0,1.0,"733 Myrtle Ave, Venice, FL 34285",733 Myrtle Ave,Venice,FL,34285,27.096115,-82.432144,,False,,,,
47541575,FOR_RENT,Apartment for rent,,4700.0,855.0,5.0,368900.0,431.0,2583.0,,,2.0,2.0,"109 The Esplanade S APT 103, Venice, FL 34285",109 The Esplanade S APT 103,Venice,FL,34285,27.099066,-82.45876,,False,,,,
47577322,FOR_RENT,House for rent,,5500.0,1956.0,3.0,511200.0,261.0,4450.0,,,3.0,2.0,"5044 Bella Terra Dr, Venice, FL 34293",5044 Bella Terra Dr,Venice,FL,34293,27.04035,-82.397964,,False,,,,
125994391,FOR_RENT,House for rent,,3740.0,2105.0,2.0,562900.0,267.0,3775.0,,,4.0,3.0,"172 Cohosh Rd, Nokomis, FL 34275",172 Cohosh Rd,Nokomis,FL,34275,27.131262,-82.42038,,False,,,,
456082438,FOR_RENT,Apartment for rent,,1400.0,1461.0,1.0,,,,,,2.0,2.0,"304 Venetia Ave UNIT A, North Pt, FL 34287",304 Venetia Ave UNIT A,North Pt,FL,34287,27.051563,-82.25999,,False,,,,
2066694749,FOR_RENT,Apartment for rent,,1395.0,1200.0,1.0,,,1834.0,,,2.0,2.0,"Atlantic Townhomes, 304 E 57th Avenue Dr, Bradenton, FL 34203",304 E 57th Avenue Dr #A4ABC2098,Bradenton,FL,34203,27.439762,-82.56066,,False,,,,
2052876739,FOR_RENT,Apartment for rent,,2350.0,1200.0,2.0,,,2318.0,,,3.0,2.0,"978 Soi Nana Ln, Sarasota, FL 34234",978 Soi Nana Ln,Sarasota,FL,34234,27.370256,-82.55172,,False,,,,
45718931,FOR_RENT,House for rent,,1950.0,816.0,2.0,199900.0,245.0,1743.0,,,3.0,1.0,"3608 19th St E, Bradenton, FL 34208",3608 19th St E,Bradenton,FL,34208,27.467484,-82.54173,,False,,,,
45767515,FOR_RENT,House for rent,,2500.0,2000.0,1.0,237900.0,119.0,2288.0,,,3.0,2.0,"755 Melody Ln, Bradenton, FL 34207",755 Melody Ln,Bradenton,FL,34207,27.457838,-82.56868,,False,,,,
449394199,FOR_RENT,Apartment for rent,,1950.0,750.0,3.0,,,,,,2.0,1.0,"1425 Tamiami Trl APT D, Bradenton, FL 34205",1425 Tamiami Trl APT D,Bradenton,FL,34205,27.486443,-82.57492,,False,,,,
2055628267,FOR_RENT,Townhouse for rent,,2295.0,1000.0,2.0,194000.0,194.0,2138.0,,,3.0,2.0,"313 58th Ave E, Bradenton, FL 34203",313 58th Ave E,Bradenton,FL,34203,27.439005,-82.56111,,False,,,,
2053478112,FOR_RENT,Apartment for rent,,2200.0,800.0,3.0,,,1610.0,,,2.0,1.0,"4519 87th Street Ct W #4519, Bradenton, FL 34210",4519 87th Street Ct W #4519,Bradenton,FL,34210,27.459023,-82.6499,,False,,,,
45764021,FOR_RENT,Apartment for rent,,2500.0,1400.0,2.0,211400.0,151.0,2314.0,,,2.0,2.0,"531 Spring Lakes Blvd, Bradenton, FL 34210",531 Spring Lakes Blvd,Bradenton,FL,34210,27.456217,-82.60029,,False,,,,
45777303,FOR_RENT,House for rent,,2900.0,2300.0,1.0,466500.0,203.0,4223.0,,,3.0,3.0,"6611 Columbia Dr, Bradenton, FL 34207",6611 Columbia Dr,Bradenton,FL,34207,27.4236,-82.585014,,False,,,,
45780604,FOR_RENT,House for rent,,2995.0,2000.0,1.0,402800.0,201.0,5047.0,,,4.0,4.0,"6603 1st St W, Bradenton, FL 34207",6603 1st St W,Bradenton,FL,34207,27.423653,-82.5634,,False,,,,
45775353,FOR_RENT,Apartment for rent,,4500.0,1439.0,3.0,443600.0,308.0,4374.0,,,3.0,3.0,"3701 54th Dr W UNIT 104, Bradenton, FL 34210",3701 54th Dr W UNIT 104,Bradenton,FL,34210,27.444118,-82.59884,,False,,,,
455446404,FOR_RENT,Apartment for rent,,1750.0,1521.0,1.0,,,,,,2.0,1.0,"5006 23rd St W #B, Bradenton, FL 34207",5006 23rd St W #B,Bradenton,FL,34207,27.45323,-82.58526,,False,,,,
45753904,FOR_RENT,Apartment for rent,,1900.0,1904.0,1.0,,,2109.0,,,3.0,1.0,"3813 11th St E, Bradenton, FL 34208",3813 11th St E,Bradenton,FL,34208,27.465696,-82.55172,,False,,,,
45778782,FOR_RENT,House for rent,,2900.0,1360.0,2.0,310700.0,228.0,2747.0,,,4.0,2.0,"6615 Renssalaer Dr, Bradenton, FL 34207",6615 Renssalaer Dr,Bradenton,FL,34207,27.42391,-82.594055,,False,,,,
45764852,FOR_RENT,House for rent,,3490.0,1661.0,2.0,583300.0,351.0,3271.0,,,3.0,2.0,"5065 47th St W, Bradenton, FL 34210",5065 47th St W,Bradenton,FL,34210,27.45154,-82.60753,,False,,,,
45777026,FOR_RENT,House for rent,,2800.0,1800.0,2.0,394300.0,219.0,2890.0,,,4.0,3.0,"1502 Dartmouth Dr, Bradenton, FL 34207",1502 Dartmouth Dr,Bradenton,FL,34207,27.431015,-82.58149,,False,,,,
45765534,FOR_RENT,House for rent,,2500.0,1386.0,2.0,254200.0,183.0,2511.0,,,3.0,2.0,"1807 47th Avenue Dr W, Bradenton, FL 34207",1807 47th Avenue Dr W,Bradenton,FL,34207,27.457367,-82.58069,,False,,,,
45725024,FOR_RENT,House for rent,,2000.0,696.0,3.0,182000.0,261.0,1873.0,,,2.0,1.0,"5335 22nd Street Ct E, Bradenton, FL 34203",5335 22nd Street Ct E,Bradenton,FL,34203,27.445974,-82.53601,,False,,,,
45766395,FOR_RENT,Apartment for rent,,1850.0,,,350100.0,,1756.0,,,2.0,1.0,"4912 23rd Street W, 4912 23rd St W #A, Bradenton, FL 34207",4912 23rd St W #A,Bradenton,FL,34207,27.45381,-82.58525,,False,,,,
443144774,FOR_RENT,Townhouse for rent,,1650.0,,,230000.0,,,,,2.0,1.0,"408-410 60th Avenue Dr, Bradenton, FL 34203",408-410 60th Avenue Dr,Bradenton,FL,34203,27.433651,-82.562,,False,,,,
45782252,FOR_RENT,House for rent,,2500.0,1550.0,2.0,329000.0,212.0,2419.0,,,2.0,2.0,"6916 Alderwood Dr, Sarasota, FL 34243",6916 Alderwood Dr,Sarasota,FL,34243,27.417728,-82.5581,,False,,,,
456073525,FOR_RENT,Apartment for rent,,1550.0,975.0,2.0,,,,,,2.0,1.0,"Bradenton Apartments, 4505 67th St W APT 1, Bradenton, FL 34210",4505 67th St W APT 1,Bradenton,FL,34210,27.461237,-82.62881,,False,,,,
2080616123,FOR_RENT,Apartment for rent,,12000.0,1670.0,7.0,,,2483.0,,,2.0,2.0,"807 Bayport Way #807, Longboat Key, FL 34228",807 Bayport Way #807,Longboat Key,FL,34228,27.384268,-82.635826,,False,,,,
376995171,FOR_RENT,Apartment for rent,,1243.0,576.0,2.0,,,,,,1.0,1.0,"Sutton Place, 3150 Pyramid Pkwy #27, Lakeland, FL 33805",3150 Pyramid Pkwy #27,Lakeland,FL,33805,28.082754,-81.96879,,False,,,,
350391750,FOR_RENT,Apartment for rent,,1395.0,1200.0,1.0,,,,,,2.0,2.0,"Glenncove Apartment Townhomes, 2020 E Edgewood Dr, Lakeland, FL 33803",2020 E Edgewood Dr #F1FABE91C,Lakeland,FL,33803,28.01447,-81.92305,,False,,,,
442563271,FOR_RENT,Apartment for rent,,1449.0,613.0,2.0,,,,,,1.0,1.0,"Valencia at the Park, 301 S Lake Ave #408, Lakeland, FL 33801",301 S Lake Ave #408,Lakeland,FL,33801,28.041553,-81.94921,,False,,,,
2057565125,FOR_RENT,Apartment for rent,,1369.0,600.0,2.0,,,1117.0,,,1.0,1.0,"Topaz Retreat Apartments, 1776 Harden Blvd, Lakeland, FL 33803",1776 Harden Blvd #61D3A498C,Lakeland,FL,33803,28.022467,-81.971825,,False,,,,
455112516,FOR_RENT,Apartment for rent,,1849.0,1456.0,1.0,,,,,,3.0,2.0,"Parkwood Estates, 400 Parkwood Estates Dr, Plant City, FL 33566",400 Parkwood Estates Dr #1A2,Plant City,FL,33566,28.028494,-82.063126,,False,,,,
2056471152,FOR_RENT,Apartment for rent,,1395.0,900.0,2.0,,,1470.0,,,2.0,1.0,"127 E Patterson St #129, Lakeland, FL 33803",127 E Patterson St #129,Lakeland,FL,33803,28.029272,-81.956024,,False,,,,
2055547419,FOR_RENT,Apartment for rent,,1700.0,1100.0,2.0,,,1862.0,,,2.0,2.0,"1835 Crystal Grove Dr #1, Lakeland, FL 33801",1835 Crystal Grove Dr #1,Lakeland,FL,33801,28.019985,-81.9126,,False,,,,
47366302,FOR_RENT,House for rent,,2500.0,2125.0,1.0,431600.0,203.0,1742.0,,,2.0,2.0,"718 E Walnut St, Lakeland, FL 33801",718 E Walnut St,Lakeland,FL,33801,28.039835,-81.95046,,False,,,,
47356032,FOR_RENT,House for rent,,2300.0,1798.0,1.0,380400.0,212.0,1990.0,,,3.0,2.0,"1718 E Elm Rd, Lakeland, FL 33801",1718 E Elm Rd,Lakeland,FL,33801,28.04703,-81.92966,,False,,,,
453060015,FOR_RENT,Apartment for rent,,1878.0,1051.0,2.0,,,,,,2.0,2.0,"Bayou Court, 4301 6th St S, Saint Petersburg, FL 33705",4301 6th St S #7FB7C8A67,Saint Petersburg,FL,33705,27.728828,-82.641014,,False,,,,
348182646,FOR_RENT,Apartment for rent,,1799.0,903.0,2.0,,,1782.0,,,2.0,2.0,"Oak Park Apartments, 4771 78th Ave N APT 202, Pinellas Park, FL 33781",4771 78th Ave N APT 202,Pinellas Park,FL,33781,27.843073,-82.698814,,False,,,,
47007581,FOR_RENT,Townhouse for rent,,2100.0,1344.0,2.0,249600.0,186.0,2150.0,,,2.0,2.0,"2725 5th Ct, Palm Harbor, FL 34684",2725 5th Ct,Palm Harbor,FL,34684,28.060978,-82.73608,,False,,,,
456129103,FOR_RENT,Apartment for rent,,1600.0,825.0,2.0,,,,,,1.0,2.0,"2531 Royal Pines Cir #23-B-55, Clearwater, FL 33763",2531 Royal Pines Cir #23-B-55,Clearwater,FL,33763,28.013317,-82.741806,,False,,,,
47209113,FOR_RENT,Apartment for rent,,2500.0,1100.0,2.0,191400.0,174.0,1970.0,,,2.0,2.0,"2683 Sabal Springs Cir APT 204, Clearwater, FL 33761",2683 Sabal Springs Cir APT 204,Clearwater,FL,33761,28.020086,-82.72652,,False,,,,
47114486,FOR_RENT,Apartment for rent,,1750.0,1140.0,2.0,152700.0,134.0,1819.0,,,2.0,2.0,"2420 Winding Creek Blvd APT 201, Clearwater, FL 33761",2420 Winding Creek Blvd APT 201,Clearwater,FL,33761,28.032858,-82.737076,,False,,,,
47209130,FOR_RENT,Apartment for rent,,2000.0,1075.0,2.0,205400.0,191.0,2143.0,,,2.0,2.0,"2687 Sabal Springs Cir APT 103, Clearwater, FL 33761",2687 Sabal Springs Cir APT 103,Clearwater,FL,33761,28.02073,-82.72704,,False,,,,
47185784,FOR_RENT,House for rent,,4500.0,1998.0,2.0,494900.0,248.0,4042.0,,,3.0,2.0,"1351 Ohio Ave, Dunedin, FL 34698",1351 Ohio Ave,Dunedin,FL,34698,28.024258,-82.76761,,False,,,,
46961834,FOR_RENT,House for rent,,3000.0,1000.0,3.0,444300.0,444.0,2178.0,,,2.0,1.0,"2055 Wilson Blvd, Clearwater, FL 33755",2055 Wilson Blvd,Clearwater,FL,33755,27.995811,-82.791985,,False,,,,
47191954,FOR_RENT,House for rent,,4495.0,1956.0,2.0,353400.0,181.0,4221.0,,,3.0,2.0,"11 Pinewood Cir, Safety Harbor, FL 34695",11 Pinewood Cir,Safety Harbor,FL,34695,28.016483,-82.692566,,False,,,,
455049875,FOR_RENT,Apartment for rent,,1700.0,800.0,2.0,,,,,,2.0,1.0,"3167 Phoenix Ave APT B, Oldsmar, FL 34677",3167 Phoenix Ave APT B,Oldsmar,FL,34677,28.035992,-82.683365,,False,,,,
46972048,FOR_RENT,Apartment for rent,,2750.0,1125.0,2.0,251700.0,224.0,2703.0,,,2.0,2.0,"271 Los Prados Dr, Safety Harbor, FL 34695",271 Los Prados Dr,Safety Harbor,FL,34695,27.991995,-82.70804,,False,,,,
453892212,FOR_RENT,Apartment for rent,,2000.0,768.0,3.0,,,,,,2.0,1.0,"625 4th Ave N #A, Safety Harbor, FL 34695",625 4th Ave N #A,Safety Harbor,FL,34695,27.996908,-82.69091,,False,,,,
455967084,FOR_RENT,Apartment for rent,,1700.0,800.0,2.0,,,,,,2.0,2.0,"2065 Hunters Glen Dr APT 407, Dunedin, FL 34698",2065 Hunters Glen Dr APT 407,Dunedin,FL,34698,28.036028,-82.75984,,False,,,,
47185553,FOR_RENT,Apartment for rent,,1800.0,1125.0,2.0,160400.0,143.0,1975.0,,,2.0,2.0,"820 Patricia Ave APT 109, Dunedin, FL 34698",820 Patricia Ave APT 109,Dunedin,FL,34698,28.012623,-82.77602,,False,,,,
2102601989,FOR_RENT,Apartment for rent,,1900.0,832.0,2.0,,,1553.0,,,2.0,1.0,"650 Athens St APT A, Dunedin, FL 34698",650 Athens St APT A,Dunedin,FL,34698,28.004185,-82.78206,,False,,,,
47200145,FOR_RENT,Apartment for rent,,2100.0,1117.0,2.0,190200.0,170.0,1995.0,,,2.0,2.0,"3032 Eastland Blvd UNIT B201, Clearwater, FL 33761",3032 Eastland Blvd UNIT B201,Clearwater,FL,33761,28.016443,-82.71159,,False,,,,
455558003,FOR_RENT,Apartment for rent,,1450.0,910.0,2.0,,,,,,1.0,1.0,"1031 Commodore St UNIT B, Clearwater, FL 33755",1031 Commodore St UNIT B,Clearwater,FL,33755,27.995295,-82.79325,,False,,,,
46982528,FOR_RENT,House for rent,,5500.0,2112.0,3.0,1375400.0,651.0,4934.0,,,3.0,3.0,"850 Mandalay Ave, Clearwater, FL 33767",850 Mandalay Ave,Clearwater,FL,33767,27.99573,-82.82689,,False,,,,
47019542,FOR_RENT,Apartment for rent,,2500.0,900.0,3.0,229700.0,255.0,2370.0,,,1.0,1.0,"(undisclosed Address), Clearwater, FL 33767",(undisclosed Address),Clearwater,FL,33767,,,,False,,,,
81385258,FOR_RENT,Apartment for rent,,1695.0,900.0,2.0,413800.0,460.0,1665.0,,,2.0,1.0,"1506 Leo Ln E, Clearwater, FL 33755",1506 Leo Ln E,Clearwater,FL,33755,27.982136,-82.76391,,False,,,,
456076376,FOR_RENT,Apartment for rent,,1322.0,974.0,1.0,,,,,,2.0,2.0,"Hudson Ridge, 12200 Hudson Ridge Dr #7-206, Pt Richey, FL 34668",12200 Hudson Ridge Dr #7-206,Pt Richey,FL,34668,28.3306,-82.68004,,False,,,,
2066760163,FOR_RENT,Apartment for rent,,1755.0,940.0,2.0,,,1577.0,,,2.0,2.0,"Forest Oak Villas 55+ Senior Community, 8125 Forest Villas Cir, Spring Hill, FL 34606",8125 Forest Villas Cir #14A3A0DDE,Spring Hill,FL,34606,28.489511,-82.58895,,False,,,,
456143734,FOR_RENT,Apartment for rent,,1350.0,754.0,2.0,,,,,,2.0,1.0,"Villas Of Oakdale, 715 Oakdale Ave APT 24, Brooksville, FL 34601",715 Oakdale Ave APT 24,Brooksville,FL,34601,28.55939,-82.39886,,False,,,,
413252801,FOR_RENT,House for rent,,1945.0,1461.0,1.0,299500.0,205.0,,,,3.0,2.0,"35 Rain Lily Ave, Spring Hill, FL 34609",35 Rain Lily Ave,Spring Hill,FL,34609,28.434526,-82.52244,,False,,,,
455212489,FOR_RENT,House for rent,,2045.0,2207.0,1.0,416500.0,189.0,,,,4.0,3.0,"4143 Goldfoil Rd, Spring Hill, FL 34609",4143 Goldfoil Rd,Spring Hill,FL,34609,28.489445,-82.51313,,False,,,,
46328306,FOR_RENT,House for rent,,2200.0,1560.0,1.0,299900.0,192.0,2166.0,,,3.0,2.0,"12635 Canton Ave, Hudson, FL 34669",12635 Canton Ave,Hudson,FL,34669,28.341043,-82.662636,,False,,,,
453085365,FOR_RENT,Townhouse for rent,,3000.0,1805.0,2.0,280900.0,156.0,,,,3.0,3.0,"6370 W Oak Park Blvd #1, Homosassa, FL 34446",6370 W Oak Park Blvd #1,Homosassa,FL,34446,28.7241,-82.5389,,False,,,,
2059074655,FOR_RENT,House for rent,,2450.0,1820.0,1.0,313000.0,172.0,2238.0,,,4.0,2.0,"5524 Ocean Breeze Dr, Spring Hill, FL 34609",5524 Ocean Breeze Dr,Spring Hill,FL,34609,28.512594,-82.5099,,False,,,,
46458390,FOR_RENT,House for rent,,2000.0,1251.0,2.0,291800.0,233.0,2629.0,,,2.0,2.0,"13717 Leslie Dr, Hudson, FL 34667",13717 Leslie Dr,Hudson,FL,34667,28.356745,-82.7065,,False,,,,
103373314,FOR_RENT,House for rent,,2500.0,2451.0,1.0,325100.0,133.0,2262.0,,,4.0,3.0,"3825 Crossline Dr, Spring Hill, FL 34609",3825 Crossline Dr,Spring Hill,FL,34609,28.489893,-82.50914,,False,,,,
43626002,FOR_RENT,Apartment for rent,,2000.0,1550.0,1.0,194500.0,125.0,1823.0,,,2.0,2.0,"135 Anton Ct, Homosassa, FL 34446",135 Anton Ct,Homosassa,FL,34446,28.74427,-82.52596,,False,,,,
44832380,FOR_RENT,House for rent,,2200.0,2200.0,1.0,272900.0,124.0,2207.0,,,3.0,2.0,"3251 Windbrook Ave, Spring Hill, FL 34608",3251 Windbrook Ave,Spring Hill,FL,34608,28.480747,-82.54911,,False,,,,
455559611,FOR_RENT,Apartment for rent,,1500.0,700.0,2.0,,,,,,3.0,2.0,"10031 Lyons Ln #31, Hudson, FL 34669",10031 Lyons Ln #31,Hudson,FL,34669,28.356031,-82.64924,,False,,,,
443593353,FOR_RENT,Townhouse for rent,,2250.0,1666.0,1.0,252400.0,152.0,,,,3.0,3.0,"11115 Wishing Cloud Rd, Land O Lakes, FL 34638",11115 Wishing Cloud Rd,Land O Lakes,FL,34638,28.31791,-82.52008,,False,,,,
448574991,FOR_RENT,House for rent,,2500.0,1860.0,1.0,311900.0,168.0,,,,4.0,3.0,"11784 Brae Way, Dade City, FL 33525",11784 Brae Way,Dade City,FL,33525,28.328712,-82.35839,,False,,,,
181918411,FOR_RENT,House for rent,,1200.0,448.0,3.0,,,1308.0,,,1.0,1.0,"13340 Lauren Ave, Hudson, FL 34669",13340 Lauren Ave,Hudson,FL,34669,28.351809,-82.61317,,False,,,,
44835204,FOR_RENT,House for rent,,2100.0,2030.0,1.0,250300.0,123.0,1893.0,,,4.0,2.0,"12057 Eldron St, Spring Hill, FL 34608",12057 Eldron St,Spring Hill,FL,34608,28.509521,-82.52721,,False,,,,
44809501,FOR_RENT,House for rent,,1200.0,450.0,3.0,99900.0,222.0,1101.0,,,1.0,1.0,"8052 B W Stevenson Rd, Brooksville, FL 34613",8052 B W Stevenson Rd,Brooksville,FL,34613,28.543941,-82.46466,,False,,,,
103425773,FOR_RENT,House for rent,,2500.0,1641.0,2.0,297900.0,182.0,2283.0,,,3.0,2.0,"9211 Northcliffe Blvd, Spring Hill, FL 34606",9211 Northcliffe Blvd,Spring Hill,FL,34606,28.504574,-82.57012,,False,,,,
44841394,FOR_RENT,House for rent,,1725.0,1210.0,1.0,194300.0,161.0,1575.0,,,2.0,2.0,"3440 Plaza Ave, Spring Hill, FL 34608",3440 Plaza Ave,Spring Hill,FL,34608,28.484463,-82.573456,,False,,,,
44835521,FOR_RENT,House for rent,,1650.0,980.0,2.0,171700.0,175.0,1574.0,,,2.0,2.0,"5322 Springwood Rd, Spring Hill, FL 34609",5322 Springwood Rd,Spring Hill,FL,34609,28.506685,-82.51953,,False,,,,
103252750,FOR_RENT,House for rent,,2450.0,2292.0,1.0,403400.0,176.0,2265.0,,,3.0,2.0,"6236 Sebastian Dr, Spring Hill, FL 34609",6236 Sebastian Dr,Spring Hill,FL,34609,28.521206,-82.49749,,False,,,,
44822226,FOR_RENT,House for rent,,1415.0,884.0,2.0,160500.0,182.0,1479.0,,,2.0,1.0,"7359 Pinehurst Dr, Spring Hill, FL 34606",7359 Pinehurst Dr,Spring Hill,FL,34606,28.443155,-82.60007,,False,,,,
44837623,FOR_RENT,House for rent,,2175.0,1489.0,1.0,249600.0,168.0,1859.0,,,3.0,2.0,"2425 Waterfall Dr, Spring Hill, FL 34608",2425 Waterfall Dr,Spring Hill,FL,34608,28.467846,-82.57157,,False,,,,
44804836,FOR_RENT,House for rent,,2800.0,2202.0,1.0,380400.0,173.0,2789.0,,,4.0,4.0,"2334 Palm Springs Ct, Spring Hill, FL 34606",2334 Palm Springs Ct,Spring Hill,FL,34606,28.468369,-82.611374,,False,,,,
2067954510,FOR_RENT,Townhouse for rent,,1500.0,1080.0,1.0,203800.0,189.0,1496.0,,,2.0,2.0,"1274 London Ave, Spring Hill, FL 34606",1274 London Ave,Spring Hill,FL,34606,28.452915,-82.59025,,False,,,,
66710639,FOR_RENT,House for rent,,1975.0,1308.0,2.0,267100.0,204.0,1892.0,,,3.0,2.0,"12037 Cavern Rd, Spring Hill, FL 34609",12037 Cavern Rd,Spring Hill,FL,34609,28.49688,-82.52818,,False,,,,
420447286,FOR_RENT,Apartment for rent,,1385.0,,,,,,,,2.0,1.0,"8243 Omaha Cir #S/O, Spring Hill, FL 34606",8243 Omaha Cir #S/O,Spring Hill,FL,34606,28.451107,-82.587296,,False,,,,
44819887,FOR_RENT,House for rent,,2180.0,1726.0,1.0,306700.0,178.0,2205.0,,,3.0,3.0,"5495 Piedmont Dr, Spring Hill, FL 34606",5495 Piedmont Dr,Spring Hill,FL,34606,28.46221,-82.62325,,False,,,,
69824385,FOR_RENT,House for rent,,4210.0,1944.0,2.0,317100.0,163.0,2226.0,,,4.0,2.0,"13499 Teaberry Ln, Spring Hill, FL 34609",13499 Teaberry Ln,Spring Hill,FL,34609,28.500872,-82.50685,,False,,,,
44810140,FOR_RENT,House for rent,,1875.0,1834.0,1.0,262800.0,143.0,1865.0,,,3.0,2.0,"7230 Galloway Rd, Weeki Wachee, FL 34613",7230 Galloway Rd,Weeki Wachee,FL,34613,28.536594,-82.57759,,False,,,,
46328164,FOR_RENT,House for rent,,2300.0,1941.0,1.0,238300.0,123.0,2181.0,,,3.0,2.0,"18736 Rosephil St, Spring Hill, FL 34610",18736 Rosephil St,Spring Hill,FL,34610,28.430428,-82.46751,,False,,,,
2055193961,FOR_RENT,Apartment for rent,,899.0,576.0,2.0,,,1042.0,,,1.0,1.0,"Miguel Place, 8940 Miguel Pl APT 210, Pt Richey, FL 34668",8940 Miguel Pl APT 210,Pt Richey,FL,34668,28.287195,-82.678024,,False,,,,
