zpid,Status Type,Status Text,Time On Zillow,rent,Area,Price Per Sqft,Zestimate,Zestimate Price Per Sqft,Rent Zestimate,Lot Area,Lot Area Unit,Beds,Bathrooms,Address,Street,city,State,Zipcode,latitude,longitude,Broker Name,is zillow owned,Sold Date,Sold Price,fips_code,geo_id
455590216,FOR_RENT,Apartment for rent,,1450.0,714.0,2.0,,,,,,2.0,1.0,"Hilo Val Hala Apartments, 120 Puueo St, Hilo, HI 96720",120 Puueo St #89369A45C,Hilo,HI,96720,19.729961,-155.08934,,False,,,,
347197401,FOR_RENT,Apartment for rent,,1724.0,400.0,4.0,,,1434.0,,,1.0,1.0,"La'ilani Apartments, 74-984 Manawalea St, Kailua Kona, HI 96740",74-984 Manawalea St #5A65B86FA,Kailua Kona,HI,96740,19.674253,-155.98619,,False,,,,
436017098,FOR_RENT,Apartment for rent,,1051.0,,,,,,,,2.0,1.0,"Riverside Apartments, 333 Ohai St, Hilo, HI 96720",333 Ohai St #2B-1BA,Hilo,HI,96720,19.727541,-155.0898,,False,,,,
402800460,FOR_RENT,Apartment for rent,,1430.0,908.0,2.0,,,,,,3.0,2.0,"Ouli Ekahi Cottages, 62-2600 Ouli Ekahi Pl, Kamuela, HI 96743",62-2600 Ouli Ekahi Pl #3B-1BA-908SQFT,Kamuela,HI,96743,20.022306,-155.76035,,False,,,,
448262557,FOR_RENT,Apartment for rent,,1034.0,384.0,3.0,,,,,,1.0,1.0,"Wisteria Vista, 1239 S King St, Honolulu, HI 96814",1239 S King St #42694D919,Honolulu,HI,96814,21.29916,-157.84326,,False,,,,
448262433,FOR_RENT,Apartment for rent,,1450.0,600.0,2.0,,,,,,2.0,1.0,"Birch Street Apartments, 916 Birch St, Honolulu, HI 96814",916 Birch St #330933F00,Honolulu,HI,96814,21.298756,-157.84308,,False,,,,
448262221,FOR_RENT,Apartment for rent,,615.0,420.0,1.0,,,,,,1.0,1.0,"Artesian Vista, 1828 Young St, Honolulu, HI 96826",1828 Young St #F0B800074,Honolulu,HI,96826,21.29654,-157.83153,,False,,,,
331690085,FOR_RENT,Apartment for rent,,3500.0,984.0,4.0,826100.0,840.0,3252.0,,,2.0,1.0,"29 Holopuni Rd UNIT A, Kula, HI 96790",29 Holopuni Rd UNIT A,Kula,HI,96790,20.77861,-156.3283,,False,,,,
72207256,FOR_RENT,Apartment for rent,,2900.0,729.0,4.0,488700.0,670.0,2485.0,,,2.0,1.0,"95-1041 Ainamakua Dr APT 6, Mililani, HI 96789",95-1041 Ainamakua Dr APT 6,Mililani,HI,96789,21.469635,-158.00226,,False,,,,
347342723,FOR_RENT,Apartment for rent,,3500.0,786.0,4.0,,,1620.0,,,1.0,1.0,"206 Merchant St #2B, Honolulu, HI 96813",206 Merchant St #2B,Honolulu,HI,96813,21.307413,-157.86124,,False,,,,
756655,FOR_RENT,Apartment for rent,,3550.0,646.0,5.0,584900.0,905.0,3123.0,,,2.0,1.0,"4955 Hanawai St APT 6-202, Lahaina, HI 96761",4955 Hanawai St APT 6-202,Lahaina,HI,96761,20.985971,-156.66846,,False,,,,
51615251,FOR_RENT,Apartment for rent,,3300.0,1397.0,2.0,822800.0,589.0,3832.0,,,2.0,1.0,"1736 Kaehulua Pl UNIT 4, Kapaa, HI 96746",1736 Kaehulua Pl UNIT 4,Kapaa,HI,96746,22.101057,-159.33937,,False,,,,
68133289,FOR_RENT,House for rent,,18000.0,3580.0,5.0,3286500.0,918.0,5613.0,,,4.0,4.0,"50 Lewa Lani Pl, Lahaina, HI 96761",50 Lewa Lani Pl,Lahaina,HI,96761,20.91508,-156.68167,,False,,,,
72191596,FOR_RENT,Apartment for rent,,2700.0,742.0,4.0,494300.0,666.0,2665.0,,,2.0,2.0,"92-1171 Palahia St APT G104, Kapolei, HI 96707",92-1171 Palahia St APT G104,Kapolei,HI,96707,21.361763,-158.08937,,False,,,,
2106182922,FOR_RENT,Apartment for rent,,5000.0,1470.0,3.0,777000.0,529.0,4110.0,,,2.0,2.0,"425 South St APT 701, Honolulu, HI 96813",425 South St APT 701,Honolulu,HI,96813,21.300564,-157.8611,,False,,,,
82449901,FOR_RENT,Townhouse for rent,,4200.0,1650.0,3.0,834100.0,506.0,3909.0,,,4.0,2.0,"46-359 Haiku Rd APT A7, Kaneohe, HI 96744",46-359 Haiku Rd APT A7,Kaneohe,HI,96744,21.414228,-157.81657,,False,,,,
82521107,FOR_RENT,House for rent,,6250.0,1860.0,3.0,1257300.0,676.0,4232.0,,,3.0,3.0,"133 Kinohi Loa Loop, Wailuku, HI 96793",133 Kinohi Loa Loop,Wailuku,HI,96793,20.87102,-156.50716,,False,,,,
71491292,FOR_RENT,Apartment for rent,,3800.0,1200.0,3.0,874600.0,729.0,4495.0,,,3.0,2.0,"44 Kanani Rd APT 1-106, Kihei, HI 96753",44 Kanani Rd APT 1-106,Kihei,HI,96753,20.727507,-156.4483,,False,,,,
736589,FOR_RENT,House for rent,,5800.0,2500.0,2.0,1268100.0,507.0,4921.0,,,3.0,2.0,"20 Mano Dr, Kula, HI 96790",20 Mano Dr,Kula,HI,96790,20.792282,-156.3213,,False,,,,
121874819,FOR_RENT,House for rent,,3995.0,1794.0,2.0,817900.0,456.0,4062.0,,,4.0,3.0,"87-1659 Mokila St, Waianae, HI 96792",87-1659 Mokila St,Waianae,HI,96792,21.413069,-158.1675,,False,,,,
755091,FOR_RENT,House for rent,,3500.0,950.0,4.0,1702900.0,1793.0,2816.0,,,3.0,1.0,"52 Hoonani St, Kihei, HI 96753",52 Hoonani St,Kihei,HI,96753,20.75807,-156.45552,,False,,,,
2122100759,FOR_RENT,House for rent,,2750.0,810.0,3.0,649900.0,802.0,3018.0,,,2.0,2.0,"76-251 Kanaka St, Kailua Kona, HI 96740",76-251 Kanaka St,Kailua Kona,HI,96740,19.610014,-155.97237,,False,,,,
456128252,FOR_RENT,Townhouse for rent,,3000.0,760.0,4.0,,,,,,2.0,2.0,"92-905 Hame Pl #22, Kapolei, HI 96707",92-905 Hame Pl #22,Kapolei,HI,96707,21.362011,-158.08365,,False,,,,
455937916,FOR_RENT,Apartment for rent,,3100.0,700.0,4.0,,,,,,2.0,1.0,"3327 Akala Dr #A, Kihei, HI 96753",3327 Akala Dr #A,Kihei,HI,96753,20.698305,-156.43146,,False,,,,
452696075,FOR_RENT,Apartment for rent,,1350.0,740.0,2.0,,,,,,1.0,1.0,"(undisclosed Address), Keaau, HI 96749",(undisclosed Address),Keaau,HI,96749,,,,False,,,,
82472071,FOR_RENT,Townhouse for rent,,2775.0,875.0,3.0,443700.0,507.0,2747.0,,,2.0,2.0,"1520 Liholiho St APT 205, Honolulu, HI 96822",1520 Liholiho St APT 205,Honolulu,HI,96822,21.304981,-157.84003,,False,,,,
654935,FOR_RENT,House for rent,,2500.0,450.0,6.0,1623400.0,3608.0,2428.0,,,1.0,1.0,"59-381 Pupukea Rd, Haleiwa, HI 96712",59-381 Pupukea Rd,Haleiwa,HI,96712,21.645079,-158.05014,,False,,,,
2083767797,FOR_RENT,Apartment for rent,,1695.0,,,,,1354.0,,,1.0,1.0,"2233 Fern St APT D, Honolulu, HI 96826",2233 Fern St APT D,Honolulu,HI,96826,21.289764,-157.82854,,False,,,,
89182583,FOR_RENT,House for rent,,2000.0,500.0,4.0,1330700.0,2661.0,1947.0,,,1.0,1.0,"(undisclosed Address), Honokaa, HI 96727",(undisclosed Address),Honokaa,HI,96727,,,,False,,,,
553688,FOR_RENT,House for rent,,2500.0,1612.0,2.0,621000.0,385.0,2566.0,,,4.0,2.0,"(undisclosed Address), Hilo, HI 96720",(undisclosed Address),Hilo,HI,96720,,,,False,,,,
619087,FOR_RENT,House for rent,,5500.0,2200.0,3.0,2101300.0,955.0,5724.0,,,3.0,2.0,"281 Poipu Dr, Honolulu, HI 96825",281 Poipu Dr,Honolulu,HI,96825,21.268623,-157.70598,,False,,,,
333449746,FOR_RENT,House for rent,,5000.0,1200.0,4.0,1115600.0,930.0,4005.0,,,2.0,2.0,"(undisclosed Address), Kapaa, HI 96746",(undisclosed Address),Kapaa,HI,96746,,,,False,,,,
2073625751,FOR_RENT,House for rent,,3600.0,700.0,5.0,1042700.0,1490.0,2709.0,,,1.0,1.0,"1011 Kupulau Dr, Kihei, HI 96753",1011 Kupulau Dr,Kihei,HI,96753,20.696852,-156.4232,,False,,,,
638440,FOR_RENT,House for rent,,4100.0,1208.0,3.0,1149300.0,951.0,3536.0,,,3.0,1.0,"44-727 Puamohala St, Kaneohe, HI 96744",44-727 Puamohala St,Kaneohe,HI,96744,21.41038,-157.7756,,False,,,,
456125661,FOR_RENT,House for rent,,3900.0,1100.0,4.0,,,,,,3.0,2.0,"34A Ai St, Makawao, HI 96768",34A Ai St,Makawao,HI,96768,20.852661,-156.31087,,False,,,,
655269,FOR_RENT,House for rent,,6000.0,720.0,8.0,2473500.0,3435.0,5206.0,,,2.0,1.0,"(undisclosed Address), Haleiwa, HI 96712",(undisclosed Address),Haleiwa,HI,96712,,,,False,,,,
320026492,FOR_RENT,House for rent,,4500.0,1424.0,3.0,1307300.0,918.0,3699.0,,,3.0,2.0,"64-5296 Haloa Rd, Kamuela, HI 96743",64-5296 Haloa Rd,Kamuela,HI,96743,20.033829,-155.64691,,False,,,,
2060558645,FOR_RENT,Apartment for rent,,5500.0,1900.0,3.0,,,4029.0,,,2.0,2.0,"(undisclosed Address), Kapaa, HI 96746",(undisclosed Address),Kapaa,HI,96746,,,,False,,,,
455824082,FOR_RENT,Apartment for rent,,2950.0,480.0,6.0,,,,,,1.0,1.0,"3306A Mapu Dr #A, Kihei, HI 96753",3306A Mapu Dr #A,Kihei,HI,96753,20.702332,-156.43149,,False,,,,
2059255902,FOR_RENT,Apartment for rent,,2000.0,450.0,4.0,,,2232.0,,,1.0,1.0,"68-036 Apuhihi St APT L, Waialua, HI 96791",68-036 Apuhihi St APT L,Waialua,HI,96791,21.583096,-158.13753,,False,,,,
629875,FOR_RENT,Townhouse for rent,,3550.0,1000.0,4.0,2626500.0,2627.0,3418.0,,,2.0,1.0,"(undisclosed Address), Kailua, HI 96734",(undisclosed Address),Kailua,HI,96734,,,,False,,,,
625131,FOR_RENT,House for rent,,2500.0,600.0,4.0,1981600.0,3303.0,6610.0,,,1.0,1.0,"1085 Kamehame Dr, Honolulu, HI 96825",1085 Kamehame Dr,Honolulu,HI,96825,21.296589,-157.6803,,False,,,,
80376381,FOR_RENT,Apartment for rent,,4000.0,1096.0,4.0,820200.0,748.0,3670.0,,,3.0,2.0,"60 Halili Ln APT 6L, Kihei, HI 96753",60 Halili Ln APT 6L,Kihei,HI,96753,20.764896,-156.45569,,False,,,,
82429981,FOR_RENT,Apartment for rent,,3300.0,931.0,4.0,586300.0,630.0,2844.0,,,2.0,2.0,"(undisclosed Address), Honolulu, HI 96816",(undisclosed Address),Honolulu,HI,96816,,,,False,,,,
71664347,FOR_RENT,Apartment for rent,,2500.0,665.0,4.0,405900.0,610.0,2342.0,,,1.0,1.0,"75-5669 Kuakini Hwy #5201, Kailua Kona, HI 96740",75-5669 Kuakini Hwy #5201,Kailua Kona,HI,96740,19.641973,-155.99312,,False,,,,
455673451,FOR_RENT,Apartment for rent,,2900.0,1495.0,2.0,,,,,,3.0,1.0,"(undisclosed Address), Makawao, HI 96768",(undisclosed Address),Makawao,HI,96768,,,,False,,,,
2073626368,FOR_RENT,House for rent,,1800.0,1226.0,1.0,481800.0,393.0,2099.0,,,3.0,1.0,"(undisclosed Address), Ninole, HI 96773",(undisclosed Address),Ninole,HI,96773,,,,False,,,,
455839310,FOR_RENT,Apartment for rent,,1790.0,725.0,2.0,,,,,,1.0,1.0,"1188 Kumukoa St #B, Hilo, HI 96720",1188 Kumukoa St #B,Hilo,HI,96720,19.705175,-155.08826,,False,,,,
611696,FOR_RENT,House for rent,,6500.0,1660.0,4.0,1852300.0,1116.0,5000.0,,,3.0,2.0,"4629 Kolohala St, Honolulu, HI 96816",4629 Kolohala St,Honolulu,HI,96816,21.265661,-157.78465,,False,,,,
747185,FOR_RENT,House for rent,,7000.0,2648.0,3.0,1685600.0,637.0,5423.0,,,4.0,3.0,"(undisclosed Address), Wailuku, HI 96793",(undisclosed Address),Wailuku,HI,96793,,,,False,,,,
618832,FOR_RENT,House for rent,,11900.0,2226.0,5.0,2423300.0,1089.0,7850.0,,,4.0,3.0,"456 Portlock Rd, Honolulu, HI 96825",456 Portlock Rd,Honolulu,HI,96825,21.270605,-157.70735,,False,,,,
449875502,FOR_RENT,Apartment for rent,,4350.0,1850.0,2.0,,,,,,3.0,2.0,"(undisclosed Address), Makawao, HI 96768",(undisclosed Address),Makawao,HI,96768,,,,False,,,,
740454,FOR_RENT,House for rent,,3700.0,1008.0,4.0,781100.0,775.0,3742.0,,,3.0,1.0,"(undisclosed Address), Paia, HI 96779",(undisclosed Address),Paia,HI,96779,,,,False,,,,
2064112006,FOR_RENT,Apartment for rent,,3990.0,,,,,3356.0,,,2.0,1.0,"(undisclosed Address), Kailua, HI 96734",(undisclosed Address),Kailua,HI,96734,,,,False,,,,
51610722,FOR_RENT,House for rent,,4900.0,1300.0,4.0,1014300.0,780.0,4557.0,,,2.0,2.0,"73-1184 Kahuna Ao Rd, Kailua Kona, HI 96740",73-1184 Kahuna Ao Rd,Kailua Kona,HI,96740,19.731337,-155.98277,,False,,,,
739343,FOR_RENT,Apartment for rent,,2750.0,600.0,5.0,952700.0,1588.0,2743.0,,,1.0,1.0,"592 Laie Dr, Makawao, HI 96768",592 Laie Dr,Makawao,HI,96768,20.843664,-156.32199,,False,,,,
2098507358,FOR_RENT,Apartment for rent,,4300.0,2200.0,2.0,,,4020.0,,,3.0,2.0,"73-4318 Keokeo St UNIT A, Kailua Kona, HI 96740",73-4318 Keokeo St UNIT A,Kailua Kona,HI,96740,19.719671,-155.9848,,False,,,,
138343458,FOR_RENT,House for rent,,2000.0,960.0,2.0,220000.0,229.0,1546.0,,,2.0,1.0,"92-1478 Princess Kaiulani Blvd, Ocean View, HI 96737",92-1478 Princess Kaiulani Blvd,Ocean View,HI,96737,19.087557,-155.77406,,False,,,,
740140,FOR_RENT,Townhouse for rent,,4750.0,1200.0,4.0,1086500.0,905.0,4542.0,,,3.0,2.0,"(undisclosed Address), Makawao, HI 96768",(undisclosed Address),Makawao,HI,96768,,,,False,,,,
734282,FOR_RENT,House for rent,,10500.0,3000.0,4.0,2159600.0,720.0,5690.0,,,3.0,4.0,"(undisclosed Address), Kihei, HI 96753",(undisclosed Address),Kihei,HI,96753,,,,False,,,,
443760809,FOR_RENT,Apartment for rent,,3900.0,1105.0,4.0,,,,,,2.0,2.0,"437 Hualani St #A1, Kailua, HI 96734",437 Hualani St #A1,Kailua,HI,96734,21.401663,-157.74768,,False,,,,
629829,FOR_RENT,House for rent,,7800.0,3200.0,2.0,2091000.0,653.0,7020.0,,,4.0,3.0,"(undisclosed Address), Kailua, HI 96734",(undisclosed Address),Kailua,HI,96734,,,,False,,,,
2056042202,FOR_RENT,House for rent,,2975.0,2100.0,1.0,842600.0,401.0,3241.0,,,3.0,3.0,"(undisclosed Address), Kurtistown, HI 96760",(undisclosed Address),Kurtistown,HI,96760,,,,False,,,,
571667,FOR_RENT,House for rent,,2800.0,1704.0,2.0,1017600.0,597.0,2261.0,,,1.0,1.0,"76-6320 Kaheiau St, Kailua Kona, HI 96740",76-6320 Kaheiau St,Kailua Kona,HI,96740,19.610321,-155.9689,,False,,,,
2145192834,FOR_RENT,Townhouse for rent,,4500.0,1662.0,3.0,1092200.0,657.0,4402.0,,,3.0,3.0,"7018 Hawaii Kai Dr UNIT 205, Honolulu, HI 96825",7018 Hawaii Kai Dr UNIT 205,Honolulu,HI,96825,21.287619,-157.70325,,False,,,,
138328141,FOR_RENT,House for rent,,3700.0,1318.0,3.0,939800.0,713.0,4211.0,,,3.0,2.0,"73-4160 Kaala Pl, Kailua Kona, HI 96740",73-4160 Kaala Pl,Kailua Kona,HI,96740,19.728714,-155.98064,,False,,,,
248425671,FOR_RENT,House for rent,,5500.0,1888.0,3.0,1499200.0,794.0,5100.0,,,3.0,3.0,"75-281 Puia Rd, Kailua Kona, HI 96740",75-281 Puia Rd,Kailua Kona,HI,96740,19.632399,-155.97093,,False,,,,
331710640,FOR_RENT,House for rent,,5200.0,1000.0,5.0,1070400.0,1070.0,4413.0,,,2.0,1.0,"692 Uluoa St, Kailua, HI 96734",692 Uluoa St,Kailua,HI,96734,21.384209,-157.75548,,False,,,,
566294,FOR_RENT,Apartment for rent,,5950.0,1968.0,3.0,2141200.0,1088.0,5806.0,,,5.0,5.0,"69-1679 Puako Beach Dr #B, Kamuela, HI 96743",69-1679 Puako Beach Dr #B,Kamuela,HI,96743,19.970858,-155.84164,,False,,,,
640550,FOR_RENT,Apartment for rent,,2200.0,650.0,3.0,,,2217.0,,,1.0,1.0,"(undisclosed Address), Kaneohe, HI 96744",(undisclosed Address),Kaneohe,HI,96744,,,,False,,,,
110562848,FOR_RENT,House for rent,,2300.0,1416.0,2.0,760900.0,537.0,3338.0,,,3.0,2.0,"87-1753 Mokila St, Waianae, HI 96792",87-1753 Mokila St,Waianae,HI,96792,21.409634,-158.16751,,False,,,,
72199440,FOR_RENT,Apartment for rent,,2700.0,996.0,3.0,463600.0,465.0,3092.0,,,3.0,2.0,"91-672 Kilaha St APT K4, Ewa Beach, HI 96706",91-672 Kilaha St APT K4,Ewa Beach,HI,96706,21.31428,-158.00543,,False,,,,
447642085,FOR_RENT,Apartment for rent,,3500.0,740.0,5.0,,,,,,2.0,1.0,"339 Manini Pl #A, Kihei, HI 96753",339 Manini Pl #A,Kihei,HI,96753,20.77979,-156.45105,,False,,,,
708158,FOR_RENT,House for rent,,3200.0,900.0,4.0,903700.0,1004.0,2710.0,,,2.0,1.0,"(undisclosed Address), Aiea, HI 96701",(undisclosed Address),Aiea,HI,96701,,,,False,,,,
249321140,FOR_RENT,Apartment for rent,,3500.0,1022.0,3.0,628600.0,615.0,3745.0,,,3.0,2.0,"56 Kihalani St UNIT 1203, Kihei, HI 96753",56 Kihalani St UNIT 1203,Kihei,HI,96753,20.78371,-156.45883,,False,,,,
605955,FOR_RENT,House for rent,,5500.0,1100.0,5.0,1233700.0,1122.0,4075.0,,,2.0,1.0,"1532 Anuhea Pl, Honolulu, HI 96816",1532 Anuhea Pl,Honolulu,HI,96816,21.286509,-157.79205,,False,,,,
443119929,FOR_RENT,Townhouse for rent,,3900.0,1285.0,3.0,703300.0,547.0,,,,3.0,3.0,"91-3525 Kauluakoko St #2106, Ewa Beach, HI 96706",91-3525 Kauluakoko St #2106,Ewa Beach,HI,96706,21.359467,-158.04585,,False,,,,
2146311909,FOR_RENT,Apartment for rent,,5000.0,1098.0,5.0,,,4431.0,,,3.0,2.0,"46 Polohina Ln APT 5, Lahaina, HI 96761",46 Polohina Ln APT 5,Lahaina,HI,96761,20.984566,-156.66989,,False,,,,
661211,FOR_RENT,House for rent,,2985.0,1880.0,2.0,1064000.0,566.0,1383.0,,,1.0,1.0,"(undisclosed Address), Wahiawa, HI 96786",(undisclosed Address),Wahiawa,HI,96786,,,,False,,,,
2067552110,FOR_RENT,Apartment for rent,,2900.0,1000.0,3.0,,,2912.0,,,2.0,1.0,"(undisclosed Address), Kihei, HI 96753",(undisclosed Address),Kihei,HI,96753,,,,False,,,,
628494,FOR_RENT,Apartment for rent,,2900.0,540.0,5.0,1753800.0,3248.0,2866.0,,,1.0,1.0,"(undisclosed Address), Kailua, HI 96734",(undisclosed Address),Kailua,HI,96734,,,,False,,,,
456127255,FOR_RENT,Townhouse for rent,,3495.0,1156.0,3.0,,,,,,3.0,3.0,"91-6560 Kapolei Pkwy, Ewa Beach, HI 96706",91-6560 Kapolei Pkwy,Ewa Beach,HI,96706,21.314396,-158.0201,,False,,,,
657247,FOR_RENT,Apartment for rent,,3250.0,928.0,4.0,687900.0,741.0,3472.0,,,1.0,1.0,"68-615 Farrington Hwy APT 20B, Waialua, HI 96791",68-615 Farrington Hwy APT 20B,Waialua,HI,96791,21.580416,-158.17474,,False,,,,
751946,FOR_RENT,House for rent,,3400.0,1100.0,3.0,1189100.0,1081.0,4054.0,,,3.0,2.0,"410 Kaiwahine St, Kihei, HI 96753",410 Kaiwahine St,Kihei,HI,96753,20.780096,-156.45105,,False,,,,
692623,FOR_RENT,House for rent,,3250.0,1348.0,2.0,344000.0,255.0,3711.0,,,3.0,1.0,"94-792 Kime St, Waipahu, HI 96797",94-792 Kime St,Waipahu,HI,96797,21.394129,-158.02193,,False,,,,
51610776,FOR_RENT,Apartment for rent,,2500.0,729.0,3.0,467400.0,641.0,2690.0,,,2.0,2.0,"75-6081 Alii Dr #203, Kailua Kona, HI 96740",75-6081 Alii Dr #203,Kailua Kona,HI,96740,19.616854,-155.98283,,False,,,,
622159,FOR_RENT,House for rent,,7995.0,2003.0,4.0,2569900.0,1283.0,6295.0,,,4.0,3.0,"6847 Niumalu Loop, Honolulu, HI 96825",6847 Niumalu Loop,Honolulu,HI,96825,21.299612,-157.69429,,False,,,,
456207777,FOR_RENT,House for rent,,5800.0,1450.0,4.0,,,,,,2.0,2.0,"156B N Kalaheo Ave, Kailua, HI 96734",156B N Kalaheo Ave,Kailua,HI,96734,21.402348,-157.73917,,False,,,,
713484,FOR_RENT,Apartment for rent,,2500.0,1125.0,2.0,,,2877.0,,,2.0,1.0,"Mukai Ohana One, 99-519 Mikioi Pl, Aiea, HI 96701",99-519 Mikioi Pl,Aiea,HI,96701,21.383947,-157.91446,,False,,,,
350350607,FOR_RENT,Apartment for rent,,1850.0,607.0,3.0,,,1948.0,,,1.0,1.0,"95-065 Waikalani Dr APT F203, Mililani, HI 96789",95-065 Waikalani Dr APT F203,Mililani,HI,96789,21.463764,-158.0218,,False,,,,
2071765371,FOR_RENT,Apartment for rent,,1700.0,650.0,3.0,,,2175.0,,,1.0,1.0,"5493 Makaloa Street, 5493 Makaloa St #2, Kapaa, HI 96746",5493 Makaloa St #2,Kapaa,HI,96746,22.095013,-159.33073,,False,,,,
370643414,FOR_RENT,House for rent,,4650.0,1508.0,3.0,1176700.0,780.0,4598.0,,,3.0,2.0,"204 Ka Ikena St, Wailuku, HI 96793",204 Ka Ikena St,Wailuku,HI,96793,20.879673,-156.51288,,False,,,,
456206357,FOR_RENT,Apartment for rent,,4000.0,600.0,7.0,,,,,,2.0,1.0,"413A Kihapai St #A, Kailua, HI 96734",413A Kihapai St #A,Kailua,HI,96734,21.402254,-157.75285,,False,,,,
669743,FOR_RENT,House for rent,,4200.0,2176.0,2.0,878700.0,404.0,3923.0,,,4.0,2.0,"91-222 Ewa Beach Rd, Ewa Beach, HI 96706",91-222 Ewa Beach Rd,Ewa Beach,HI,96706,21.3135,-157.99663,,False,,,,
455594023,FOR_RENT,Apartment for rent,,4000.0,1200.0,3.0,,,,,,3.0,2.0,"3824 Harding Avenue, 3824 Harding Ave #UP, Honolulu, HI 96816",3824 Harding Ave #UP,Honolulu,HI,96816,21.278946,-157.79527,,False,,,,
2077758646,FOR_RENT,Apartment for rent,,2000.0,815.0,2.0,,,2387.0,,,2.0,1.0,"84-688 Ala Mahiku, Waianae, HI 96792",84-688 Ala Mahiku,Waianae,HI,96792,21.481068,-158.2033,,False,,,,
82496073,FOR_RENT,House for rent,,5000.0,1860.0,3.0,829700.0,446.0,4548.0,,,5.0,3.0,"87-1060 Anaha St, Waianae, HI 96792",87-1060 Anaha St,Waianae,HI,96792,21.403875,-158.16133,,False,,,,
333517782,FOR_RENT,Townhouse for rent,,2650.0,400.0,7.0,810300.0,2026.0,4219.0,,,1.0,1.0,"91-3475 Nana Hope St #204, Ewa Beach, HI 96706",91-3475 Nana Hope St #204,Ewa Beach,HI,96706,21.35599,-158.04752,,False,,,,
455325913,FOR_RENT,Apartment for rent,,2700.0,588.0,5.0,787600.0,1339.0,,,,1.0,1.0,"125 Oliona St UNIT A, Makawao, HI 96768",125 Oliona St UNIT A,Makawao,HI,96768,20.87064,-156.34375,,False,,,,
450486749,FOR_RENT,Apartment for rent,,3250.0,1000.0,3.0,,,,,,2.0,1.0,"3911 Lepo St #B, Haiku, HI 96708",3911 Lepo St #B,Haiku,HI,96708,20.902945,-156.29283,,False,,,,
2097948206,FOR_RENT,House for rent,,7000.0,1865.0,4.0,1791100.0,960.0,6371.0,,,3.0,3.0,"92-1015 Koio Dr, Kapolei, HI 96707",92-1015 Koio Dr,Kapolei,HI,96707,21.343029,-158.11781,,False,,,,
72194042,FOR_RENT,House for rent,,3200.0,1203.0,3.0,604600.0,503.0,3155.0,,,3.0,2.0,"92-960 Makakilo Dr APT 58, Kapolei, HI 96707",92-960 Makakilo Dr APT 58,Kapolei,HI,96707,21.357618,-158.08675,,False,,,,
80368719,FOR_RENT,House for rent,,4500.0,1514.0,3.0,1129400.0,746.0,4398.0,,,2.0,1.0,"180 Mokupapa Rd, Haiku, HI 96708",180 Mokupapa Rd,Haiku,HI,96708,20.9098,-156.23079,,False,,,,
446283568,FOR_RENT,House for rent,,4800.0,2750.0,2.0,1363200.0,496.0,,,,4.0,2.0,"99-1017 Kahua Pl #A, Aiea, HI 96701",99-1017 Kahua Pl #A,Aiea,HI,96701,21.39097,-157.91568,,False,,,,
657144,FOR_RENT,House for rent,,15000.0,,,,,6632.0,,,4.0,3.0,"68-421 Crozier Dr, Waialua, HI 96791",68-421 Crozier Dr,Waialua,HI,96791,21.58087,-158.14906,,False,,,,
88811328,FOR_RENT,House for rent,,3000.0,632.0,5.0,395400.0,626.0,2310.0,,,2.0,1.0,"1402 Piikoi St APT 202, Honolulu, HI 96822",1402 Piikoi St APT 202,Honolulu,HI,96822,21.303867,-157.84232,,False,,,,
759743,FOR_RENT,House for rent,,3600.0,1716.0,2.0,1023400.0,596.0,4062.0,,,3.0,1.0,"877 Laalo St, Lahaina, HI 96761",877 Laalo St,Lahaina,HI,96761,20.887161,-156.66562,,False,,,,
2061904824,FOR_RENT,House for rent,,3800.0,1100.0,3.0,996000.0,905.0,4996.0,,,3.0,2.0,"(undisclosed Address), Hauula, HI 96717",(undisclosed Address),Hauula,HI,96717,,,,False,,,,
753777,FOR_RENT,House for rent,,4600.0,1650.0,3.0,1455700.0,882.0,3130.0,,,5.0,2.0,"187 Kamakoi Loop, Kihei, HI 96753",187 Kamakoi Loop,Kihei,HI,96753,20.715097,-156.44035,,False,,,,
2069621709,FOR_RENT,Townhouse for rent,,3195.0,1274.0,3.0,649400.0,510.0,3249.0,,,3.0,2.0,"94-510 Lumiaina St #101E, Waipahu, HI 96797",94-510 Lumiaina St #101E,Waipahu,HI,96797,21.393614,-158.01593,,False,,,,
456177176,FOR_RENT,House for rent,,4500.0,920.0,5.0,,,,,,2.0,2.0,"672 Mililani Pl, Kihei, HI 96753",672 Mililani Pl,Kihei,HI,96753,20.701529,-156.42818,,False,,,,
757136,FOR_RENT,House for rent,,11000.0,3860.0,3.0,2457100.0,637.0,5798.0,,,4.0,5.0,"14 Aekai Pl, Lahaina, HI 96761",14 Aekai Pl,Lahaina,HI,96761,20.965202,-156.68161,,False,,,,
68016773,FOR_RENT,House for rent,,4700.0,2042.0,2.0,1096900.0,537.0,4562.0,,,4.0,3.0,"91-1021 Kaiapele St, Ewa Beach, HI 96706",91-1021 Kaiapele St,Ewa Beach,HI,96706,21.315071,-158.02344,,False,,,,
455197762,FOR_RENT,Apartment for rent,,3500.0,736.0,5.0,,,,,,1.0,1.0,"75-6082 Alii Dr #229, Kailua Kona, HI 96740",75-6082 Alii Dr #229,Kailua Kona,HI,96740,19.616354,-155.98352,,False,,,,
55578704,FOR_RENT,House for rent,,45000.0,6411.0,7.0,4210000.0,657.0,5511.0,,,5.0,5.0,"3473 Paty Dr #243A, Honolulu, HI 96822",3473 Paty Dr #243A,Honolulu,HI,96822,21.314512,-157.79523,,False,,,,
754571,FOR_RENT,House for rent,,4000.0,1040.0,4.0,1170500.0,1125.0,3427.0,,,3.0,1.0,"339 Manini Pl, Kihei, HI 96753",339 Manini Pl,Kihei,HI,96753,20.779793,-156.45105,,False,,,,
72097890,FOR_RENT,House for rent,,2850.0,708.0,4.0,490200.0,692.0,2308.0,,,2.0,1.0,"94-1390 Kulewa Loop #42D, Waipahu, HI 96797",94-1390 Kulewa Loop #42D,Waipahu,HI,96797,21.419159,-158.00027,,False,,,,
117439578,FOR_RENT,House for rent,,4700.0,1922.0,2.0,1153600.0,600.0,4588.0,,,4.0,3.0,"91-1163 Waipuhia St, Ewa Beach, HI 96706",91-1163 Waipuhia St,Ewa Beach,HI,96706,21.315641,-158.0371,,False,,,,
82506931,FOR_RENT,Apartment for rent,,3500.0,928.0,4.0,570500.0,615.0,3475.0,,,2.0,2.0,"1717 Ala Wai Blvd APT 502, Honolulu, HI 96815",1717 Ala Wai Blvd APT 502,Honolulu,HI,96815,21.287943,-157.83548,,False,,,,
455254057,FOR_RENT,House for rent,,5200.0,1715.0,3.0,1247200.0,727.0,,,,4.0,3.0,"125 Oliona St, Makawao, HI 96768",125 Oliona St,Makawao,HI,96768,20.870613,-156.3436,,False,,,,
72190653,FOR_RENT,Townhouse for rent,,2700.0,1100.0,2.0,307800.0,280.0,2867.0,,,3.0,2.0,"87-1550 Farrington Hwy APT C1, Waianae, HI 96792",87-1550 Farrington Hwy APT C1,Waianae,HI,96792,21.396961,-158.16144,,False,,,,
651798,FOR_RENT,House for rent,,8900.0,1746.0,5.0,1302400.0,746.0,5744.0,,,3.0,3.0,"53-829 Kamehameha Hwy, Hauula, HI 96717",53-829 Kamehameha Hwy,Hauula,HI,96717,21.601479,-157.89783,,False,,,,
82436033,FOR_RENT,Apartment for rent,,1700.0,523.0,3.0,342400.0,655.0,2039.0,,,1.0,1.0,"112 S School St APT 409, Honolulu, HI 96813",112 S School St APT 409,Honolulu,HI,96813,21.314508,-157.85355,,False,,,,
456127001,FOR_RENT,Townhouse for rent,,4600.0,1400.0,3.0,,,,,,3.0,2.0,"84 Honuea Pl #1, Kihei, HI 96753",84 Honuea Pl #1,Kihei,HI,96753,20.778734,-156.45724,,False,,,,
2077034586,FOR_RENT,Townhouse for rent,,3800.0,1408.0,3.0,810100.0,575.0,3169.0,,,3.0,3.0,"95-110 Moenamanu St APT 441, Mililani, HI 96789",95-110 Moenamanu St APT 441,Mililani,HI,96789,21.46061,-158.01373,,False,,,,
636032,FOR_RENT,House for rent,,3000.0,800.0,4.0,1284800.0,1606.0,3312.0,,,2.0,1.0,"357A Kawainui St, Kailua, HI 96734",357A Kawainui St,Kailua,HI,96734,21.397543,-157.7436,,False,,,,
80326904,FOR_RENT,Apartment for rent,,2600.0,586.0,4.0,395400.0,675.0,2700.0,,,1.0,1.0,"30 Hauoli St APT 303, Wailuku, HI 96793",30 Hauoli St APT 303,Wailuku,HI,96793,20.792751,-156.51012,,False,,,,
616022,FOR_RENT,House for rent,,7500.0,2300.0,3.0,1783100.0,775.0,6234.0,,,4.0,2.0,"804 Kainoa Pl, Honolulu, HI 96821",804 Kainoa Pl,Honolulu,HI,96821,21.294363,-157.75401,,False,,,,
456073695,FOR_RENT,House for rent,,2400.0,710.0,3.0,,,,,,1.0,1.0,"1911 Kalanianaole Ave #PENTHOUSE 3, Hilo, HI 96720",1911 Kalanianaole Ave #PENTHOUSE 3,Hilo,HI,96720,19.73231,-155.0254,,False,,,,
452947705,FOR_RENT,Apartment for rent,,4000.0,1000.0,4.0,,,,,,1.0,1.0,"58-298 Kamehameha Hwy #3, Haleiwa, HI 96712",58-298 Kamehameha Hwy #3,Haleiwa,HI,96712,21.68135,-158.03175,,False,,,,
601782,FOR_RENT,Apartment for rent,,3700.0,1000.0,4.0,1267100.0,1267.0,3629.0,,,3.0,1.0,"1016 8th Ave, Honolulu, HI 96816",1016 8th Ave,Honolulu,HI,96816,21.282345,-157.80524,,False,,,,
250163358,FOR_RENT,House for rent,,5200.0,1735.0,3.0,1208700.0,697.0,4482.0,,,3.0,2.0,"184 Kuena Ln, Kahului, HI 96732",184 Kuena Ln,Kahului,HI,96732,20.86866,-156.4892,,False,,,,
72206349,FOR_RENT,House for rent,,3700.0,1461.0,3.0,766100.0,524.0,3323.0,,,3.0,3.0,"92-1121 Panana St APT 206, Kapolei, HI 96707",92-1121 Panana St APT 206,Kapolei,HI,96707,21.355713,-158.08644,,False,,,,
2064277783,FOR_RENT,Apartment for rent,,3200.0,840.0,4.0,,,2616.0,,,2.0,1.0,"68090 Au St #302, Waialua, HI 96791",68090 Au St #302,Waialua,HI,96791,21.582018,-158.1366,,False,,,,
576101,FOR_RENT,House for rent,,1250.0,977.0,1.0,194400.0,199.0,1868.0,,,2.0,1.0,"(undisclosed Address), Naalehu, HI 96772",(undisclosed Address),Naalehu,HI,96772,,,,False,,,,
347214311,FOR_RENT,Apartment for rent,,2750.0,600.0,5.0,,,2383.0,,,1.0,1.0,"45-124 Ka Hanahou Cir #1, Kaneohe, HI 96744",45-124 Ka Hanahou Cir #1,Kaneohe,HI,96744,21.423334,-157.78973,,False,,,,
250258702,FOR_RENT,Apartment for rent,,2700.0,673.0,4.0,472400.0,702.0,2869.0,,,2.0,1.0,"101 Maluniu Ave APT 301, Kailua, HI 96734",101 Maluniu Ave APT 301,Kailua,HI,96734,21.397339,-157.74179,,False,,,,
138331184,FOR_RENT,House for rent,,4995.0,2252.0,2.0,1391200.0,618.0,4258.0,,,3.0,2.0,"75-5486 Keke St, Holualoa, HI 96725",75-5486 Keke St,Holualoa,HI,96725,19.65059,-155.94345,,False,,,,
670207,FOR_RENT,House for rent,,3950.0,600.0,7.0,912300.0,1521.0,3393.0,,,2.0,1.0,"91-440A Pupu St, Ewa Beach, HI 96706",91-440A Pupu St,Ewa Beach,HI,96706,21.307245,-158.02095,,False,,,,
446808351,FOR_RENT,Apartment for rent,,3750.0,1800.0,2.0,,,,,,3.0,2.0,"(undisclosed Address), Kaneohe, HI 96744",(undisclosed Address),Kaneohe,HI,96744,,,,False,,,,
82521926,FOR_RENT,Apartment for rent,,3500.0,800.0,4.0,606000.0,758.0,3473.0,,,2.0,2.0,"35 Katie Ln APT 717, Lahaina, HI 96761",35 Katie Ln APT 717,Lahaina,HI,96761,20.970493,-156.67587,,False,,,,
711670,FOR_RENT,House for rent,,6400.0,4272.0,1.0,1617400.0,379.0,3600.0,,,5.0,3.0,"98-656 Kuini St, Aiea, HI 96701",98-656 Kuini St,Aiea,HI,96701,21.399534,-157.93906,,False,,,,
654657,FOR_RENT,House for rent,,7000.0,3300.0,2.0,4841300.0,1467.0,7379.0,,,4.0,3.0,"(undisclosed Address), Haleiwa, HI 96712",(undisclosed Address),Haleiwa,HI,96712,,,,False,,,,
633552,FOR_RENT,House for rent,,13500.0,1244.0,11.0,1802800.0,1449.0,4145.0,,,2.0,2.0,"1129 Koohoo Pl, Kailua, HI 96734",1129 Koohoo Pl,Kailua,HI,96734,21.386555,-157.71584,,False,,,,
443350347,FOR_RENT,Apartment for rent,,3997.0,750.0,5.0,,,,,,2.0,2.0,"91-529 Pupu St #2, Ewa Beach, HI 96706",91-529 Pupu St #2,Ewa Beach,HI,96706,21.307377,-158.01816,,False,,,,
349022869,FOR_RENT,House for rent,,6800.0,1200.0,6.0,1410200.0,1175.0,3016.0,,,2.0,1.0,"(undisclosed Address), Kailua, HI 96734",(undisclosed Address),Kailua,HI,96734,,,,False,,,,
454121088,FOR_RENT,Apartment for rent,,4800.0,1861.0,3.0,,,,,,3.0,2.0,"77-6429 Kilohana St #A, Kailua Kona, HI 96740",77-6429 Kilohana St #A,Kailua Kona,HI,96740,19.60815,-155.95833,,False,,,,
456096039,FOR_RENT,House for rent,,2300.0,,,,,,,,3.0,1.0,"66-203 Kaamooloa Rd, Waialua, HI 96791",66-203 Kaamooloa Rd,Waialua,HI,96791,21.574186,-158.11288,,False,,,,
655893,FOR_RENT,House for rent,,6900.0,1032.0,7.0,1644400.0,1593.0,4087.0,,,2.0,2.0,"66-319 Pikai St, Haleiwa, HI 96712",66-319 Pikai St,Haleiwa,HI,96712,21.588839,-158.11263,,False,,,,
2071701532,FOR_RENT,House for rent,,2800.0,850.0,3.0,693400.0,816.0,2657.0,,,1.0,1.0,"99-826A Puawa Pl, Aiea, HI 96701",99-826A Puawa Pl,Aiea,HI,96701,21.378601,-157.9116,,False,,,,
379925392,FOR_RENT,Apartment for rent,,1800.0,,,,,1095.0,,,1.0,1.0,"2414, 2620 Date St APT 6, Honolulu, HI 96826",2620 Date St APT 6,Honolulu,HI,96826,21.285671,-157.82117,,False,,,,
669951,FOR_RENT,House for rent,,6500.0,2710.0,2.0,1842700.0,680.0,6760.0,,,4.0,5.0,"91-609 Pupu St, Ewa Beach, HI 96706",91-609 Pupu St,Ewa Beach,HI,96706,21.307737,-158.01595,,False,,,,
569655,FOR_RENT,Apartment for rent,,5000.0,1200.0,4.0,923400.0,770.0,4053.0,,,2.0,2.0,"75-5865 Walua Rd APT B508, Kailua Kona, HI 96740",75-5865 Walua Rd APT B508,Kailua Kona,HI,96740,19.63124,-155.98746,,False,,,,
2053075698,FOR_RENT,Apartment for rent,,2875.0,1200.0,2.0,,,2602.0,,,2.0,1.0,"4848 Alii Rd #C, Hanapepe, HI 96716",4848 Alii Rd #C,Hanapepe,HI,96716,21.916473,-159.5874,,False,,,,
455366226,FOR_RENT,Apartment for rent,,2800.0,750.0,4.0,,,,,,1.0,1.0,"(undisclosed Address), Honolulu, HI 96825",(undisclosed Address),Honolulu,HI,96825,,,,False,,,,
692819,FOR_RENT,House for rent,,3400.0,1186.0,3.0,872900.0,736.0,3593.0,,,3.0,2.0,"94-422 Kuahui St, Waipahu, HI 96797",94-422 Kuahui St,Waipahu,HI,96797,21.396383,-158.02328,,False,,,,
82515486,FOR_RENT,Apartment for rent,,2700.0,650.0,4.0,370600.0,570.0,2174.0,,,1.0,1.0,"2328 Sea View Ave #407, Honolulu, HI 96822",2328 Sea View Ave #407,Honolulu,HI,96822,21.300325,-157.82187,,False,,,,
72199419,FOR_RENT,Apartment for rent,,4050.0,1135.0,4.0,760800.0,670.0,3448.0,,,3.0,3.0,"91-1013 Kaipalaoa St APT 5403, Ewa Beach, HI 96706",91-1013 Kaipalaoa St APT 5403,Ewa Beach,HI,96706,21.32173,-158.02109,,False,,,,
615360,FOR_RENT,House for rent,,5300.0,1570.0,3.0,1376900.0,877.0,4012.0,,,3.0,2.0,"469 Lawelawe St, Honolulu, HI 96821",469 Lawelawe St,Honolulu,HI,96821,21.28521,-157.75102,,False,,,,
455921377,FOR_RENT,Townhouse for rent,,3750.0,1196.0,3.0,717800.0,600.0,,,,3.0,3.0,"91-2113 Kaioli St, Ewa Beach, HI 96706",91-2113 Kaioli St,Ewa Beach,HI,96706,21.320713,-158.02649,,False,,,,
72216656,FOR_RENT,House for rent,,2250.0,608.0,4.0,380300.0,625.0,2074.0,,,1.0,1.0,"98-410 Koauka Loop APT 2G, Aiea, HI 96701",98-410 Koauka Loop APT 2G,Aiea,HI,96701,21.386272,-157.937,,False,,,,
753346,FOR_RENT,House for rent,,3995.0,1750.0,2.0,1151900.0,658.0,4148.0,,,3.0,2.0,"15 Ohukai Rd, Kihei, HI 96753",15 Ohukai Rd,Kihei,HI,96753,20.775158,-156.45984,,False,,,,
339910864,FOR_RENT,House for rent,,2050.0,650.0,3.0,264700.0,407.0,2004.0,,,1.0,1.0,"835515 Nanalahoa Hwy, Captain Cook, HI 96704",835515 Nanalahoa Hwy,Captain Cook,HI,96704,19.28065,-155.80826,,False,,,,
2137635554,FOR_RENT,Apartment for rent,,6000.0,777.0,8.0,,,4841.0,,,1.0,1.0,"4365 Lower Honoapiilani Rd, Lahaina, HI 96761",4365 Lower Honoapiilani Rd,Lahaina,HI,96761,20.971983,-156.67932,,False,,,,
594178,FOR_RENT,House for rent,,3000.0,750.0,4.0,1367500.0,1823.0,3205.0,,,3.0,1.0,"(undisclosed Address), Honolulu, HI 96822",(undisclosed Address),Honolulu,HI,96822,,,,False,,,,
655921,FOR_RENT,House for rent,,6200.0,2166.0,3.0,1857500.0,858.0,6704.0,,,4.0,4.0,"66-365 Haleiwa Rd, Haleiwa, HI 96712",66-365 Haleiwa Rd,Haleiwa,HI,96712,21.587952,-158.1116,,False,,,,
2058215553,FOR_RENT,Apartment for rent,,2000.0,400.0,5.0,,,1643.0,,,1.0,1.0,"(undisclosed Address), Kapaa, HI 96746",(undisclosed Address),Kapaa,HI,96746,,,,False,,,,
452774943,FOR_RENT,Apartment for rent,,4500.0,1300.0,3.0,,,,,,3.0,2.0,"27 Haliu St #5, Lahaina, HI 96761",27 Haliu St #5,Lahaina,HI,96761,20.962803,-156.68234,,False,,,,
739512,FOR_RENT,House for rent,,3600.0,850.0,4.0,952200.0,1120.0,3476.0,,,3.0,1.0,"1091 Puana St, Makawao, HI 96768",1091 Puana St,Makawao,HI,96768,20.85482,-156.31378,,False,,,,
82493761,FOR_RENT,House for rent,,2000.0,538.0,4.0,324100.0,602.0,1871.0,,,1.0,1.0,"1535 Pensacola St APT 806, Honolulu, HI 96822",1535 Pensacola St APT 806,Honolulu,HI,96822,21.306244,-157.84204,,False,,,,
2077193778,FOR_RENT,Apartment for rent,,5750.0,1150.0,5.0,,,5300.0,,,2.0,3.0,"92-1502 Aliinui Dr, Kapolei, HI 96707",92-1502 Aliinui Dr,Kapolei,HI,96707,21.33752,-158.11218,,False,,,,
2084437582,FOR_RENT,Apartment for rent,,2200.0,707.0,3.0,,,2540.0,,,2.0,1.0,"46-261 Kahuhipa St APT A310, Kaneohe, HI 96744",46-261 Kahuhipa St APT A310,Kaneohe,HI,96744,21.414074,-157.80922,,False,,,,
82428215,FOR_RENT,House for rent,,2295.0,,,954000.0,,1991.0,,,2.0,1.0,"809 Makaleka Ave, Honolulu, HI 96816",809 Makaleka Ave,Honolulu,HI,96816,21.282408,-157.81436,,False,,,,
694372,FOR_RENT,House for rent,,4200.0,1608.0,3.0,1031600.0,642.0,3982.0,,,3.0,3.0,"94-1102 Kapehu St, Waipahu, HI 96797",94-1102 Kapehu St,Waipahu,HI,96797,21.40388,-158.03427,,False,,,,
2057875397,FOR_RENT,Apartment for rent,,3250.0,800.0,4.0,,,2719.0,,,2.0,1.0,"395A Eggerking Rd #A, Kapaa, HI 96746",395A Eggerking Rd #A,Kapaa,HI,96746,22.058918,-159.33969,,False,,,,
304655991,FOR_RENT,House for rent,,25000.0,3555.0,7.0,6038000.0,1698.0,18458.0,,,5.0,5.0,"2600 Aina Mahiai St, Lahaina, HI 96761",2600 Aina Mahiai St,Lahaina,HI,96761,20.939629,-156.67107,,False,,,,
654983,FOR_RENT,House for rent,,3000.0,,,,,1747.0,,,1.0,1.0,"(undisclosed Address), Haleiwa, HI 96712",(undisclosed Address),Haleiwa,HI,96712,,,,False,,,,
453156756,FOR_RENT,Apartment for rent,,1750.0,600.0,3.0,,,,,,1.0,1.0,"2921 Varsity Cir #H, Honolulu, HI 96826",2921 Varsity Cir #H,Honolulu,HI,96826,21.291706,-157.81769,,False,,,,
72192107,FOR_RENT,Apartment for rent,,2350.0,977.0,2.0,467100.0,478.0,2442.0,,,2.0,1.0,"98-923 Iho Pl #120, Aiea, HI 96701",98-923 Iho Pl #120,Aiea,HI,96701,21.394722,-157.926,,False,,,,
638132,FOR_RENT,House for rent,,9500.0,3700.0,3.0,1899900.0,513.0,7395.0,,,4.0,2.0,"44-051 Kaimalu Pl, Kaneohe, HI 96744",44-051 Kaimalu Pl,Kaneohe,HI,96744,21.410978,-157.77203,,False,,,,
72199729,FOR_RENT,Apartment for rent,,5700.0,1350.0,4.0,968800.0,718.0,4630.0,,,3.0,3.0,"92-1519 Aliinui Dr SUITE 12G, Kapolei, HI 96707",92-1519 Aliinui Dr SUITE 12G,Kapolei,HI,96707,21.336025,-158.10883,,False,,,,
243261277,FOR_RENT,Apartment for rent,,2995.0,1015.0,3.0,,,2151.0,,,2.0,2.0,"(undisclosed Address), Kihei, HI 96753",(undisclosed Address),Kihei,HI,96753,,,,False,,,,
454983638,FOR_RENT,Apartment for rent,,3500.0,1031.0,3.0,,,,,,3.0,2.0,"(undisclosed Address), Kaneohe, HI 96744",(undisclosed Address),Kaneohe,HI,96744,,,,False,,,,
82484929,FOR_RENT,House for rent,,4500.0,1168.0,4.0,1044600.0,894.0,4136.0,,,4.0,2.0,"807 Kaaloa St, Honolulu, HI 96826",807 Kaaloa St,Honolulu,HI,96826,21.289038,-157.82266,,False,,,,
421428050,FOR_RENT,House for rent,,5500.0,2014.0,3.0,936100.0,465.0,,,,3.0,2.0,"(undisclosed Address), Wahiawa, HI 96786",(undisclosed Address),Wahiawa,HI,96786,,,,False,,,,
125722886,FOR_RENT,Apartment for rent,,4995.0,900.0,6.0,1017400.0,1130.0,3622.0,,,2.0,1.0,"410A Ulupaina St #1, Kailua, HI 96734",410A Ulupaina St #1,Kailua,HI,96734,21.400394,-157.74713,,False,,,,
138288066,FOR_RENT,House for rent,,3000.0,1628.0,2.0,441300.0,271.0,3027.0,,,3.0,2.0,"15-1807 14th Ave, Keaau, HI 96749",15-1807 14th Ave,Keaau,HI,96749,19.582329,-154.96143,,False,,,,
82461884,FOR_RENT,Apartment for rent,,3200.0,,,559000.0,,3575.0,,,2.0,2.0,"2533 Ala Wai Blvd APT 401, Honolulu, HI 96815",2533 Ala Wai Blvd APT 401,Honolulu,HI,96815,21.276068,-157.81982,,False,,,,
2107543910,FOR_RENT,Apartment for rent,,2200.0,,,,,2184.0,,,3.0,1.0,"Farr 776 Sheen, 84-776 Farrington Hwy #A, Waianae, HI 96792",84-776 Farrington Hwy #A,Waianae,HI,96792,21.468292,-158.2141,,False,,,,
711257,FOR_RENT,House for rent,,3800.0,1880.0,2.0,1188400.0,632.0,3829.0,,,3.0,2.0,"98-1963 Wilou St, Aiea, HI 96701",98-1963 Wilou St,Aiea,HI,96701,21.408348,-157.93759,,False,,,,
634141,FOR_RENT,House for rent,,2400.0,500.0,5.0,1880600.0,3761.0,3700.0,,,1.0,1.0,"156 N Kalaheo Ave APT C, Kailua, HI 96734",156 N Kalaheo Ave APT C,Kailua,HI,96734,21.402422,-157.73877,,False,,,,
2125913253,FOR_RENT,House for rent,,10500.0,2248.0,5.0,2899000.0,1290.0,7357.0,,,5.0,3.0,"61-313 Kamehameha Hwy, Haleiwa, HI 96712",61-313 Kamehameha Hwy,Haleiwa,HI,96712,21.624643,-158.07726,,False,,,,
677168,FOR_RENT,House for rent,,4000.0,1512.0,3.0,895800.0,592.0,4392.0,,,4.0,3.0,"91-507 Maohaka Pl, Ewa Beach, HI 96706",91-507 Maohaka Pl,Ewa Beach,HI,96706,21.335323,-158.03412,,False,,,,
72197054,FOR_RENT,Townhouse for rent,,2500.0,762.0,3.0,495000.0,650.0,2311.0,,,2.0,1.0,"94-406 Keaoopua St APT 48A, Mililani, HI 96789",94-406 Keaoopua St APT 48A,Mililani,HI,96789,21.43773,-158.02066,,False,,,,
304660151,FOR_RENT,House for rent,,9750.0,4500.0,2.0,3191700.0,709.0,8312.0,,,6.0,5.0,"3360 Kuaua Pl, Kihei, HI 96753",3360 Kuaua Pl,Kihei,HI,96753,20.698181,-156.42796,,False,,,,
147824124,FOR_RENT,Apartment for rent,,5180.0,1486.0,3.0,1115900.0,751.0,4693.0,,,3.0,3.0,"25 One Hali Ln UNIT 9103, Kihei, HI 96753",25 One Hali Ln UNIT 9103,Kihei,HI,96753,20.746756,-156.45424,,False,,,,
741325,FOR_RENT,House for rent,,2700.0,900.0,3.0,877200.0,975.0,3341.0,,,2.0,1.0,"(undisclosed Address), Haiku, HI 96708",(undisclosed Address),Haiku,HI,96708,,,,False,,,,
453014841,FOR_RENT,Townhouse for rent,,3200.0,678.0,5.0,581600.0,858.0,,,,1.0,1.0,"2140 Kuhio Ave #PENTHOUSE 2506, Honolulu, HI 96815",2140 Kuhio Ave #PENTHOUSE 2506,Honolulu,HI,96815,21.28252,-157.8292,,False,,,,
2096714931,FOR_RENT,Apartment for rent,,1575.0,485.0,3.0,,,1562.0,,,1.0,1.0,"824 University Ave APT 7, Honolulu, HI 96826",824 University Ave APT 7,Honolulu,HI,96826,21.290472,-157.82355,,False,,,,
752893,FOR_RENT,House for rent,,6000.0,1100.0,5.0,1146500.0,1042.0,4276.0,,,3.0,2.0,"52 Alahele Pl, Kihei, HI 96753",52 Alahele Pl,Kihei,HI,96753,20.731419,-156.45027,,False,,,,
68131421,FOR_RENT,House for rent,,1800.0,,,1522500.0,,2286.0,,,1.0,1.0,"518 Kaha St, Kailua, HI 96734",518 Kaha St,Kailua,HI,96734,21.407482,-157.7529,,False,,,,
82520815,FOR_RENT,House for rent,,6900.0,2700.0,3.0,2555700.0,947.0,6215.0,,,4.0,4.0,"(undisclosed Address), Haiku, HI 96708",(undisclosed Address),Haiku,HI,96708,,,,False,,,,
72186601,FOR_RENT,Townhouse for rent,,2350.0,,,698600.0,,3055.0,,,2.0,2.0,"(undisclosed Address), Waipahu, HI 96797",(undisclosed Address),Waipahu,HI,96797,,,,False,,,,
82496837,FOR_RENT,Apartment for rent,,3000.0,807.0,4.0,416100.0,516.0,2696.0,,,2.0,2.0,"1621 Dole St APT 208, Honolulu, HI 96822",1621 Dole St APT 208,Honolulu,HI,96822,21.30118,-157.83287,,False,,,,
566878,FOR_RENT,Apartment for rent,,2000.0,650.0,3.0,808000.0,1243.0,2408.0,,,1.0,1.0,"73-1102 Loloa Dr, Kailua Kona, HI 96740",73-1102 Loloa Dr,Kailua Kona,HI,96740,19.724693,-155.98856,,False,,,,
71669593,FOR_RENT,Apartment for rent,,3400.0,1294.0,3.0,778100.0,601.0,3494.0,,,3.0,2.0,"75-6025 Alii Dr APT N202, Kailua Kona, HI 96740",75-6025 Alii Dr APT N202,Kailua Kona,HI,96740,19.620863,-155.98346,,False,,,,
455884249,FOR_RENT,House for rent,,1850.0,,,745200.0,,,,,1.0,1.0,"295 Karsten Dr #B, Wahiawa, HI 96786",295 Karsten Dr #B,Wahiawa,HI,96786,21.50824,-157.99368,,False,,,,
456021044,FOR_RENT,Apartment for rent,,2400.0,900.0,3.0,,,,,,2.0,1.0,"2817 Leialoha Ave #D, Honolulu, HI 96816",2817 Leialoha Ave #D,Honolulu,HI,96816,21.28495,-157.81532,,False,,,,
592275,FOR_RENT,House for rent,,3000.0,771.0,4.0,1670000.0,2166.0,1576.0,,,2.0,2.0,"14 Wood St, Honolulu, HI 96817",14 Wood St,Honolulu,HI,96817,21.338776,-157.8353,,False,,,,
138303639,FOR_RENT,House for rent,,2800.0,864.0,3.0,547200.0,633.0,2333.0,,,3.0,2.0,"1301 Ainaola Dr, Hilo, HI 96720",1301 Ainaola Dr,Hilo,HI,96720,19.662832,-155.10986,,False,,,,
241843093,FOR_RENT,Apartment for rent,,4050.0,1287.0,3.0,1057800.0,822.0,4267.0,,,2.0,2.0,"409 Kailua Rd #7307, Kailua, HI 96734",409 Kailua Rd #7307,Kailua,HI,96734,21.392282,-157.73695,,False,,,,
138342135,FOR_RENT,House for rent,,1950.0,1500.0,1.0,637400.0,425.0,1976.0,,,2.0,1.0,"87-3220 Datura Rd, Captain Cook, HI 96704",87-3220 Datura Rd,Captain Cook,HI,96704,19.316437,-155.87758,,False,,,,
82502678,FOR_RENT,Apartment for rent,,1950.0,586.0,3.0,325900.0,556.0,2124.0,,,1.0,1.0,"910 Ahana St APT 704, Honolulu, HI 96814",910 Ahana St APT 704,Honolulu,HI,96814,21.296219,-157.84006,,False,,,,
2068516051,FOR_RENT,House for rent,,3100.0,1100.0,3.0,867200.0,788.0,3102.0,,,2.0,2.0,"1592 Ala Amoamo St UNIT A, Honolulu, HI 96819",1592 Ala Amoamo St UNIT A,Honolulu,HI,96819,21.351751,-157.88618,,False,,,,
123873613,FOR_RENT,House for rent,,6500.0,1507.0,4.0,917900.0,609.0,5287.0,,,3.0,3.0,"91-1259 Kilipue St #2902, Ewa Beach, HI 96706",91-1259 Kilipue St #2902,Ewa Beach,HI,96706,21.347286,-158.03532,,False,,,,
125719714,FOR_RENT,House for rent,,4300.0,1553.0,3.0,990900.0,638.0,4236.0,,,4.0,3.0,"801 Kakala St APT 53, Kapolei, HI 96707",801 Kakala St APT 53,Kapolei,HI,96707,21.32403,-158.0729,,False,,,,
350312439,FOR_RENT,House for rent,,3900.0,1093.0,4.0,948500.0,868.0,4121.0,,,3.0,2.0,"46-035 Konohiki St APT 3834, Kaneohe, HI 96744",46-035 Konohiki St APT 3834,Kaneohe,HI,96744,21.425322,-157.79347,,False,,,,
628227,FOR_RENT,House for rent,,4100.0,1200.0,3.0,1548100.0,1290.0,4237.0,,,2.0,2.0,"(undisclosed Address), Kailua, HI 96734",(undisclosed Address),Kailua,HI,96734,,,,False,,,,
445962773,FOR_RENT,Apartment for rent,,5500.0,1711.0,3.0,,,,,,3.0,2.0,"1022 Prospect St APT 804E, Honolulu, HI 96822",1022 Prospect St APT 804E,Honolulu,HI,96822,21.30975,-157.84485,,False,,,,
757836,FOR_RENT,House for rent,,6300.0,2298.0,3.0,1747000.0,760.0,6616.0,,,4.0,3.0,"15 Lily Pl, Lahaina, HI 96761",15 Lily Pl,Lahaina,HI,96761,20.97381,-156.67393,,False,,,,
455943114,FOR_RENT,Apartment for rent,,2900.0,,,,,,,,2.0,2.0,"Hamakua Drive Joanne, 327 Hamakua Dr #A, Kailua, HI 96734",327 Hamakua Dr #A,Kailua,HI,96734,21.38346,-157.73744,,False,,,,
55578873,FOR_RENT,Townhouse for rent,,3495.0,1096.0,3.0,676000.0,617.0,3479.0,,,3.0,3.0,"91-1081 Kaileolea Dr APT 2E4, Ewa Beach, HI 96706",91-1081 Kaileolea Dr APT 2E4,Ewa Beach,HI,96706,21.317467,-158.02,,False,,,,
320025767,FOR_RENT,House for rent,,2300.0,1274.0,2.0,477500.0,375.0,2350.0,,,3.0,2.0,"(undisclosed Address), Volcano, HI 96785",(undisclosed Address),Volcano,HI,96785,,,,False,,,,
455849372,FOR_RENT,Apartment for rent,,1800.0,466.0,4.0,,,,,,1.0,1.0,"1516 Ward Ave APT 607, Honolulu, HI 96822",1516 Ward Ave APT 607,Honolulu,HI,96822,21.307705,-157.84807,,False,,,,
713725,FOR_RENT,House for rent,,3445.0,992.0,3.0,1181400.0,1191.0,3033.0,,,3.0,1.0,"99-904 Halawa Dr, Aiea, HI 96701",99-904 Halawa Dr,Aiea,HI,96701,21.381302,-157.91171,,False,,,,
456049132,FOR_RENT,Apartment for rent,,1850.0,630.0,3.0,,,,,,2.0,1.0,"2750 Kahoaloha Lane, 2750 Kahoaloha Ln APT 3, Honolulu, HI 96826",2750 Kahoaloha Ln APT 3,Honolulu,HI,96826,21.289938,-157.8204,,False,,,,
82485451,FOR_RENT,Apartment for rent,,2900.0,976.0,3.0,639400.0,655.0,2997.0,,,1.0,2.0,"2333 Kapiolani Blvd APT 3310, Honolulu, HI 96826",2333 Kapiolani Blvd APT 3310,Honolulu,HI,96826,21.2874,-157.82834,,False,,,,
759867,FOR_RENT,House for rent,,3750.0,1084.0,3.0,1094200.0,1009.0,4051.0,,,3.0,2.0,"137 Ipukula Way, Lahaina, HI 96761",137 Ipukula Way,Lahaina,HI,96761,20.887348,-156.68042,,False,,,,
2061487334,FOR_RENT,Townhouse for rent,,3500.0,1129.0,3.0,670200.0,594.0,3284.0,,,3.0,2.0,"98-430 Kilinoe St APT 1-5507, Aiea, HI 96701",98-430 Kilinoe St APT 1-5507,Aiea,HI,96701,21.394232,-157.9453,,False,,,,
2087836539,FOR_RENT,Apartment for rent,,1650.0,504.0,3.0,,,1624.0,,,1.0,1.0,"720 Mahiai St APT C, Honolulu, HI 96826",720 Mahiai St APT C,Honolulu,HI,96826,21.286322,-157.8214,,False,,,,
686351,FOR_RENT,House for rent,,3200.0,1370.0,2.0,754900.0,551.0,3361.0,,,3.0,3.0,"94-389 Kaholo St APT 79, Mililani, HI 96789",94-389 Kaholo St APT 79,Mililani,HI,96789,21.440264,-158.01071,,False,,,,
551231,FOR_RENT,House for rent,,2950.0,1448.0,2.0,566700.0,391.0,2658.0,,,3.0,2.0,"174 Makalani St, Hilo, HI 96720",174 Makalani St,Hilo,HI,96720,19.669142,-155.07515,,False,,,,
138284244,FOR_RENT,House for rent,,1658.0,,,286800.0,,2050.0,,,2.0,2.0,"14-600 Flower Rd, Pahoa, HI 96778",14-600 Flower Rd,Pahoa,HI,96778,19.511787,-154.90683,,False,,,,
609635,FOR_RENT,House for rent,,1900.0,500.0,4.0,1242400.0,2485.0,1827.0,,,1.0,1.0,"2511 Makaulii Pl, Honolulu, HI 96816",2511 Makaulii Pl,Honolulu,HI,96816,21.303738,-157.78397,,False,,,,
68131535,FOR_RENT,House for rent,,4295.0,1783.0,2.0,1041900.0,584.0,4407.0,,,4.0,4.0,"91-1042 Kaihohonu St, Ewa Beach, HI 96706",91-1042 Kaihohonu St,Ewa Beach,HI,96706,21.31464,-158.02351,,False,,,,
623577,FOR_RENT,House for rent,,5500.0,1242.0,4.0,1419000.0,1143.0,4748.0,,,2.0,2.0,"937 Hokulani St, Honolulu, HI 96825",937 Hokulani St,Honolulu,HI,96825,21.308483,-157.71063,,False,,,,
661543,FOR_RENT,House for rent,,4350.0,2616.0,2.0,919100.0,351.0,4543.0,,,5.0,4.0,"84-557 Widemann St, Waianae, HI 96792",84-557 Widemann St,Waianae,HI,96792,21.471592,-158.21773,,False,,,,
452892227,FOR_RENT,Apartment for rent,,8000.0,2472.0,3.0,,,,,,3.0,2.0,"527 Iliaina St #A, Kailua, HI 96734",527 Iliaina St #A,Kailua,HI,96734,21.414846,-157.7526,,False,,,,
754861,FOR_RENT,House for rent,,3750.0,1296.0,3.0,1164800.0,899.0,4140.0,,,3.0,2.0,"1874 Kaahele Pl, Kihei, HI 96753",1874 Kaahele Pl,Kihei,HI,96753,20.734316,-156.44954,,False,,,,
452603397,FOR_RENT,Apartment for rent,,2500.0,700.0,4.0,,,,,,1.0,2.0,"66-502 Paalaa Rd N #D, Haleiwa, HI 96712",66-502 Paalaa Rd N #D,Haleiwa,HI,96712,21.581905,-158.10614,,False,,,,
455593336,FOR_RENT,Apartment for rent,,34330.0,2195.0,16.0,,,,,,4.0,2.0,"53-729 Kamehameha Hwy #ID1250631P, Hauula, HI 96717",53-729 Kamehameha Hwy #ID1250631P,Hauula,HI,96717,21.597109,-157.8963,,False,,,,
2053839578,FOR_RENT,Apartment for rent,,1575.0,500.0,3.0,,,1611.0,,,2.0,1.0,"1694-H, 57A Hialoa St APT 2A, Honolulu, HI 96817",57A Hialoa St APT 2A,Honolulu,HI,96817,21.315996,-157.85403,,False,,,,
446840404,FOR_RENT,House for rent,,2200.0,576.0,4.0,466600.0,810.0,,,,1.0,1.0,"77-330 Sunset Dr UNIT B, Kailua Kona, HI 96740",77-330 Sunset Dr UNIT B,Kailua Kona,HI,96740,19.602736,-155.96034,,False,,,,
241825569,FOR_RENT,Townhouse for rent,,2700.0,834.0,3.0,568100.0,681.0,2798.0,,,2.0,2.0,"95-178 Kipapa Dr APT 54, Mililani, HI 96789",95-178 Kipapa Dr APT 54,Mililani,HI,96789,21.459633,-158.01578,,False,,,,
455229958,FOR_RENT,House for rent,,3000.0,2560.0,1.0,543700.0,212.0,,,,3.0,3.0,"99-1830 Painui Loop, Volcano, HI 96785",99-1830 Painui Loop,Volcano,HI,96785,19.494247,-155.20908,,False,,,,
2064753285,FOR_RENT,Townhouse for rent,,2900.0,1100.0,3.0,580400.0,528.0,3052.0,,,2.0,2.0,"91-1008C Makaaloa St #3C, Ewa Beach, HI 96706",91-1008C Makaaloa St #3C,Ewa Beach,HI,96706,21.360731,-158.02649,,False,,,,
110280586,FOR_RENT,House for rent,,4200.0,1612.0,3.0,1135800.0,705.0,4126.0,,,3.0,2.0,"91-1839 Waiaama St, Ewa Beach, HI 96706",91-1839 Waiaama St,Ewa Beach,HI,96706,21.315681,-158.0329,,False,,,,
250258092,FOR_RENT,House for rent,,2950.0,815.0,4.0,574600.0,705.0,3412.0,,,2.0,2.0,"117 Maluniu Ave APT D, Kailua, HI 96734",117 Maluniu Ave APT D,Kailua,HI,96734,21.397493,-157.74188,,False,,,,
2086701428,FOR_RENT,Apartment for rent,,4200.0,1169.0,4.0,,,3977.0,,,3.0,2.0,"4113 Pakolu Pl #B, Honolulu, HI 96816",4113 Pakolu Pl #B,Honolulu,HI,96816,21.288492,-157.78711,,False,,,,
82495456,FOR_RENT,Apartment for rent,,4600.0,1438.0,3.0,756300.0,526.0,4287.0,,,3.0,3.0,"217 Prospect St APT A14, Honolulu, HI 96813",217 Prospect St APT A14,Honolulu,HI,96813,21.313948,-157.85025,,False,,,,
82493228,FOR_RENT,Apartment for rent,,1850.0,534.0,3.0,312500.0,585.0,2066.0,,,1.0,1.0,"1415 Victoria St APT 107, Honolulu, HI 96822",1415 Victoria St APT 107,Honolulu,HI,96822,21.305677,-157.84682,,False,,,,
583722,FOR_RENT,House for rent,,2000.0,700.0,3.0,964600.0,1378.0,2262.0,,,2.0,1.0,"2340 Kula Kolea Dr, Honolulu, HI 96819",2340 Kula Kolea Dr,Honolulu,HI,96819,21.350462,-157.8626,,False,,,,
82462128,FOR_RENT,Apartment for rent,,3500.0,1350.0,3.0,605100.0,448.0,3863.0,,,2.0,2.0,"2015 Ala Wai Blvd APT 4C, Honolulu, HI 96815",2015 Ala Wai Blvd APT 4C,Honolulu,HI,96815,21.285755,-157.83089,,False,,,,
63025675,FOR_RENT,Townhouse for rent,,4000.0,1803.0,2.0,1021400.0,567.0,4272.0,,,4.0,3.0,"91-1034 Kaihoi St, Ewa Beach, HI 96706",91-1034 Kaihoi St,Ewa Beach,HI,96706,21.318624,-158.02563,,False,,,,
732992,FOR_RENT,House for rent,,12000.0,1504.0,8.0,3036100.0,2019.0,5770.0,,,3.0,2.0,"4437 Aku Rd, Hanalei, HI 96714",4437 Aku Rd,Hanalei,HI,96714,22.205294,-159.49612,,False,,,,
597706,FOR_RENT,House for rent,,5500.0,1824.0,3.0,1160500.0,636.0,4366.0,,,4.0,2.0,"3057 Kalawao St, Honolulu, HI 96822",3057 Kalawao St,Honolulu,HI,96822,21.309412,-157.80417,,False,,,,
609509,FOR_RENT,House for rent,,3500.0,1616.0,2.0,997700.0,617.0,3510.0,,,3.0,2.0,"2409 Jasmine St, Honolulu, HI 96816",2409 Jasmine St,Honolulu,HI,96816,21.307203,-157.79066,,False,,,,
2096422772,FOR_RENT,Apartment for rent,,2150.0,585.0,4.0,,,1906.0,,,2.0,1.0,"720 Birch St APT B, Honolulu, HI 96814",720 Birch St APT B,Honolulu,HI,96814,21.296354,-157.84427,,False,,,,
82461754,FOR_RENT,Apartment for rent,,2500.0,717.0,3.0,,,2567.0,,,2.0,1.0,"46-1058 Emepela Way APT 10R, Kaneohe, HI 96744",46-1058 Emepela Way APT 10R,Kaneohe,HI,96744,21.416605,-157.80931,,False,,,,
442141918,FOR_RENT,House for rent,,3000.0,966.0,3.0,477600.0,494.0,,,,3.0,2.0,"855 Ala Lilikoi St #8552, Honolulu, HI 96818",855 Ala Lilikoi St #8552,Honolulu,HI,96818,21.344742,-157.91246,,False,,,,
72205435,FOR_RENT,House for rent,,5500.0,2852.0,2.0,1320200.0,463.0,5757.0,,,5.0,3.0,"91-1038 Kai Weke St, Ewa Beach, HI 96706",91-1038 Kai Weke St,Ewa Beach,HI,96706,21.310951,-158.02046,,False,,,,
72202189,FOR_RENT,Apartment for rent,,2750.0,1269.0,2.0,595100.0,469.0,3004.0,,,2.0,2.0,"95-326 Kaloapau St APT 134, Mililani, HI 96789",95-326 Kaloapau St APT 134,Mililani,HI,96789,21.450634,-158.01929,,False,,,,
665674,FOR_RENT,House for rent,,3000.0,1152.0,3.0,641200.0,557.0,3204.0,,,3.0,2.0,"87-133 Lopikane St, Waianae, HI 96792",87-133 Lopikane St,Waianae,HI,96792,21.425262,-158.17708,,False,,,,
636483,FOR_RENT,Apartment for rent,,2950.0,1000.0,3.0,1518300.0,1518.0,2805.0,,,1.0,1.0,"754 Kahoa Dr, Kailua, HI 96734",754 Kahoa Dr,Kailua,HI,96734,21.399498,-157.75186,,False,,,,
82497067,FOR_RENT,Apartment for rent,,2380.0,560.0,4.0,300600.0,537.0,2270.0,,,2.0,1.0,"1220 Ward Ave APT A8, Honolulu, HI 96814",1220 Ward Ave APT A8,Honolulu,HI,96814,21.304632,-157.84952,,False,,,,
2062972794,FOR_RENT,House for rent,,1600.0,375.0,4.0,467400.0,1246.0,1567.0,,,1.0,1.0,"269 Huali St #4, Honolulu, HI 96813",269 Huali St #4,Honolulu,HI,96813,21.312737,-157.85083,,False,,,,
455923569,FOR_RENT,Apartment for rent,,1950.0,522.0,4.0,,,,,,1.0,1.0,"1654 Liholiho St., 1654 Liholiho St #1, Honolulu, HI 96822",1654 Liholiho St #1,Honolulu,HI,96822,21.307453,-157.83752,,False,,,,
2064107244,FOR_RENT,House for rent,,4500.0,1600.0,3.0,972300.0,608.0,4225.0,,,3.0,2.0,"115 Honuhula Pl, Kihei, HI 96753",115 Honuhula Pl,Kihei,HI,96753,20.779488,-156.45932,,False,,,,
351053536,FOR_RENT,Apartment for rent,,2500.0,630.0,4.0,,,2480.0,,,1.0,1.0,"55-044 Kamehameha Hwy, Laie, HI 96762",55-044 Kamehameha Hwy,Laie,HI,96762,21.623896,-157.91992,,False,,,,
337880856,FOR_RENT,House for rent,,4900.0,1700.0,3.0,1124500.0,661.0,4123.0,,,4.0,3.0,"91-967 Akaholo St #A, Ewa Beach, HI 96706",91-967 Akaholo St #A,Ewa Beach,HI,96706,21.322235,-158.00879,,False,,,,
82422991,FOR_RENT,Apartment for rent,,2500.0,,,312900.0,,2045.0,,,1.0,1.0,"1630 Liholiho St APT 1810, Honolulu, HI 96822",1630 Liholiho St APT 1810,Honolulu,HI,96822,21.307016,-157.83812,,False,,,,
82488623,FOR_RENT,Apartment for rent,,2300.0,485.0,5.0,339300.0,700.0,1796.0,,,1.0,1.0,"1620 Keeaumoku St APT 404, Honolulu, HI 96822",1620 Keeaumoku St APT 404,Honolulu,HI,96822,21.30523,-157.83621,,False,,,,
72203568,FOR_RENT,House for rent,,3700.0,1439.0,3.0,714600.0,497.0,3888.0,,,4.0,3.0,"92-842 Kinohi Pl APT 41, Kapolei, HI 96707",92-842 Kinohi Pl APT 41,Kapolei,HI,96707,21.352392,-158.08896,,False,,,,
350819131,FOR_RENT,Apartment for rent,,1450.0,250.0,6.0,,,1999.0,,,1.0,1.0,"(undisclosed Address), Haiku, HI 96708",(undisclosed Address),Haiku,HI,96708,,,,False,,,,
646186,FOR_RENT,Apartment for rent,,3000.0,700.0,4.0,1552800.0,2218.0,2906.0,,,2.0,2.0,"Kelemen, Ted & Masako, 46-170 Ohala St, Kaneohe, HI 96744",46-170 Ohala St,Kaneohe,HI,96744,21.423645,-157.8072,,False,,,,
304656187,FOR_RENT,Apartment for rent,,6500.0,1241.0,5.0,1869500.0,1506.0,6218.0,,,2.0,2.0,"67 Wailea Gateway Pl UNIT 6-203, Kihei, HI 96753",67 Wailea Gateway Pl UNIT 6-203,Kihei,HI,96753,20.688984,-156.43192,,False,,,,
442614071,FOR_RENT,House for rent,,1700.0,350.0,5.0,864000.0,2469.0,,,,1.0,1.0,"98-034 Lokowai St, Aiea, HI 96701",98-034 Lokowai St,Aiea,HI,96701,21.386957,-157.95107,,False,,,,
673832,FOR_RENT,House for rent,,3800.0,1795.0,2.0,908000.0,506.0,3730.0,,,3.0,3.0,"91-1069 Aawa Dr, Ewa Beach, HI 96706",91-1069 Aawa Dr,Ewa Beach,HI,96706,21.35589,-158.02393,,False,,,,
331710321,FOR_RENT,House for rent,,5250.0,1525.0,3.0,1770100.0,1161.0,5395.0,,,3.0,2.0,"2240A Metcalf St, Honolulu, HI 96822",2240A Metcalf St,Honolulu,HI,96822,21.29941,-157.82384,,False,,,,
2082242384,FOR_RENT,House for rent,,4500.0,1300.0,3.0,1327900.0,1021.0,4166.0,,,3.0,2.0,"2709 Hillside Ave, Honolulu, HI 96822",2709 Hillside Ave,Honolulu,HI,96822,21.309336,-157.81578,,False,,,,
604257,FOR_RENT,Apartment for rent,,4500.0,1474.0,3.0,1293500.0,878.0,3077.0,,,4.0,2.0,"Rentals Biz LLC, 3917 Maunaloa Ave, Honolulu, HI 96816",3917 Maunaloa Ave,Honolulu,HI,96816,21.273006,-157.79652,,False,,,,
450771880,FOR_RENT,Townhouse for rent,,4950.0,3236.0,2.0,1426800.0,441.0,,,,3.0,3.0,"47-495 Hui Aeko Pl #A, Kaneohe, HI 96744",47-495 Hui Aeko Pl #A,Kaneohe,HI,96744,21.43429,-157.8319,,False,,,,
2059762958,FOR_RENT,House for rent,,3350.0,1064.0,3.0,955800.0,898.0,3866.0,,,3.0,1.0,"624B Kalolina St, Kailua, HI 96734",624B Kalolina St,Kailua,HI,96734,21.404129,-157.75269,,False,,,,
68131783,FOR_RENT,House for rent,,3300.0,1135.0,3.0,688500.0,607.0,3496.0,,,3.0,3.0,"91-2015 Kaioli St APT 4201, Ewa Beach, HI 96706",91-2015 Kaioli St APT 4201,Ewa Beach,HI,96706,21.322168,-158.0237,,False,,,,
676769,FOR_RENT,House for rent,,5000.0,1899.0,3.0,1138700.0,600.0,4666.0,,,4.0,3.0,"91-1076 Lanakoi St, Kapolei, HI 96707",91-1076 Lanakoi St,Kapolei,HI,96707,21.333244,-158.06348,,False,,,,
402152748,FOR_RENT,Apartment for rent,,2600.0,925.0,3.0,,,,,,2.0,2.0,"510 Magellan Ave APT 7, Honolulu, HI 96813",510 Magellan Ave APT 7,Honolulu,HI,96813,21.30948,-157.85127,,False,,,,
2113095657,FOR_RENT,Apartment for rent,,3350.0,1104.0,3.0,,,3325.0,,,3.0,2.0,"98-711 Iho Pl APT 704, Aiea, HI 96701",98-711 Iho Pl APT 704,Aiea,HI,96701,21.391315,-157.93144,,False,,,,
695230,FOR_RENT,House for rent,,2700.0,900.0,3.0,997100.0,1108.0,2796.0,,,3.0,2.0,"95-149 Wailawa Pl, Mililani, HI 96789",95-149 Wailawa Pl,Mililani,HI,96789,21.463005,-158.0153,,False,,,,
82477654,FOR_RENT,Apartment for rent,,3500.0,910.0,4.0,677100.0,744.0,3510.0,,,2.0,2.0,"46-159 Meheanu Loop APT 3255, Kaneohe, HI 96744",46-159 Meheanu Loop APT 3255,Kaneohe,HI,96744,21.4233,-157.79625,,False,,,,
609475,FOR_RENT,House for rent,,3600.0,1038.0,3.0,803600.0,774.0,3133.0,,,3.0,3.0,"2374 Gardenia St, Honolulu, HI 96816",2374 Gardenia St,Honolulu,HI,96816,21.307642,-157.79196,,False,,,,
65287268,FOR_RENT,House for rent,,6500.0,2418.0,3.0,1747600.0,723.0,5890.0,,,4.0,3.0,"214 Kuli Puu St, Kihei, HI 96753",214 Kuli Puu St,Kihei,HI,96753,20.722733,-156.4428,,False,,,,
621735,FOR_RENT,House for rent,,3800.0,1220.0,3.0,1893100.0,1552.0,4588.0,,,3.0,3.0,"995 Kalapaki St, Honolulu, HI 96825",995 Kalapaki St,Honolulu,HI,96825,21.301222,-157.68373,,False,,,,
546283,FOR_RENT,House for rent,,2650.0,1220.0,2.0,580300.0,476.0,2704.0,,,3.0,2.0,"164 Panaewa St, Hilo, HI 96720",164 Panaewa St,Hilo,HI,96720,19.715513,-155.08133,,False,,,,
678996,FOR_RENT,House for rent,,3300.0,864.0,4.0,805400.0,932.0,3020.0,,,3.0,1.0,"92-595 Mehani Pl, Kapolei, HI 96707",92-595 Mehani Pl,Kapolei,HI,96707,21.347277,-158.08301,,False,,,,
646359,FOR_RENT,House for rent,,4000.0,1699.0,2.0,1294200.0,762.0,4154.0,,,3.0,2.0,"46-241 Lilipuna Rd, Kaneohe, HI 96744",46-241 Lilipuna Rd,Kaneohe,HI,96744,21.422937,-157.80238,,False,,,,
455680884,FOR_RENT,Apartment for rent,,3200.0,1048.0,3.0,,,,,,2.0,2.0,"2619 S Kihei Rd APT B406, Kihei, HI 96753",2619 S Kihei Rd APT B406,Kihei,HI,96753,20.713755,-156.44441,,False,,,,
72199149,FOR_RENT,Apartment for rent,,2750.0,,,502200.0,,2733.0,,,2.0,1.0,"91-1201 Kaneana St #3J, Ewa Beach, HI 96706",91-1201 Kaneana St #3J,Ewa Beach,HI,96706,21.336294,-158.02492,,False,,,,
88820628,FOR_RENT,Apartment for rent,,2350.0,,,367500.0,,2311.0,,,2.0,1.0,"1402 Piikoi St APT 504, Honolulu, HI 96822",1402 Piikoi St APT 504,Honolulu,HI,96822,21.30385,-157.8423,,False,,,,
2085153548,FOR_RENT,House for rent,,3800.0,1094.0,3.0,736700.0,673.0,3316.0,,,3.0,2.0,"91-1026B Hoomaka St, Ewa Beach, HI 96706",91-1026B Hoomaka St,Ewa Beach,HI,96706,21.338785,-158.01834,,False,,,,
72212261,FOR_RENT,House for rent,,3700.0,1464.0,3.0,733300.0,501.0,3684.0,,,3.0,3.0,"92-1288 Kikaha St APT 77, Kapolei, HI 96707",92-1288 Kikaha St APT 77,Kapolei,HI,96707,21.368864,-158.08531,,False,,,,
455123294,FOR_RENT,Apartment for rent,,2250.0,764.0,3.0,,,,,,1.0,1.0,"91-1062 Makaaloa St SUITE 12H, Ewa Beach, HI 96706",91-1062 Makaaloa St SUITE 12H,Ewa Beach,HI,96706,21.356712,-158.0277,,False,,,,
2067374507,FOR_RENT,Townhouse for rent,,3970.0,1300.0,3.0,904000.0,695.0,4071.0,,,3.0,3.0,"44-105 Laha St APT 4, Kaneohe, HI 96744",44-105 Laha St APT 4,Kaneohe,HI,96744,21.417973,-157.76283,,False,,,,
455965764,FOR_RENT,Townhouse for rent,,2800.0,1083.0,3.0,696000.0,643.0,,,,2.0,2.0,"98-1762C Kaahumanu St, Pearl City, HI 96782",98-1762C Kaahumanu St,Pearl City,HI,96782,21.409925,-157.94824,,False,,,,
2065778425,FOR_RENT,House for rent,,1800.0,737.0,2.0,,,1878.0,,,1.0,1.0,"1341 Komo Mai Dr UNIT B, Pearl City, HI 96782",1341 Komo Mai Dr UNIT B,Pearl City,HI,96782,21.406504,-157.95709,,False,,,,
455326407,FOR_RENT,Apartment for rent,,3395.0,1356.0,3.0,,,,,,4.0,3.0,"94-061 Kuahelani Ave APT 131, Mililani, HI 96789",94-061 Kuahelani Ave APT 131,Mililani,HI,96789,21.445503,-158.01707,,False,,,,
82446861,FOR_RENT,Apartment for rent,,3550.0,841.0,4.0,604600.0,719.0,2667.0,,,2.0,2.0,"4300 Waialae Ave APT A1601, Honolulu, HI 96816",4300 Waialae Ave APT A1601,Honolulu,HI,96816,21.278576,-157.7856,,False,,,,
559904,FOR_RENT,House for rent,,2500.0,1136.0,2.0,497800.0,438.0,2033.0,,,3.0,1.0,"43-952 Paauilo Hui Rd, Paauilo, HI 96776",43-952 Paauilo Hui Rd,Paauilo,HI,96776,20.042227,-155.36517,,False,,,,
369783812,FOR_RENT,Apartment for rent,,2100.0,,,,,3216.0,,,2.0,1.0,"617 Wailepo St #B, Kailua, HI 96734",617 Wailepo St #B,Kailua,HI,96734,21.394821,-157.74716,,False,,,,
678872,FOR_RENT,House for rent,,3450.0,1112.0,3.0,908500.0,817.0,3633.0,,,3.0,2.0,"92-430 Kaiaulu St, Kapolei, HI 96707",92-430 Kaiaulu St,Kapolei,HI,96707,21.34118,-158.08427,,False,,,,
72208096,FOR_RENT,Townhouse for rent,,3200.0,981.0,3.0,720900.0,735.0,3911.0,,,2.0,3.0,"92-1520 Aliinui Dr #2104, Kapolei, HI 96707",92-1520 Aliinui Dr #2104,Kapolei,HI,96707,21.337254,-158.11127,,False,,,,
72213888,FOR_RENT,House for rent,,2800.0,805.0,3.0,458200.0,569.0,2834.0,,,2.0,2.0,"98-707 Iho Pl #2602, Aiea, HI 96701",98-707 Iho Pl #2602,Aiea,HI,96701,21.391243,-157.93155,,False,,,,
72194488,FOR_RENT,Apartment for rent,,3050.0,985.0,3.0,,,3017.0,,,3.0,2.0,"95-536 Wikao St APT D101, Mililani, HI 96789",95-536 Wikao St APT D101,Mililani,HI,96789,21.478642,-158.0095,,False,,,,
636353,FOR_RENT,House for rent,,5500.0,1464.0,4.0,1341200.0,916.0,4808.0,,,3.0,2.0,"505 Kuaaina Way, Kailua, HI 96734",505 Kuaaina Way,Kailua,HI,96734,21.400364,-157.74829,,False,,,,
455220915,FOR_RENT,Apartment for rent,,1550.0,450.0,3.0,,,,,,1.0,1.0,"2733 Kaaha St #A-3, Honolulu, HI 96826",2733 Kaaha St #A-3,Honolulu,HI,96826,21.28817,-157.82248,,False,,,,
602632,FOR_RENT,House for rent,,2295.0,630.0,4.0,1297000.0,2059.0,2184.0,,,2.0,1.0,"3378 Alohea Ave, Honolulu, HI 96816",3378 Alohea Ave,Honolulu,HI,96816,21.276434,-157.8091,,False,,,,
351781582,FOR_RENT,House for rent,,3900.0,796.0,5.0,946800.0,1189.0,3141.0,,,2.0,1.0,"2716 Aolani Pl, Honolulu, HI 96822",2716 Aolani Pl,Honolulu,HI,96822,21.309181,-157.81445,,False,,,,
638216,FOR_RENT,House for rent,,8500.0,1878.0,5.0,2248500.0,1197.0,7110.0,,,4.0,2.0,"44-102 Kauinohea Pl, Kaneohe, HI 96744",44-102 Kauinohea Pl,Kaneohe,HI,96744,21.412176,-157.76456,,False,,,,
69383829,FOR_RENT,House for rent,,1750.0,1536.0,1.0,346900.0,226.0,1794.0,,,2.0,2.0,"92-1821 Princess Kaiulani Blvd, Ocean View, HI 96704",92-1821 Princess Kaiulani Blvd,Ocean View,HI,96704,19.096354,-155.75089,,False,,,,
602532,FOR_RENT,House for rent,,3400.0,1484.0,2.0,1300400.0,876.0,3512.0,,,3.0,2.0,"(undisclosed Address), Honolulu, HI 96816",(undisclosed Address),Honolulu,HI,96816,,,,False,,,,
2055112686,FOR_RENT,House for rent,,2350.0,815.0,3.0,596500.0,732.0,2524.0,,,2.0,1.0,"9871C Kahakai Rd, Waimea, HI 96796",9871C Kahakai Rd,Waimea,HI,96796,21.95432,-159.66812,,False,,,,
2058067733,FOR_RENT,Apartment for rent,,2600.0,693.0,4.0,,,2464.0,,,2.0,1.0,"2050 Nuuanu Ave #E107, Honolulu, HI 96817",2050 Nuuanu Ave #E107,Honolulu,HI,96817,21.32265,-157.8506,,False,,,,
565393,FOR_RENT,House for rent,,3400.0,1056.0,3.0,662500.0,627.0,2549.0,,,3.0,2.0,"68-3617 Lahilahi St, Waikoloa, HI 96738",68-3617 Lahilahi St,Waikoloa,HI,96738,19.944153,-155.78809,,False,,,,
635102,FOR_RENT,House for rent,,6995.0,1550.0,5.0,2306300.0,1488.0,5508.0,,,3.0,2.0,"249 N Kainalu Dr, Kailua, HI 96734",249 N Kainalu Dr,Kailua,HI,96734,21.402706,-157.74286,,False,,,,
455167192,FOR_RENT,Apartment for rent,,3495.0,1526.0,2.0,,,,,,3.0,3.0,"91-1039 Laaulu St #23, Ewa Beach, HI 96706",91-1039 Laaulu St #23,Ewa Beach,HI,96706,21.33983,-158.02684,,False,,,,
82428969,FOR_RENT,Apartment for rent,,3700.0,969.0,4.0,585000.0,604.0,3160.0,,,2.0,2.0,"419 Atkinson Dr APT 1702, Honolulu, HI 96814",419 Atkinson Dr APT 1702,Honolulu,HI,96814,21.288776,-157.83907,,False,,,,
82424525,FOR_RENT,Apartment for rent,,3150.0,1081.0,3.0,488000.0,451.0,3317.0,,,1.0,2.0,"555 Hahaione St APT 15D, Honolulu, HI 96825",555 Hahaione St APT 15D,Honolulu,HI,96825,21.295275,-157.70778,,False,,,,
638158,FOR_RENT,Apartment for rent,,3500.0,1167.0,3.0,,,3271.0,,,2.0,1.0,"Pu'uohalai 103, 44-103 Puuohalai Pl, Kaneohe, HI 96744",44-103 Puuohalai Pl,Kaneohe,HI,96744,21.41074,-157.76663,,False,,,,
138317834,FOR_RENT,House for rent,,2900.0,1056.0,3.0,639000.0,605.0,2917.0,,,3.0,2.0,"64-511 Hauhoa St, Kamuela, HI 96743",64-511 Hauhoa St,Kamuela,HI,96743,20.039679,-155.62524,,False,,,,
638154,FOR_RENT,Apartment for rent,,2095.0,500.0,4.0,,,2683.0,,,1.0,1.0,"Pu'uohala'i 111, 44-111 Puuohalai Pl, Kaneohe, HI 96744",44-111 Puuohalai Pl,Kaneohe,HI,96744,21.412199,-157.76703,,False,,,,
249328450,FOR_RENT,House for rent,,2900.0,816.0,4.0,347600.0,426.0,2838.0,,,3.0,1.0,"1705 Alahula St, Kualapuu, HI 96757",1705 Alahula St,Kualapuu,HI,96757,21.155085,-157.03722,,False,,,,
625097,FOR_RENT,House for rent,,5000.0,1764.0,3.0,1434400.0,813.0,5440.0,,,3.0,3.0,"1069 Maunanani St, Honolulu, HI 96825",1069 Maunanani St,Honolulu,HI,96825,21.293346,-157.6826,,False,,,,
636435,FOR_RENT,House for rent,,6000.0,1686.0,4.0,1468000.0,871.0,5661.0,,,3.0,4.0,"450A Hinano Way, Kailua, HI 96734",450A Hinano Way,Kailua,HI,96734,21.400017,-157.75041,,False,,,,
2053185517,FOR_RENT,House for rent,,3349.0,,,630400.0,,,,,3.0,3.0,"17-715 Ala Loop, Kurtistown, HI 96760",17-715 Ala Loop,Kurtistown,HI,96760,19.570526,-155.06812,,False,,,,
51613799,FOR_RENT,House for rent,,4290.0,,,1016100.0,,4339.0,,,4.0,3.0,"91-1045 Kaihanupa St, Ewa Beach, HI 96706",91-1045 Kaihanupa St,Ewa Beach,HI,96706,21.31788,-158.01901,,False,,,,
82451336,FOR_RENT,Apartment for rent,,2990.0,,,470900.0,,2912.0,,,2.0,1.0,"225 Kaiulani Ave APT 203, Honolulu, HI 96815",225 Kaiulani Ave APT 203,Honolulu,HI,96815,21.277475,-157.82356,,False,,,,
713232,FOR_RENT,House for rent,,4000.0,1696.0,2.0,1055800.0,623.0,4235.0,,,3.0,3.0,"99-800 Meaala St, Aiea, HI 96701",99-800 Meaala St,Aiea,HI,96701,21.384892,-157.91814,,False,,,,
454232523,FOR_RENT,Apartment for rent,,8400.0,,,,,,,,4.0,3.0,"540155 Kamehameha Hwy #ID1038945P, Hauula, HI 96717",540155 Kamehameha Hwy #ID1038945P,Hauula,HI,96717,21.555822,-157.86809,,False,,,,
72195043,FOR_RENT,Apartment for rent,,2500.0,811.0,3.0,,,2563.0,,,2.0,2.0,"91-237 Hanapouli Cir APT 25G, Ewa Beach, HI 96706",91-237 Hanapouli Cir APT 25G,Ewa Beach,HI,96706,21.334564,-158.02629,,False,,,,
51613191,FOR_RENT,House for rent,,3200.0,1094.0,3.0,782900.0,716.0,3276.0,,,3.0,2.0,"91-1035 Hoomaka St #63, Ewa Beach, HI 96706",91-1035 Hoomaka St #63,Ewa Beach,HI,96706,21.33948,-158.01813,,False,,,,
624371,FOR_RENT,House for rent,,7995.0,,,2087600.0,,7655.0,,,4.0,3.0,"7762 Kalohelani Pl, Honolulu, HI 96825",7762 Kalohelani Pl,Honolulu,HI,96825,21.2941,-157.67036,,False,,,,
2060603054,FOR_RENT,Townhouse for rent,,2400.0,716.0,3.0,482600.0,674.0,2650.0,,,2.0,2.0,"91-1109 Mikohu St APT 24B, Ewa Beach, HI 96706",91-1109 Mikohu St APT 24B,Ewa Beach,HI,96706,21.338589,-158.02948,,False,,,,
736428,FOR_RENT,Townhouse for rent,,3500.0,1300.0,3.0,1057500.0,813.0,3526.0,,,3.0,2.0,"67 Ihea Pl, Makawao, HI 96768",67 Ihea Pl,Makawao,HI,96768,20.84232,-156.34116,,False,,,,
579868,FOR_RENT,Apartment for rent,,2000.0,525.0,4.0,1265200.0,2410.0,2817.0,,,1.0,1.0,"1413 Ala Iolani Street, 1413 Ala Iolani St, Honolulu, HI 96819",1413 Ala Iolani St,Honolulu,HI,96819,21.368713,-157.89362,,False,,,,
2077133389,FOR_RENT,Apartment for rent,,3300.0,1279.0,3.0,,,3773.0,,,3.0,2.0,"222 S Vineyard St #604, Honolulu, HI 96813",222 S Vineyard St #604,Honolulu,HI,96813,21.31095,-157.85556,,False,,,,
619108,FOR_RENT,House for rent,,5990.0,,,2352800.0,,4162.0,,,3.0,2.0,"107 Kekaha Pl, Honolulu, HI 96825",107 Kekaha Pl,Honolulu,HI,96825,21.270542,-157.70374,,False,,,,
673265,FOR_RENT,House for rent,,4200.0,1321.0,3.0,889100.0,673.0,3782.0,,,3.0,2.0,"91-1014 Alepa St, Kapolei, HI 96707",91-1014 Alepa St,Kapolei,HI,96707,21.339104,-158.0705,,False,,,,
678083,FOR_RENT,Townhouse for rent,,3200.0,1081.0,3.0,672200.0,622.0,3141.0,,,3.0,3.0,"91-1013 Leleoi St #94, Ewa Beach, HI 96706",91-1013 Leleoi St #94,Ewa Beach,HI,96706,21.339304,-158.02289,,False,,,,
603843,FOR_RENT,House for rent,,4500.0,1487.0,3.0,1252700.0,842.0,4290.0,,,3.0,2.0,"911 Luawai St, Honolulu, HI 96816",911 Luawai St,Honolulu,HI,96816,21.272118,-157.78973,,False,,,,
71765892,FOR_RENT,Townhouse for rent,,3350.0,1100.0,3.0,862300.0,784.0,3532.0,,,1.0,2.0,"150 Puukolii Rd APT 59, Lahaina, HI 96761",150 Puukolii Rd APT 59,Lahaina,HI,96761,20.933643,-156.686,,False,,,,
2103441023,FOR_RENT,House for rent,,3000.0,1100.0,3.0,594500.0,540.0,2927.0,,,2.0,2.0,"68-3907 Paniolo Ave, Waikoloa, HI 96738",68-3907 Paniolo Ave,Waikoloa,HI,96738,19.9296,-155.78656,,False,,,,
641147,FOR_RENT,House for rent,,12000.0,3900.0,3.0,1898400.0,487.0,6126.0,,,6.0,4.0,"(undisclosed Address), Kaneohe, HI 96744",(undisclosed Address),Kaneohe,HI,96744,,,,False,,,,
58766077,FOR_RENT,House for rent,,3900.0,,,1336200.0,,5034.0,,,3.0,3.0,"674 Malimali St, Kihei, HI 96753",674 Malimali St,Kihei,HI,96753,20.765902,-156.45325,,False,,,,
548971,FOR_RENT,House for rent,,2300.0,1216.0,2.0,524700.0,431.0,2406.0,,,3.0,2.0,"123 Punahele St, Hilo, HI 96720",123 Punahele St,Hilo,HI,96720,19.716492,-155.09999,,False,,,,
633415,FOR_RENT,House for rent,,6750.0,1959.0,3.0,3185900.0,1626.0,7828.0,,,5.0,3.0,"1405 Mokulua Dr, Kailua, HI 96734",1405 Mokulua Dr,Kailua,HI,96734,21.384634,-157.71132,,False,,,,
58765894,FOR_RENT,House for rent,,5000.0,1780.0,3.0,1093100.0,614.0,5136.0,,,4.0,3.0,"32 Polale St, Kihei, HI 96753",32 Polale St,Kihei,HI,96753,20.757032,-156.44922,,False,,,,
633409,FOR_RENT,House for rent,,14000.0,3172.0,4.0,3407500.0,1074.0,6055.0,,,6.0,4.0,"1436 Aalapapa Dr, Kailua, HI 96734",1436 Aalapapa Dr,Kailua,HI,96734,21.383776,-157.71114,,False,,,,
452779577,FOR_RENT,Apartment for rent,,3700.0,,,,,,,,3.0,2.0,"Single Family Home in Wahiawa, 3 Kaalalo Pl, Wahiawa, HI 96786",3 Kaalalo Pl #0,Wahiawa,HI,96786,21.493038,-158.03761,,False,,,,
72203628,FOR_RENT,House for rent,,4000.0,1288.0,3.0,911900.0,708.0,3964.0,,,3.0,3.0,"91-1073 Kaianae St, Ewa Beach, HI 96706",91-1073 Kaianae St,Ewa Beach,HI,96706,21.311842,-158.01869,,False,,,,
82456610,FOR_RENT,House for rent,,3100.0,823.0,4.0,523900.0,637.0,2638.0,,,2.0,2.0,"2724 Kahoaloha Ln APT 801, Honolulu, HI 96826",2724 Kahoaloha Ln APT 801,Honolulu,HI,96826,21.289831,-157.8209,,False,,,,
2065674710,FOR_RENT,Townhouse for rent,,4800.0,1900.0,3.0,1603800.0,844.0,5717.0,,,3.0,3.0,"92-1061 Koio Dr, Kapolei, HI 96707",92-1061 Koio Dr,Kapolei,HI,96707,21.341677,-158.11923,,False,,,,
631581,FOR_RENT,House for rent,,3400.0,800.0,4.0,1700700.0,2126.0,3425.0,,,2.0,2.0,"646 Akoakoa St, Kailua, HI 96734",646 Akoakoa St,Kailua,HI,96734,21.387224,-157.73643,,False,,,,
2057581386,FOR_RENT,Apartment for rent,,3000.0,440.0,7.0,,,2210.0,,,1.0,1.0,"1625 Halama St UNIT A, Kihei, HI 96753",1625 Halama St UNIT A,Kihei,HI,96753,20.73963,-156.45569,,False,,,,
55006687,FOR_RENT,House for rent,,4700.0,2198.0,2.0,1234200.0,562.0,4591.0,,,3.0,3.0,"18 Puuaina Pl, Kahului, HI 96732",18 Puuaina Pl,Kahului,HI,96732,20.879452,-156.49126,,False,,,,
635984,FOR_RENT,House for rent,,2200.0,576.0,4.0,1561300.0,2711.0,2894.0,,,2.0,1.0,"234 Oneawa St, Kailua, HI 96734",234 Oneawa St,Kailua,HI,96734,21.397697,-157.74628,,False,,,,
714443,FOR_RENT,Apartment for rent,,3500.0,1556.0,2.0,1263600.0,812.0,3486.0,,,3.0,2.0,"1174 Kukila St, Honolulu, HI 96818",1174 Kukila St,Honolulu,HI,96818,21.359844,-157.92303,,False,,,,
536485,FOR_RENT,House for rent,,2134.0,1640.0,1.0,385200.0,235.0,2183.0,,,3.0,2.0,"15-1638 Akeakamai Loop, Pahoa, HI 96778",15-1638 Akeakamai Loop,Pahoa,HI,96778,19.495928,-154.94353,,False,,,,
634187,FOR_RENT,House for rent,,8000.0,2375.0,3.0,2818800.0,1187.0,7461.0,,,3.0,2.0,"452 Dune Cir, Kailua, HI 96734",452 Dune Cir,Kailua,HI,96734,21.405882,-157.7416,,False,,,,
630891,FOR_RENT,House for rent,,3600.0,740.0,5.0,2549900.0,3446.0,3831.0,,,2.0,1.0,"1365 Kukana Pl, Kailua, HI 96734",1365 Kukana Pl,Kailua,HI,96734,21.356071,-157.76984,,False,,,,
455150159,FOR_RENT,Apartment for rent,,3800.0,856.0,4.0,,,,,,3.0,1.0,"TN-110, 41-978B Waikupanaha St #B4, Waimanalo, HI 96795",41-978B Waikupanaha St #B4,Waimanalo,HI,96795,21.341288,-157.74554,,False,,,,
72215030,FOR_RENT,Townhouse for rent,,2300.0,1035.0,2.0,510800.0,494.0,2375.0,,,2.0,2.0,"98-945 Moanalua Rd APT 806, Aiea, HI 96701",98-945 Moanalua Rd APT 806,Aiea,HI,96701,21.386131,-157.94589,,False,,,,
455150102,FOR_RENT,House for rent,,2995.0,,,1279300.0,,,,,1.0,1.0,"427 Paumakua Pl FLOOR 2, Kailua, HI 96734",427 Paumakua Pl FLOOR 2,Kailua,HI,96734,21.392426,-157.72731,,False,,,,
346179858,FOR_RENT,Apartment for rent,,10500.0,1742.0,6.0,1842800.0,1058.0,,,,3.0,3.0,"30 Kai Malu Dr UNIT 101, Kihei, HI 96753",30 Kai Malu Dr UNIT 101,Kihei,HI,96753,20.69642,-156.43753,,False,,,,
634072,FOR_RENT,House for rent,,14000.0,1690.0,8.0,6413900.0,3795.0,6741.0,,,3.0,2.0,"52 Kaapuni Dr, Kailua, HI 96734",52 Kaapuni Dr,Kailua,HI,96734,21.40068,-157.73534,,False,,,,
60295419,FOR_RENT,House for rent,,4800.0,1587.0,3.0,1051900.0,663.0,4217.0,,,3.0,2.0,"75-297 Malulani Dr, Kailua Kona, HI 96740",75-297 Malulani Dr,Kailua Kona,HI,96740,19.646404,-155.98018,,False,,,,
748114,FOR_RENT,House for rent,,4500.0,1295.0,3.0,1035400.0,800.0,4342.0,,,4.0,2.0,"40 Molokini St, Kahului, HI 96732",40 Molokini St,Kahului,HI,96732,20.883488,-156.46506,,False,,,,
72194526,FOR_RENT,Apartment for rent,,2950.0,880.0,3.0,559000.0,635.0,2865.0,,,2.0,2.0,"92-1159 Palahia St #C-201, Kapolei, HI 96707",92-1159 Palahia St #C-201,Kapolei,HI,96707,21.361782,-158.08916,,False,,,,
454861062,FOR_RENT,Townhouse for rent,,3900.0,1500.0,3.0,979200.0,653.0,,,,4.0,3.0,"360 E Kawaihae St, Honolulu, HI 96825",360 E Kawaihae St,Honolulu,HI,96825,21.291143,-157.71779,,False,,,,
453394008,FOR_RENT,Apartment for rent,,2000.0,477.0,4.0,,,,,,1.0,1.0,"1710 Makiki St #602-AV0048, Honolulu, HI 96822",1710 Makiki St #602-AV0048,Honolulu,HI,96822,21.305168,-157.83382,,False,,,,
72195322,FOR_RENT,House for rent,,3950.0,1449.0,3.0,919000.0,634.0,4113.0,,,3.0,3.0,"91-1057 Kaianae St, Ewa Beach, HI 96706",91-1057 Kaianae St,Ewa Beach,HI,96706,21.312365,-158.01907,,False,,,,
454181411,FOR_RENT,Apartment for rent,,2250.0,1020.0,2.0,,,,,,2.0,2.0,"81-6229 Hind Rd, 81-6229 Hind Rd #203, Captain Cook, HI 96704",81-6229 Hind Rd #203,Captain Cook,HI,96704,19.492887,-155.91428,,False,,,,
617654,FOR_RENT,House for rent,,22000.0,3200.0,7.0,3341200.0,1044.0,7338.0,,,4.0,5.0,"5939 Kalanianaole Hwy, Honolulu, HI 96821",5939 Kalanianaole Hwy,Honolulu,HI,96821,21.282793,-157.72797,,False,,,,
704347,FOR_RENT,House for rent,,3200.0,1434.0,2.0,875600.0,611.0,3471.0,,,3.0,2.0,"2458 Aumakua St, Pearl City, HI 96782",2458 Aumakua St,Pearl City,HI,96782,21.427404,-157.94621,,False,,,,
2083599737,FOR_RENT,Apartment for rent,,1595.0,525.0,3.0,,,1676.0,,,2.0,1.0,"2021 Wilcox Ln APT 2C, Honolulu, HI 96819",2021 Wilcox Ln APT 2C,Honolulu,HI,96819,21.331284,-157.88167,,False,,,,
55837101,FOR_RENT,Townhouse for rent,,4000.0,1300.0,3.0,707500.0,544.0,3893.0,,,3.0,3.0,"91-6590 Kapolei Pkwy, Ewa Beach, HI 96706",91-6590 Kapolei Pkwy,Ewa beach,HI,96706,21.31342,-158.01903,,False,,,,
753979,FOR_RENT,Apartment for rent,,2300.0,,,976900.0,,2648.0,,,2.0,1.0,"209 Auhana Rd, 209 Auhana Rd, Kihei, HI 96753",209 Auhana Rd,Kihei,HI,96753,20.728378,-156.44548,,False,,,,
624447,FOR_RENT,House for rent,,7000.0,2513.0,3.0,2031100.0,808.0,7436.0,,,3.0,3.0,"7882 Makaaoa Pl, Honolulu, HI 96825",7882 Makaaoa Pl,Honolulu,HI,96825,21.294641,-157.66513,,False,,,,
454239581,FOR_RENT,House for rent,,1575.0,,,1028400.0,,,,,2.0,1.0,"946D Winant St, Honolulu, HI 96817",946D Winant St,Honolulu,HI,96817,21.328691,-157.87268,,False,,,,
590891,FOR_RENT,House for rent,,4100.0,890.0,5.0,1057900.0,1189.0,2268.0,,,3.0,2.0,"2454 Pauoa Rd, Honolulu, HI 96813",2454 Pauoa Rd,Honolulu,HI,96813,21.320463,-157.84048,,False,,,,
741567,FOR_RENT,House for rent,,9800.0,4107.0,2.0,2753100.0,670.0,6936.0,,,5.0,5.0,"25 Aloha Aina Pl, Haiku, HI 96708",25 Aloha Aina Pl,Haiku,HI,96708,20.912601,-156.29778,,False,,,,
453518521,FOR_RENT,Apartment for rent,,1900.0,600.0,3.0,,,,,,2.0,1.0,"WaV 225 - 10, 225 Ohai St, Wahiawa, HI 96786",225 Ohai St #10,Wahiawa,HI,96786,21.492525,-158.02902,,False,,,,
453442308,FOR_RENT,House for rent,,4300.0,1840.0,2.0,1328400.0,722.0,,,,3.0,2.0,"78-7110 Kaluna St #PENTHOUSE 7, Kailua Kona, HI 96740",78-7110 Kaluna St #PENTHOUSE 7,Kailua Kona,HI,96740,19.568756,-155.95946,,False,,,,
742623,FOR_RENT,House for rent,,5000.0,1988.0,3.0,1288800.0,648.0,4917.0,,,3.0,3.0,"17 Akumu Way, Wailuku, HI 96793",17 Akumu Way,Wailuku,HI,96793,20.94444,-156.51314,,False,,,,
708533,FOR_RENT,House for rent,,3000.0,,,897900.0,,3223.0,,,3.0,2.0,"98-313 Ponokiwila Pl, Aiea, HI 96701",98-313 Ponokiwila Pl,Aiea,HI,96701,21.392279,-157.94627,,False,,,,
71667865,FOR_RENT,House for rent,,11000.0,2000.0,6.0,3092000.0,1546.0,4569.0,,,2.0,3.0,"68-1025 N Kaniku Dr APT 413, Kamuela, HI 96743",68-1025 N Kaniku Dr APT 413,Kamuela,HI,96743,19.943472,-155.85684,,False,,,,
442246307,FOR_RENT,House for rent,,2500.0,864.0,3.0,363100.0,420.0,,,,3.0,2.0,"27-255 Road D, Papaikou, HI 96781",27-255 Road D,Papaikou,HI,96781,19.785786,-155.0928,,False,,,,
639240,FOR_RENT,House for rent,,7995.0,2400.0,3.0,1623800.0,677.0,7213.0,,,3.0,2.0,"44-442 Kaneohe Bay Dr, Kaneohe, HI 96744",44-442 Kaneohe Bay Dr,Kaneohe,HI,96744,21.419363,-157.76384,,False,,,,
452697331,FOR_RENT,Apartment for rent,,3350.0,,,,,,,,2.0,1.0,"222 Kaiulani Ave #ID1234488P, Honolulu, HI 96815",222 Kaiulani Ave #ID1234488P,Honolulu,HI,96815,21.277912,-157.82375,,False,,,,
2056930705,FOR_RENT,House for rent,,3200.0,972.0,3.0,1065100.0,1096.0,4227.0,,,3.0,1.0,"445A Ulupaina St, Kailua, HI 96734",445A Ulupaina St,Kailua,HI,96734,21.40109,-157.74542,,False,,,,
82426412,FOR_RENT,Apartment for rent,,6000.0,1129.0,5.0,,,6583.0,,,2.0,2.0,"2943 Kalakaua Ave APT 708, Honolulu, HI 96815",2943 Kalakaua Ave APT 708,Honolulu,HI,96815,21.261066,-157.82062,,False,,,,
743309,FOR_RENT,House for rent,,4200.0,1608.0,3.0,1028800.0,640.0,4673.0,,,3.0,3.0,"800 Kolani Pl, Wailuku, HI 96793",800 Kolani Pl,Wailuku,HI,96793,20.912802,-156.49686,,False,,,,
72207443,FOR_RENT,Apartment for rent,,2500.0,760.0,3.0,497600.0,655.0,2566.0,,,2.0,2.0,"92-915 Hame Pl #20202, Kapolei, HI 96707",92-915 Hame Pl #20202,Kapolei,HI,96707,21.362177,-158.08356,,False,,,,
665525,FOR_RENT,House for rent,,2400.0,1100.0,2.0,957200.0,870.0,2462.0,,,3.0,2.0,"87-228A Saint Johns Rd, Waianae, HI 96792",87-228A Saint Johns Rd,Waianae,HI,96792,21.418419,-158.17267,,False,,,,
63023819,FOR_RENT,House for rent,,19999.0,2024.0,10.0,2901700.0,1434.0,4638.0,,,4.0,4.0,"58-126 Napoonala Pl, Haleiwa, HI 96712",58-126 Napoonala Pl,Haleiwa,HI,96712,21.68255,-158.03104,,False,,,,
2058442046,FOR_RENT,Apartment for rent,,1425.0,360.0,4.0,,,1756.0,,,1.0,1.0,"1646-H, 1475 Thurston Ave #14, Honolulu, HI 96822",1475 Thurston Ave #14,Honolulu,HI,96822,21.306532,-157.84554,,False,,,,
88918156,FOR_RENT,House for rent,,4900.0,992.0,5.0,1364800.0,1376.0,4127.0,,,2.0,2.0,"111 Paia Pohaku St #A, Lahaina, HI 96761",111 Paia Pohaku St #A,Lahaina,HI,96761,20.852402,-156.6389,,False,,,,
450862407,FOR_RENT,Apartment for rent,,10590.0,,,,,,,,1.0,2.0,"2381 S Kihei Rd #ID1035938P, Kihei, HI 96753",2381 S Kihei Rd #ID1035938P,Kihei,HI,96753,20.720877,-156.44672,,False,,,,
634594,FOR_RENT,House for rent,,6900.0,2500.0,3.0,2873700.0,1149.0,6945.0,,,4.0,3.0,"575 N Kalaheo Ave, Kailua, HI 96734",575 N Kalaheo Ave,Kailua,HI,96734,21.41065,-157.74489,,False,,,,
450851575,FOR_RENT,Apartment for rent,,9100.0,,,,,,,,1.0,1.0,"190 Hauoli St #ID1036014P, Wailuku, HI 96793",190 Hauoli St #ID1036014P,Wailuku,HI,96793,20.795448,-156.50664,,False,,,,
450890742,FOR_RENT,Apartment for rent,,15310.0,,,,,,,,2.0,2.0,"938 S Kihei Rd #ID1035861P, Kihei, HI 96753",938 S Kihei Rd #ID1035861P,Kihei,HI,96753,20.759502,-156.45808,,False,,,,
69854700,FOR_RENT,House for rent,,7500.0,2508.0,3.0,1707600.0,681.0,6690.0,,,4.0,4.0,"1192 Kaena St, Kalaheo, HI 96741",1192 Kaena St,Kalaheo,HI,96741,21.902979,-159.52269,,False,,,,
666092,FOR_RENT,Townhouse for rent,,4000.0,1500.0,3.0,700300.0,467.0,4506.0,,,3.0,2.0,"87-1450 Farrington Hwy, Waianae, HI 96792",87-1450 Farrington Hwy,Waianae,HI,96792,21.397549,-158.1647,,False,,,,
680866,FOR_RENT,House for rent,,10000.0,2824.0,4.0,1352500.0,479.0,7418.0,,,5.0,4.0,"92-321 Hookili Pl, Kapolei, HI 96707",92-321 Hookili Pl,Kapolei,HI,96707,21.364155,-158.08095,,False,,,,
452104696,FOR_RENT,Apartment for rent,,1900.0,600.0,3.0,,,,,,1.0,1.0,"339 Moi Place - B, 339 Moi Pl, Kihei, HI 96753",339 Moi Pl #B,Kihei,HI,96753,20.77899,-156.451,,False,,,,
450856111,FOR_RENT,House for rent,,3650.0,808.0,5.0,997100.0,1234.0,,,,2.0,1.0,"1615 Olinda Rd, Makawao, HI 96768",1615 Olinda Rd,Makawao,HI,96768,20.820976,-156.29166,,False,,,,
634758,FOR_RENT,House for rent,,5500.0,,,2755000.0,,6784.0,,,3.0,2.0,"145 Kapaa St, Kailua, HI 96734",145 Kapaa St,Kailua,HI,96734,21.40379,-157.74223,,False,,,,
117902625,FOR_RENT,House for rent,,6100.0,2661.0,2.0,1712800.0,644.0,5325.0,,,4.0,3.0,"91-1354 Kaiokia St, Ewa Beach, HI 96706",91-1354 Kaiokia St,Ewa Beach,HI,96706,21.313593,-158.03435,,False,,,,
755522,FOR_RENT,Townhouse for rent,,3500.0,1400.0,3.0,1250400.0,893.0,3777.0,,,3.0,2.0,"1772 Hoonanea St, Kihei, HI 96753",1772 Hoonanea St,Kihei,HI,96753,20.738003,-156.44926,,False,,,,
745899,FOR_RENT,Townhouse for rent,,3300.0,,,609100.0,,3269.0,,,3.0,2.0,"10 Piwai Ln #45-104, Wailuku, HI 96793",10 Piwai Ln #45-104,Wailuku,HI,96793,20.898817,-156.49321,,False,,,,
2069222692,FOR_RENT,Apartment for rent,,8000.0,1802.0,4.0,2390000.0,1326.0,6061.0,,,3.0,3.0,"173 Holokahiki Ln #102, Kihei, HI 96753",173 Holokahiki Ln #102,Kihei,HI,96753,20.676426,-156.4396,,False,,,,
637539,FOR_RENT,House for rent,,18500.0,3723.0,5.0,3780900.0,1016.0,7457.0,,,4.0,3.0,"145 Kaimoani Way, Kailua, HI 96734",145 Kaimoani Way,Kailua,HI,96734,21.421904,-157.7452,,False,,,,
443995839,FOR_RENT,Apartment for rent,,2000.0,600.0,3.0,,,,,,2.0,1.0,"Makaha Villas - 07, 84-1111 Hana St, Waianae, HI 96792",84-1111 Hana St #7,Waianae,HI,96792,21.46166,-158.2076,,False,,,,
622912,FOR_RENT,Apartment for rent,,3950.0,1093.0,4.0,766000.0,701.0,3732.0,,,3.0,2.0,"995 Awaawaanoa Pl UNIT B, Honolulu, HI 96825",995 Awaawaanoa Pl UNIT B,Honolulu,HI,96825,21.30248,-157.68599,,False,,,,
563492,FOR_RENT,House for rent,,3300.0,1076.0,3.0,941700.0,875.0,3038.0,,,3.0,2.0,"64-5330 Hohola Dr, Kamuela, HI 96743",64-5330 Hohola Dr,Kamuela,HI,96743,20.042477,-155.63513,,False,,,,
450862393,FOR_RENT,Apartment for rent,,9590.0,,,,,,,,1.0,1.0,"4471 Lower Honoapiilani Rd #ID1035933P, Lahaina, HI 96761",4471 Lower Honoapiilani Rd #ID1035933P,Lahaina,HI,96761,20.974749,-156.67862,,False,,,,
59790892,FOR_RENT,House for rent,,65000.0,4705.0,14.0,5956700.0,1266.0,8145.0,,,6.0,6.0,"5641 Kalanianaole Hwy, Honolulu, HI 96821",5641 Kalanianaole Hwy,Honolulu,HI,96821,21.280317,-157.7388,,False,,,,
2079997088,FOR_RENT,Townhouse for rent,,4700.0,1532.0,3.0,1483800.0,969.0,4694.0,,,2.0,3.0,"348F Kaelepulu Dr #1, Kailua, HI 96734",348F Kaelepulu Dr #1,Kailua,HI,96734,21.386068,-157.72124,,False,,,,
455080453,FOR_RENT,House for rent,,4000.0,559.0,7.0,939200.0,1680.0,,,,1.0,1.0,"452 Dune Cir #A, Kailua, HI 96734",452 Dune Cir #A,Kailua,HI,96734,21.405895,-157.7416,,False,,,,
592349,FOR_RENT,House for rent,,21000.0,5500.0,4.0,4202500.0,764.0,7563.0,,,4.0,6.0,"(undisclosed Address), Honolulu, HI 96817",(undisclosed Address),Honolulu,HI,96817,,,,False,,,,
652800,FOR_RENT,House for rent,,11500.0,1500.0,8.0,1988800.0,1326.0,4246.0,,,3.0,2.0,"55-551 Kamehameha Hwy, Laie, HI 96762",55-551 Kamehameha Hwy,Laie,HI,96762,21.648281,-157.9226,,False,,,,
250259336,FOR_RENT,House for rent,,4100.0,1322.0,3.0,903100.0,683.0,4316.0,,,4.0,3.0,"91-1160 Kamakana St UNIT 611, Ewa Beach, HI 96706",91-1160 Kamakana St UNIT 611,Ewa Beach,HI,96706,21.32184,-158.03339,,False,,,,
450851591,FOR_RENT,Apartment for rent,,13910.0,,,,,,,,2.0,2.0,"1299 Uluniu Rd #ID1035894P, Kihei, HI 96753",1299 Uluniu Rd #ID1035894P,Kihei,HI,96753,20.748167,-156.45665,,False,,,,
88920474,FOR_RENT,Apartment for rent,,6900.0,1796.0,4.0,2374100.0,1322.0,6201.0,,,3.0,3.0,"156 Kainui Loop, Kihei, HI 96753",156 Kainui Loop,Kihei,HI,96753,20.693085,-156.43733,,False,,,,
2125712892,FOR_RENT,Townhouse for rent,,3700.0,1799.0,2.0,988000.0,549.0,3761.0,,,3.0,3.0,"1294 Moanalualani Ct APT D, Honolulu, HI 96819",1294 Moanalualani Ct APT D,Honolulu,HI,96819,21.365969,-157.89957,,False,,,,
63023851,FOR_RENT,House for rent,,6000.0,1200.0,5.0,1357700.0,1131.0,3877.0,,,3.0,1.0,"59-638 Kamehameha Hwy APT A, Haleiwa, HI 96712",59-638 Kamehameha Hwy APT A,Haleiwa,HI,96712,21.65331,-158.06046,,False,,,,
138303585,FOR_RENT,House for rent,,2000.0,,,501900.0,,1816.0,,,2.0,1.0,"172 Alaloa Rd, Hilo, HI 96720",172 Alaloa Rd,Hilo,HI,96720,19.66023,-155.10022,,False,,,,
633865,FOR_RENT,House for rent,,9600.0,2076.0,5.0,2813200.0,1355.0,9169.0,,,3.0,3.0,"19 Alala Rd, Kailua, HI 96734",19 Alala Rd,Kailua,HI,96734,21.394453,-157.72275,,False,,,,
758610,FOR_RENT,House for rent,,17000.0,4086.0,4.0,3169100.0,776.0,7693.0,,,6.0,5.0,"250 Akia Pl, Lahaina, HI 96761",250 Akia Pl,Lahaina,HI,96761,20.925194,-156.68283,,False,,,,
452147695,FOR_RENT,Apartment for rent,,2100.0,800.0,3.0,,,,,,3.0,1.0,"85-869 Piliuka Pl, 85-869 Piliuka Pl #3BDR, Waianae, HI 96792",85-869 Piliuka Pl #3BDR,Waianae,HI,96792,21.458494,-158.17026,,False,,,,
147844238,FOR_RENT,Townhouse for rent,,3800.0,1165.0,3.0,856100.0,735.0,4118.0,,,3.0,2.0,"15 E Kuu Aku Ln UNIT 108, Lahaina, HI 96761",15 E Kuu Aku Ln UNIT 108,Lahaina,HI,96761,20.884197,-156.67989,,False,,,,
2060301430,FOR_RENT,Apartment for rent,,1550.0,864.0,2.0,254200.0,294.0,1551.0,,,2.0,1.0,"16-2007 34th Ave #2, Keaau, HI 96749",16-2007 34th Ave #2,Keaau,HI,96749,19.543226,-154.97803,,False,,,,
51613154,FOR_RENT,House for rent,,3800.0,1403.0,3.0,812300.0,579.0,4484.0,,,4.0,3.0,"91-207 Niuhiwa Pl #86, Ewa Beach, HI 96706",91-207 Niuhiwa Pl #86,Ewa Beach,HI,96706,21.340816,-158.02391,,False,,,,
633717,FOR_RENT,House for rent,,60000.0,6700.0,9.0,9174000.0,1369.0,23032.0,,,5.0,7.0,"896 Mokulua Dr, Kailua, HI 96734",896 Mokulua Dr,Kailua,HI,96734,21.393496,-157.71707,,False,,,,
680875,FOR_RENT,House for rent,,4250.0,1896.0,2.0,1113400.0,587.0,4320.0,,,3.0,3.0,"92-308 Kewai Pl, Kapolei, HI 96707",92-308 Kewai Pl,Kapolei,HI,96707,21.364054,-158.08034,,False,,,,
655115,FOR_RENT,House for rent,,30000.0,3055.0,10.0,5800500.0,1899.0,7877.0,,,4.0,4.0,"61-815 Papailoa Rd, Haleiwa, HI 96712",61-815 Papailoa Rd,Haleiwa,HI,96712,21.6115,-158.09508,,False,,,,
450851581,FOR_RENT,Apartment for rent,,7590.0,,,,,,,,1.0,1.0,"678 S Kihei Rd #ID1035895P, Kihei, HI 96753",678 S Kihei Rd #ID1035895P,Kihei,HI,96753,20.765137,-156.45836,,False,,,,
452943047,FOR_RENT,Apartment for rent,,2400.0,700.0,3.0,,,,,,3.0,1.0,"WCV - Hanalei 1 - #C, 84-917 Hanalei St, Waianae, HI 96792",84-917 Hanalei St #C,Waianae,HI,96792,21.464952,-158.21085,,False,,,,
610490,FOR_RENT,House for rent,,20000.0,7470.0,3.0,6486300.0,868.0,8962.0,,,5.0,7.0,"4017 Black Point Rd, Honolulu, HI 96816",4017 Black Point Rd,Honolulu,HI,96816,21.259005,-157.79358,,False,,,,
655091,FOR_RENT,House for rent,,17000.0,2750.0,6.0,5419400.0,1971.0,7565.0,,,5.0,4.0,"61-715 Papailoa Rd, Haleiwa, HI 96712",61-715 Papailoa Rd,Haleiwa,HI,96712,21.614471,-158.09071,,False,,,,
610559,FOR_RENT,House for rent,,15000.0,2079.0,7.0,3533200.0,1699.0,7327.0,,,4.0,4.0,"4584 Kahala Ave, Honolulu, HI 96816",4584 Kahala Ave,Honolulu,HI,96816,21.26394,-157.78474,,False,,,,
633676,FOR_RENT,House for rent,,12000.0,2188.0,5.0,2719200.0,1243.0,4500.0,,,4.0,3.0,"149A Haokea Dr, Kailua, HI 96734",149A Haokea Dr,Kailua,HI,96734,21.388994,-157.71552,,False,,,,
63022802,FOR_RENT,House for rent,,16000.0,2400.0,7.0,2578800.0,1075.0,6304.0,,,4.0,3.0,"1459 Aalapapa Dr, Kailua, HI 96734",1459 Aalapapa Dr,Kailua,HI,96734,21.383013,-157.71135,,False,,,,
2093562778,FOR_RENT,House for rent,,13000.0,6232.0,2.0,5965000.0,957.0,7237.0,,,4.0,5.0,"4538 Kahala Ave, Honolulu, HI 96816",4538 Kahala Ave,Honolulu,HI,96816,21.262888,-157.78633,,False,,,,
447615616,FOR_RENT,Apartment for rent,,6750.0,1312.0,5.0,1217000.0,928.0,,,,3.0,2.0,"71 Gateway Pl UNIT 7-104, Kihei, HI 96753",71 Gateway Pl UNIT 7-104,Kihei,HI,96753,20.765133,-156.42526,,False,,,,
633645,FOR_RENT,House for rent,,16800.0,2504.0,7.0,3631900.0,1450.0,7662.0,,,4.0,4.0,"1036 Mokulua Dr, Kailua, HI 96734",1036 Mokulua Dr,Kailua,HI,96734,21.390545,-157.71474,,False,,,,
138344180,FOR_RENT,House for rent,,2350.0,1056.0,2.0,325100.0,308.0,2152.0,,,3.0,2.0,"92-663 Prince Kuhio Blvd, Ocean View, HI 96704",92-663 Prince Kuhio Blvd,Ocean View,HI,96704,19.043594,-155.79791,,False,,,,
657123,FOR_RENT,House for rent,,15000.0,,,4949800.0,,6384.0,,,3.0,4.0,"68-555 Crozier Dr, Waialua, HI 96791",68-555 Crozier Dr,Waialua,HI,96791,21.580223,-158.15288,,False,,,,
655071,FOR_RENT,House for rent,,50000.0,5836.0,9.0,5714300.0,979.0,9049.0,,,5.0,7.0,"61-205 Kamehameha Hwy, Haleiwa, HI 96712",61-205 Kamehameha Hwy,Haleiwa,HI,96712,21.63337,-158.07016,,False,,,,
545519,FOR_RENT,House for rent,,3500.0,,,1047100.0,,3315.0,,,3.0,3.0,"210 Laehala St, Hilo, HI 96720",210 Laehala St,Hilo,HI,96720,19.73561,-155.03288,,False,,,,
449932823,FOR_RENT,House for rent,,5500.0,1456.0,4.0,1114500.0,765.0,,,,4.0,3.0,"21 Oliona St, Makawao, HI 96768",21 Oliona St,Makawao,HI,96768,20.841639,-156.32541,,False,,,,
456211258,FOR_RENT,Apartment for rent,,1785.0,600.0,3.0,,,,,,1.0,1.0,"62-2283 Kanehoa St #3, Kamuela, HI 96743",62-2283 Kanehoa St #3,Kamuela,HI,96743,20.02045,-155.74377,,False,,,,
2071687261,FOR_RENT,House for rent,,2550.0,800.0,3.0,1109300.0,1387.0,3986.0,,,2.0,1.0,"1412 Kealia Dr, Honolulu, HI 96817",1412 Kealia Dr,Honolulu,HI,96817,21.334608,-157.8628,,False,,,,
121073518,FOR_RENT,House for rent,,4000.0,1500.0,3.0,1302400.0,868.0,5334.0,,,2.0,2.0,"1491 W Kuiaha Rd, Haiku, HI 96708",1491 W Kuiaha Rd,Haiku,HI,96708,20.896496,-156.30052,,False,,,,
735456,FOR_RENT,Apartment for rent,,3000.0,1000.0,3.0,1282400.0,1282.0,5089.0,,,2.0,1.0,"811 Malulani St, Kihei, HI 96753",811 Malulani St,Kihei,HI,96753,20.761652,-156.45122,,False,,,,
2079273704,FOR_RENT,Apartment for rent,,1750.0,,,,,1354.0,,,1.0,1.0,"641 Hausten St #B, Honolulu, HI 96826",641 Hausten St #B,Honolulu,HI,96826,21.288475,-157.82582,,False,,,,
663403,FOR_RENT,House for rent,,1600.0,400.0,4.0,689900.0,1725.0,3598.0,,,1.0,1.0,"85-716 Piliuka Pl, Waianae, HI 96792",85-716 Piliuka Pl,Waianae,HI,96792,21.461536,-158.173,,False,,,,
118315679,FOR_RENT,House for rent,,7500.0,6267.0,1.0,2954400.0,471.0,8428.0,,,4.0,5.0,"71-1714 Puu Napoo Dr, Kailua Kona, HI 96740",71-1714 Puu Napoo Dr,Kailua Kona,HI,96740,19.809717,-155.83563,,False,,,,
623567,FOR_RENT,House for rent,,7700.0,2500.0,3.0,1706700.0,683.0,7360.0,,,4.0,3.0,"927 Hahaione St, Honolulu, HI 96825",927 Hahaione St,Honolulu,HI,96825,21.307747,-157.7111,,False,,,,
456206186,FOR_RENT,Townhouse for rent,,2100.0,547.0,4.0,,,,,,1.0,1.0,"393 Mananai Pl #T, Honolulu, HI 96818",393 Mananai Pl #T,Honolulu,HI,96818,21.369137,-157.92526,,False,,,,
82478680,FOR_RENT,House for rent,,13000.0,1550.0,8.0,2389600.0,1542.0,6927.0,,,2.0,2.0,"2987 Kalakaua Ave APT 705, Honolulu, HI 96815",2987 Kalakaua Ave APT 705,Honolulu,HI,96815,21.259895,-157.81961,,False,,,,
456125711,FOR_RENT,Apartment for rent,,3600.0,1600.0,2.0,,,,,,3.0,2.0,"(undisclosed Address), Hauula, HI 96717",(undisclosed Address),Hauula,HI,96717,,,,False,,,,
456203016,FOR_RENT,Apartment for rent,,2900.0,2100.0,1.0,,,,,,2.0,1.0,"(undisclosed Address), Pahoa, HI 96778",(undisclosed Address),Pahoa,HI,96778,,,,False,,,,
558640,FOR_RENT,House for rent,,2700.0,1652.0,2.0,448000.0,271.0,2260.0,,,2.0,1.0,"28-245 Kalani Loop Rd, Honomu, HI 96728",28-245 Kalani Loop Rd,Honomu,HI,96728,19.869139,-155.11469,,False,,,,
2111980599,FOR_RENT,House for rent,,16000.0,4000.0,4.0,2200000.0,550.0,7261.0,,,5.0,5.0,"(undisclosed Address), Waialua, HI 96791",(undisclosed Address),Waialua,HI,96791,,,,False,,,,
600091,FOR_RENT,House for rent,,2500.0,600.0,4.0,1386000.0,2310.0,2908.0,,,1.0,1.0,"(undisclosed Address), Honolulu, HI 96815",(undisclosed Address),Honolulu,HI,96815,,,,False,,,,
456187371,FOR_RENT,Apartment for rent,,2100.0,1498.0,1.0,,,,,,3.0,2.0,"15-2726 Akule St #A, Pahoa, HI 96778",15-2726 Akule St #A,Pahoa,HI,96778,19.529535,-154.92216,,False,,,,
572614,FOR_RENT,House for rent,,2800.0,,,1068100.0,,3231.0,,,2.0,1.0,"(undisclosed Address), Kailua Kona, HI 96740",(undisclosed Address),Kailua Kona,HI,96740,,,,False,,,,
402247724,FOR_RENT,Apartment for rent,,2000.0,864.0,2.0,,,,,,1.0,2.0,"15-2024 23rd Ave #2, Keaau, HI 96749",15-2024 23rd Ave #2,Keaau,HI,96749,19.566742,-154.97078,,False,,,,
748290,FOR_RENT,House for rent,,2500.0,500.0,5.0,1075000.0,2150.0,2599.0,,,2.0,1.0,"86 W Kauai St, Kahului, HI 96732",86 W Kauai St,Kahului,HI,96732,20.881907,-156.46573,,False,,,,
722314,FOR_RENT,House for rent,,5995.0,1050.0,6.0,1037500.0,988.0,4848.0,,,3.0,2.0,"2425 Kipuka St, Koloa, HI 96756",2425 Kipuka St,Koloa,HI,96756,21.879759,-159.45178,,False,,,,
637555,FOR_RENT,House for rent,,18000.0,2680.0,7.0,3455600.0,1289.0,7169.0,,,5.0,3.0,"165 Kailuana Loop, Kailua, HI 96734",165 Kailuana Loop,Kailua,HI,96734,21.418129,-157.74567,,False,,,,
304660266,FOR_RENT,House for rent,,18000.0,6000.0,3.0,3294800.0,549.0,7623.0,,,4.0,5.0,"(undisclosed Address), Kula, HI 96790",(undisclosed Address),Kula,HI,96790,,,,False,,,,
68132260,FOR_RENT,House for rent,,6850.0,1873.0,4.0,1132900.0,605.0,3889.0,,,5.0,3.0,"42 Henohea Pl, Kahului, HI 96732",42 Henohea Pl,Kahului,HI,96732,20.861267,-156.48006,,False,,,,
455771979,FOR_RENT,Apartment for rent,,4500.0,2240.0,2.0,,,,,,4.0,3.0,"314 Niihau St #3, Kahului, HI 96732",314 Niihau St #3,Kahului,HI,96732,20.880642,-156.47162,,False,,,,
617613,FOR_RENT,House for rent,,19950.0,1840.0,11.0,2997300.0,1629.0,6064.0,,,4.0,4.0,"230 Paiko Dr, Honolulu, HI 96821",230 Paiko Dr,Honolulu,HI,96821,21.281511,-157.72855,,False,,,,
456122285,FOR_RENT,Apartment for rent,,3500.0,1300.0,3.0,,,,,,2.0,1.0,"543 Kainalu Pl #1, Wailuku, HI 96793",543 Kainalu Pl #1,Wailuku,HI,96793,20.9042,-156.4817,,False,,,,
657206,FOR_RENT,House for rent,,18000.0,3500.0,5.0,2185100.0,624.0,7788.0,,,6.0,4.0,"(undisclosed Address), Waialua, HI 96791",(undisclosed Address),Waialua,HI,96791,,,,False,,,,
533730,FOR_RENT,House for rent,,1600.0,900.0,2.0,295800.0,329.0,2634.0,,,2.0,1.0,"(undisclosed Address), Pahoa, HI 96778",(undisclosed Address),Pahoa,HI,96778,,,,False,,,,
442112831,FOR_RENT,Apartment for rent,,4500.0,600.0,8.0,,,,,,1.0,1.0,"(undisclosed Address), Haleiwa, HI 96712",(undisclosed Address),Haleiwa,HI,96712,,,,False,,,,
456205723,FOR_RENT,House for rent,,3200.0,1400.0,2.0,,,,,,2.0,1.0,"1293 W Kuiaha Rd, Haiku, HI 96708",1293 W Kuiaha Rd,Haiku,HI,96708,20.901794,-156.30377,,False,,,,
69383498,FOR_RENT,House for rent,,1950.0,836.0,2.0,297300.0,356.0,1940.0,,,2.0,1.0,"(undisclosed Address), Keaau, HI 96749",(undisclosed Address),Keaau,HI,96749,,,,False,,,,
456196174,FOR_RENT,House for rent,,3600.0,650.0,6.0,,,,,,1.0,1.0,"465D Kawailoa Rd, Kailua, HI 96734",465D Kawailoa Rd,Kailua,HI,96734,21.393686,-157.72256,,False,,,,
737828,FOR_RENT,Apartment for rent,,2450.0,860.0,3.0,,,2330.0,,,1.0,1.0,"(undisclosed Address), Makawao, HI 96768",(undisclosed Address),Makawao,HI,96768,,,,False,,,,
456120893,FOR_RENT,Apartment for rent,,1600.0,600.0,3.0,,,,,,1.0,1.0,"85-003 Pokai Bay St APT 304, Waianae, HI 96792",85-003 Pokai Bay St APT 304,Waianae,HI,96792,21.4411,-158.1885,,False,,,,
456204528,FOR_RENT,Townhouse for rent,,4850.0,1750.0,3.0,,,,,,3.0,3.0,"404 Koko Isle Cir #1803, Honolulu, HI 96825",404 Koko Isle Cir #1803,Honolulu,HI,96825,21.282637,-157.70598,,False,,,,
651822,FOR_RENT,House for rent,,3500.0,700.0,5.0,1163000.0,1661.0,4321.0,,,2.0,1.0,"53-898 Kamehameha Hwy, Hauula, HI 96717",53-898 Kamehameha Hwy,Hauula,HI,96717,21.604166,-157.90054,,False,,,,
347368454,FOR_RENT,Apartment for rent,,1600.0,400.0,4.0,,,1966.0,,,1.0,1.0,"99506A Mikioi Pl #1, Aiea, HI 96701",99506A Mikioi Pl #1,Aiea,HI,96701,21.384226,-157.91454,,False,,,,
737367,FOR_RENT,House for rent,,5000.0,2000.0,3.0,1210100.0,605.0,2603.0,,,3.0,3.0,"300 Hokulani St, Makawao, HI 96768",300 Hokulani St,Makawao,HI,96768,20.835726,-156.34952,,False,,,,
755749,FOR_RENT,Apartment for rent,,6700.0,1400.0,5.0,1628700.0,1163.0,4181.0,,,3.0,2.0,"2570 Hunakai St, Kihei, HI 96753",2570 Hunakai St,Kihei,HI,96753,20.716955,-156.43976,,False,,,,
455822742,FOR_RENT,Apartment for rent,,2950.0,950.0,3.0,,,,,,1.0,1.0,"(undisclosed Address), Kihei, HI 96753",(undisclosed Address),Kihei,HI,96753,,,,False,,,,
147794772,FOR_RENT,House for rent,,3200.0,700.0,5.0,520800.0,744.0,2902.0,,,2.0,1.0,"(undisclosed Address), Hana, HI 96713",(undisclosed Address),Hana,HI,96713,,,,False,,,,
82491084,FOR_RENT,Apartment for rent,,2400.0,681.0,4.0,391900.0,575.0,2330.0,,,1.0,2.0,"(undisclosed Address), Honolulu, HI 96822",(undisclosed Address),Honolulu,HI,96822,,,,False,,,,
2078479954,FOR_RENT,House for rent,,1775.0,500.0,4.0,,,1650.0,,,1.0,1.0,"87-2439 Mamalahoa Hwy, Captain Cook, HI 96704",87-2439 Mamalahoa Hwy,Captain Cook,HI,96704,19.268614,-155.87639,,False,,,,
752482,FOR_RENT,Apartment for rent,,5000.0,1127.0,4.0,734700.0,652.0,3791.0,,,3.0,2.0,"(undisclosed Address), Kihei, HI 96753",(undisclosed Address),Kihei,HI,96753,,,,False,,,,
456094246,FOR_RENT,Apartment for rent,,4000.0,800.0,5.0,,,,,,1.0,1.0,"59-178 Kamehameha Hwy #C2, Haleiwa, HI 96712",59-178 Kamehameha Hwy #C2,Haleiwa,HI,96712,21.67117,-158.0406,,False,,,,
92358571,FOR_RENT,Townhouse for rent,,4200.0,1841.0,2.0,847500.0,460.0,4989.0,,,3.0,2.0,"510 Kunehi St APT 102, Kapolei, HI 96707",510 Kunehi St APT 102,Kapolei,HI,96707,21.327091,-158.07405,,False,,,,
455940976,FOR_RENT,Apartment for rent,,3300.0,1000.0,3.0,,,,,,2.0,2.0,"84-245 Farrington Hwy #A, Waianae, HI 96792",84-245 Farrington Hwy #A,Waianae,HI,96792,21.478746,-158.22412,,False,,,,
2087696285,FOR_RENT,Apartment for rent,,6900.0,1248.0,6.0,,,2294.0,,,2.0,2.0,"71 Wailea Gateway Pl UNIT 102, Kihei, HI 96753",71 Wailea Gateway Pl UNIT 102,Kihei,HI,96753,20.689005,-156.43192,,False,,,,
448255025,FOR_RENT,Apartment for rent,,3950.0,1200.0,3.0,,,,,,2.0,2.0,"(undisclosed Address), Kihei, HI 96753",(undisclosed Address),Kihei,HI,96753,,,,False,,,,
2077505093,FOR_RENT,House for rent,,4000.0,1600.0,3.0,749600.0,469.0,3961.0,,,3.0,2.0,"(undisclosed Address), Ninole, HI 96773",(undisclosed Address),Ninole,HI,96773,,,,False,,,,
456205911,FOR_RENT,Townhouse for rent,,3500.0,1032.0,3.0,,,,,,2.0,2.0,"1447 Hunakai St, Honolulu, HI 96816",1447 Hunakai St,Honolulu,HI,96816,21.281624,-157.78624,,False,,,,
2064782705,FOR_RENT,Apartment for rent,,6950.0,1100.0,6.0,,,5705.0,,,2.0,2.0,"(undisclosed Address), Kapolei, HI 96707",(undisclosed Address),Kapolei,HI,96707,,,,False,,,,
657281,FOR_RENT,House for rent,,8000.0,1553.0,5.0,1191900.0,767.0,7012.0,,,3.0,2.0,"68-664 Hoomana Pl, Waialua, HI 96791",68-664 Hoomana Pl,Waialua,HI,96791,21.579796,-158.17696,,False,,,,
370657372,FOR_RENT,Apartment for rent,,1950.0,600.0,3.0,,,1870.0,,,2.0,1.0,"1472 Thurston Ave #404, Honolulu, HI 96822",1472 Thurston Ave #404,Honolulu,HI,96822,21.306944,-157.84567,,False,,,,
754674,FOR_RENT,House for rent,,3995.0,1303.0,3.0,811000.0,622.0,3917.0,,,3.0,1.0,"36 Koki Pl, Kihei, HI 96753",36 Koki Pl,Kihei,HI,96753,20.773144,-156.4558,,False,,,,
455626555,FOR_RENT,Apartment for rent,,9500.0,2500.0,4.0,,,,,,5.0,4.0,"67-309 Kiapoko Pl #B, Waialua, HI 96791",67-309 Kiapoko Pl #B,Waialua,HI,96791,21.581835,-158.12837,,False,,,,
2066568300,FOR_RENT,House for rent,,4000.0,1100.0,4.0,,,2348.0,,,2.0,3.0,"87-2451 Hawaii Belt Rd, Captain Cook, HI 96704",87-2451 Hawaii Belt Rd,Captain Cook,HI,96704,19.269522,-155.87563,,False,,,,
2103720718,FOR_RENT,Apartment for rent,,2500.0,585.0,4.0,448200.0,766.0,2198.0,,,1.0,1.0,"444 Nahua St, Honolulu, HI 96815",444 Nahua St,Honolulu,HI,96815,21.280216,-157.82487,,False,,,,
2062220334,FOR_RENT,Apartment for rent,,4995.0,1233.0,4.0,,,2665.0,,,2.0,2.0,"10 Upena Ln APT 202, Kihei, HI 96753",10 Upena Ln APT 202,Kihei,HI,96753,20.721354,-156.44498,,False,,,,
455434645,FOR_RENT,Apartment for rent,,5450.0,1300.0,4.0,,,,,,4.0,2.0,"22 Koki Pl #B, Kihei, HI 96753",22 Koki Pl #B,Kihei,HI,96753,20.772985,-156.45615,,False,,,,
2098200065,FOR_RENT,House for rent,,6500.0,1600.0,4.0,1547200.0,967.0,7370.0,,,4.0,3.0,"53-050 Halai St, Hauula, HI 96717",53-050 Halai St,Hauula,HI,96717,21.6036,-157.9044,,False,,,,
68132128,FOR_RENT,House for rent,,5188.0,1632.0,3.0,1243600.0,762.0,5145.0,,,4.0,3.0,"22 Luakaha Cir, Kihei, HI 96753",22 Luakaha Cir,Kihei,HI,96753,20.755415,-156.44977,,False,,,,
441772098,FOR_RENT,Apartment for rent,,2800.0,650.0,4.0,,,,,,2.0,1.0,"2745 Kapiolani Blvd #406, Honolulu, HI 96826",2745 Kapiolani Blvd #406,Honolulu,HI,96826,21.287674,-157.81892,,False,,,,
2126626442,FOR_RENT,House for rent,,9000.0,2369.0,4.0,,,4862.0,,,3.0,3.0,"71 Poailani Pl, Wailea, HI 96753",71 Poailani Pl,Wailea,HI,96753,20.704912,-156.43564,,False,,,,
456191586,FOR_RENT,Apartment for rent,,2800.0,1200.0,2.0,,,,,,3.0,1.0,"1446 Alewa Dr #A, Honolulu, HI 96817",1446 Alewa Dr #A,Honolulu,HI,96817,21.336824,-157.85184,,False,,,,
452941934,FOR_RENT,Apartment for rent,,3995.0,1000.0,4.0,,,,,,2.0,1.0,"41 Oheala Pl UNIT A, Makawao, HI 96768",41 Oheala Pl UNIT A,Makawao,HI,96768,20.882286,-156.33528,,False,,,,
2122693561,FOR_RENT,Apartment for rent,,2950.0,650.0,5.0,552100.0,849.0,2292.0,,,2.0,1.0,"68-186 Au St APT A, Waialua, HI 96791",68-186 Au St APT A,Waialua,HI,96791,21.582865,-158.1396,,False,,,,
