zpid,Status Type,Status Text,Time On Zillow,rent,Area,Price Per Sqft,Zestimate,Zestimate Price Per Sqft,Rent Zestimate,Lot Area,Lot Area Unit,Beds,Bathrooms,Address,Street,city,State,Zipcode,latitude,longitude,Broker Name,is zillow owned,Sold Date,Sold Price,fips_code,geo_id
452759528,FOR_RENT,Apartment for rent,,1700.0,1012.0,2.0,,,,,,2.0,1.0,"Homestead Village Apartments, 2025 Us Highway 2, Sandpoint, ID 83864",2025 Us Highway 2 #AB54FD183,Sandpoint,ID,83864,48.264053,-116.57304,,False,,,,
455247003,FOR_RENT,Apartment for rent,,1375.0,1065.0,1.0,,,,,,2.0,2.0,"Sage Point Village, 2746 Judy St #1301, Idaho Falls, ID 83406",2746 Judy St #1301,Idaho Falls,ID,83406,43.46382,-111.97923,,False,,,,
2082882537,FOR_RENT,Apartment for rent,,1495.0,544.0,3.0,,,1470.0,,,1.0,1.0,"North Pine Apartments, 3635 N 17th St APT C7, Coeur D Alene, ID 83815",3635 N 17th St APT C7,Coeur D Alene,ID,83815,47.71073,-116.76403,,False,,,,
2055887394,FOR_RENT,Apartment for rent,,1525.0,800.0,2.0,,,1431.0,,,1.0,1.0,"The Betty Apartments, 2550 W Targee St #205, Boise, ID 83705",2550 W Targee St #205,Boise,ID,83705,43.582798,-116.21307,,False,,,,
2079941923,FOR_RENT,Apartment for rent,,1795.0,1036.0,2.0,,,1689.0,,,2.0,2.0,"Parkwood Apartments, 4800 W Clark St #2, Boise, ID 83705",4800 W Clark St #2,Boise,ID,83705,43.59173,-116.24124,,False,,,,
450059781,FOR_RENT,Apartment for rent,,1380.0,803.0,2.0,,,,,,1.0,1.0,"Signature Pointe Apartments, 3509 N Cole Rd, Boise, ID 83704",3509 N Cole Rd #96B4134BF,Boise,ID,83704,43.636963,-116.2769,,False,,,,
454969170,FOR_RENT,Apartment for rent,,1699.0,960.0,2.0,,,,,,2.0,2.0,"Trails End Apartments, 1819 W Legends Pkwy #104, Coeur D Alene, ID 83815",1819 W Legends Pkwy #104,Coeur D Alene,ID,83815,47.703983,-116.81188,,False,,,,
2056322256,FOR_RENT,Apartment for rent,,1700.0,960.0,2.0,,,1628.0,,,2.0,2.0,"Stonesthrow, 4195 E Florence Dr, Meridian, ID 83642",4195 E Florence Dr #4B13499FF,Meridian,ID,83642,43.6166,-116.34221,,False,,,,
349665455,FOR_RENT,Apartment for rent,,1395.0,667.0,2.0,,,1423.0,,,1.0,1.0,"Shaw Mountain, 670 N Avenue H Ave, Boise, ID 83712",670 N Avenue H Ave #746ADA1F2,Boise,ID,83712,43.61425,-116.18311,,False,,,,
440341261,FOR_RENT,Townhouse for rent,,2408.0,1890.0,1.0,,,,,,4.0,3.0,"BB Living The Oaks, 4990 N Palustris Ave #6291, Meridian, ID 83646",4990 N Palustris Ave #6291,Meridian,ID,83646,43.65018,-116.47042,,False,,,,
452255117,FOR_RENT,Apartment for rent,,1600.0,960.0,2.0,,,,,,2.0,2.0,"Cimarron Townhomes, 1201 S Bird St #B, Boise, ID 83709",1201 S Bird St #B,Boise,ID,83709,43.593857,-116.290245,,False,,,,
449657244,FOR_RENT,Apartment for rent,,1399.0,940.0,1.0,,,,,,2.0,2.0,"Canyon Crossing Apartments, 2704 Owyhee St, Caldwell, ID 83605",2704 Owyhee St #3AEE8A0C1,Caldwell,ID,83605,43.666176,-116.66531,,False,,,,
2067991276,FOR_RENT,Apartment for rent,,1990.0,911.0,2.0,,,1458.0,,,1.0,1.0,"The Timbers, 1940 W Riverstone Dr #115, Coeur D Alene, ID 83814",1940 W Riverstone Dr #115,Coeur D Alene,ID,83814,47.696777,-116.81153,,False,,,,
452095302,FOR_RENT,Apartment for rent,,2849.0,300.0,9.0,,,,,,,1.0,"Boise - Airport, 2500 S Vista Ave, Boise, ID 83705",2500 S Vista Ave #828,Boise,ID,83705,43.57973,-116.2128,,False,,,,
451122542,FOR_RENT,Apartment for rent,,1585.0,850.0,2.0,,,,,,2.0,1.0,"Heartwood, 910 E 4th Ave #S305, Post Falls, ID 83854",910 E 4th Ave #S305,Post Falls,ID,83854,47.710514,-116.93542,,False,,,,
452809614,FOR_RENT,Apartment for rent,,1450.0,900.0,2.0,,,,,,2.0,1.0,"Penn Station Apartments, 1300 N Penn Station Ln #1324-101, Meridian, ID 83642",1300 N Penn Station Ln #1324-101,Meridian,ID,83642,43.61746,-116.37783,,False,,,,
2078375031,FOR_RENT,Apartment for rent,,1485.0,1105.0,1.0,,,1508.0,,,2.0,2.0,"Bel Cielo Apartments LLC, 4130 E 16th Ave #D-320, Post Falls, ID 83854",4130 E 16th Ave #D-320,Post Falls,ID,83854,47.722115,-116.892426,,False,,,,
2053832193,FOR_RENT,Apartment for rent,,1625.0,1008.0,2.0,,,1630.0,,,2.0,2.0,"Tree Valley Village Apartments, 2663 N Fastwater Ave, Boise, ID 83713",2663 N Fastwater Ave #7B3837861,Boise,ID,83713,43.62909,-116.33404,,False,,,,
349666000,FOR_RENT,Apartment for rent,,1675.0,1217.0,1.0,,,1626.0,,,3.0,2.0,"Crimson Point, 1832 N Madderlake Pl, Kuna, ID 83634",1832 N Madderlake Pl #78098468,Kuna,ID,83634,43.50492,-116.435326,,False,,,,
440761300,FOR_RENT,Apartment for rent,,508.0,,,,,,,,1.0,1.0,"Prospector Pointe, 2507 Orogrande Ln, Caldwell, ID 83605",2507 Orogrande Ln #1B-1BA,Caldwell,ID,83605,43.662937,-116.68736,,False,,,,
455324339,FOR_RENT,Apartment for rent,,1375.0,660.0,2.0,,,,,,1.0,1.0,"Ponderosa East, 1915 S Vista Ave #1945, Boise, ID 83705",1915 S Vista Ave #1945,Boise,ID,83705,43.585926,-116.21416,,False,,,,
2053194975,FOR_RENT,Apartment for rent,,1475.0,975.0,2.0,,,1502.0,,,2.0,2.0,"Initial Point Apartments, 550 W Deer Flat Rd, Kuna, ID 83634",550 W Deer Flat Rd #625803A2B,Kuna,ID,83634,43.50349,-116.41989,,False,,,,
452060807,FOR_RENT,Apartment for rent,,1375.0,946.0,1.0,,,,,,2.0,1.0,"River Street, 1110 W River St #1130, Boise, ID 83702",1110 W River St #1130,Boise,ID,83702,43.612656,-116.21196,,False,,,,
454065553,FOR_RENT,Apartment for rent,,1850.0,1184.0,2.0,,,,,,3.0,2.0,"Crossfield Apartments, 980 W Parkstone St APT E206, Meridian, ID 83646",980 W Parkstone St APT E206,Meridian,ID,83646,43.633045,-116.40481,,False,,,,
455528471,FOR_RENT,Apartment for rent,,1275.0,890.0,1.0,,,,,,2.0,1.0,"Mesa Falls Apartments, 940 S 5 W #3104, Rexburg, ID 83440",940 S 5 W #3104,Rexburg,ID,83440,43.807087,-111.80194,,False,,,,
455313438,FOR_RENT,Apartment for rent,,1375.0,620.0,2.0,,,,,,1.0,1.0,"Juniper West, 5140 W Blaser Ln #5112, Boise, ID 83705",5140 W Blaser Ln #5112,Boise,ID,83705,43.596325,-116.2451,,False,,,,
2057686592,FOR_RENT,Apartment for rent,,1850.0,1200.0,2.0,,,1950.0,,,2.0,2.0,"Four Points Retreat, 5224 W State St, Boise, ID 83703",5224 W State St #2A3F69A52,Boise,ID,83703,43.653526,-116.25359,,False,,,,
455219031,FOR_RENT,Apartment for rent,,1435.0,1000.0,1.0,,,,,,2.0,1.0,"Quail Park Apartments, 9300 W Glen Ellyn Ln #2376, Boise, ID 83704",9300 W Glen Ellyn Ln #2376,Boise,ID,83704,43.625988,-116.297165,,False,,,,
448627416,FOR_RENT,Apartment for rent,,1146.0,928.0,1.0,,,,,,2.0,2.0,"Maple Grove Apartments, 3157 N Fruitland Ln #3-304, Coeur D Alene, ID 83815",3157 N Fruitland Ln #3-304,Coeur D Alene,ID,83815,47.70626,-116.79518,,False,,,,
2053158100,FOR_RENT,Apartment for rent,,2475.0,895.0,3.0,,,1881.0,,,2.0,1.0,"303 N 2nd ST, 303 N 2nd St APT 6, Boise, ID 83702",303 N 2nd St APT 6,Boise,ID,83702,43.61387,-116.19497,,False,,,,
450059784,FOR_RENT,Apartment for rent,,1210.0,814.0,1.0,,,,,,1.0,1.0,"Birches at Brandt's Landing, 16390 Franklin Rd, Nampa, ID 83687",16390 Franklin Rd #DFF8CA9B8,Nampa,ID,83687,43.610817,-116.55192,,False,,,,
349894807,FOR_RENT,Apartment for rent,,1595.0,1795.0,1.0,,,2166.0,,,3.0,3.0,"Entrata Farms, 3968 W Perugia St, Meridian, ID 83642",3968 W Perugia St #D3C3BF10B,Meridian,ID,83642,43.60605,-116.44295,,False,,,,
2058112952,FOR_RENT,Apartment for rent,,1250.0,900.0,1.0,,,1226.0,,,2.0,2.0,"Colorado Townhomes, 202 E Colorado Ave #208-3, Nampa, ID 83686",202 E Colorado Ave #208-3,Nampa,ID,83686,43.559433,-116.57141,,False,,,,
2054675385,FOR_RENT,Apartment for rent,,1350.0,1066.0,1.0,,,1347.0,,,2.0,1.0,"Kimball Park Apartments, 1110 S Kimball Ave #1114-109, Caldwell, ID 83605",1110 S Kimball Ave #1114-109,Caldwell,ID,83605,43.660103,-116.695625,,False,,,,
452809431,FOR_RENT,Apartment for rent,,1395.0,880.0,2.0,,,,,,2.0,2.0,"Quiet Country Living, 5445-5497 N Pierce Park Ln #85-102, Garden City, ID 83714",5445-5497 N Pierce Park Ln #85-102,Garden City,ID,83714,43.67029,-116.26959,,False,,,,
450909999,FOR_RENT,Apartment for rent,,1850.0,1164.0,2.0,,,,,,3.0,2.0,"Aspen Hills Apartments, 300 E James Court Dr, Meridian, ID 83646",300 E James Court Dr #F137EDC35,Meridian,ID,83646,43.624565,-116.39173,,False,,,,
455232920,FOR_RENT,Apartment for rent,,1435.0,1000.0,1.0,,,,,,2.0,2.0,"Northwoods Apartments, 1810 N Keystone Ct #5, Post Falls, ID 83854",1810 N Keystone Ct #5,Post Falls,ID,83854,47.725933,-116.946144,,False,,,,
2062156255,FOR_RENT,Apartment for rent,,1400.0,989.0,1.0,,,1396.0,,,2.0,2.0,"Lyla's Place Apartments, 500 8th Ave W #2, Jerome, ID 83338",500 8th Ave W #2,Jerome,ID,83338,42.73164,-114.525955,,False,,,,
448037038,FOR_RENT,Apartment for rent,,1650.0,810.0,2.0,,,,,,2.0,1.0,"Somerset Hills, 390 W Crestline Dr #205, Boise, ID 83702",390 W Crestline Dr #205,Boise,ID,83702,43.63233,-116.191216,,False,,,,
449864851,FOR_RENT,Apartment for rent,,1150.0,900.0,1.0,,,,,,2.0,1.0,"The Falls Apartments, 864 Quincy St, Twin Falls, ID 83301",864 Quincy St #0E937B02A,Twin Falls,ID,83301,42.57723,-114.473335,,False,,,,
441967835,FOR_RENT,Apartment for rent,,1325.0,667.0,2.0,,,,,,1.0,1.0,"Springtree Apartments, 121-145 S Springtree Ln #133-302, Boise, ID 83709",121-145 S Springtree Ln #133-302,Boise,ID,83709,43.603317,-116.26546,,False,,,,
2055315414,FOR_RENT,Apartment for rent,,1435.0,835.0,2.0,,,1441.0,,,1.0,1.0,"Milstick Apartments, 3203 N Milwaukee St #102, Boise, ID 83704",3203 N Milwaukee St #102,Boise,ID,83704,43.63426,-116.28465,,False,,,,
452168492,FOR_RENT,Apartment for rent,,1595.0,1026.0,2.0,,,,,,2.0,2.0,"Canfield Lodge, 380 E Kathleen Ave #392-207, Coeur D Alene, ID 83815",380 E Kathleen Ave #392-207,Coeur D Alene,ID,83815,47.7149,-116.77971,,False,,,,
450361245,FOR_RENT,Apartment for rent,,1145.0,950.0,1.0,,,,,,2.0,2.0,"Greenfield Apartments, 4923 W Albion St, Boise, ID 83705",4923 W Albion St #2C060ED7A,Boise,ID,83705,43.598293,-116.241844,,False,,,,
2111787775,FOR_RENT,Apartment for rent,,1495.0,975.0,2.0,460400.0,472.0,1523.0,,,2.0,2.0,"Selkirk Ridge, 117 S Lincoln Ave APT 111, Sandpoint, ID 83864",117 S Lincoln Ave APT 111,Sandpoint,ID,83864,48.272522,-116.57449,,False,,,,
443859434,FOR_RENT,Apartment for rent,,850.0,350.0,2.0,,,,,,,1.0,"Town Center Apartments, 410 N 2 E, Mountain Home, ID 83647",410 N 2 E #0B-1BA-450SQFT,Mountain Home,ID,83647,43.134304,-115.69524,,False,,,,
2060359358,FOR_RENT,House for rent,,2295.0,1420.0,2.0,640600.0,451.0,2390.0,,,3.0,3.0,"Orchard Land Duplexes, 3027 Sherwood Dr #2933, Coeur D Alene, ID 83815",3027 Sherwood Dr #2933,Coeur D Alene,ID,83815,47.704803,-116.83197,,False,,,,
453169558,FOR_RENT,Apartment for rent,,1895.0,1400.0,1.0,,,,,,3.0,3.0,"The Lofts at the Village, 3543 E Tecate Ln #B106, Meridian, ID 83646",3543 E Tecate Ln #B106,Meridian,ID,83646,43.632698,-116.35019,,False,,,,
450058821,FOR_RENT,Apartment for rent,,1275.0,878.0,1.0,,,,,,2.0,1.0,"Conservatory Apartments, 1076 S Denver Ave, Boise, ID 83706",1076 S Denver Ave #593D169FC,Boise,ID,83706,43.600178,-116.19452,,False,,,,
401791109,FOR_RENT,Apartment for rent,,2050.0,1458.0,1.0,,,,,,3.0,3.0,"Bradbury Luxury Townhomes, 2813 W Canal St #2858, Boise, ID 83705",2813 W Canal St #2858,Boise,ID,83705,43.57605,-116.217094,,False,,,,
450059364,FOR_RENT,Apartment for rent,,426.0,574.0,1.0,,,,,,1.0,1.0,"Turnberry Apartments, 2937 Magnolia St, Lewiston, ID 83501",2937 Magnolia St #ADF3174B4,Lewiston,ID,83501,46.394714,-116.986305,,False,,,,
347213009,FOR_RENT,Apartment for rent,,706.0,840.0,1.0,,,1008.0,,,2.0,1.0,"1420 Hawthorne Dr., 1420 S Hawthorne Dr, Moscow, ID 83843",1420 S Hawthorne Dr #EE5CD7D11,Moscow,ID,83843,46.72138,-116.99674,,False,,,,
450059780,FOR_RENT,Apartment for rent,,880.0,536.0,2.0,,,,,,,1.0,"River Plaza Apartments, 1249 W Grand Ave, Boise, ID 83702",1249 W Grand Ave #E355A2FA0,Boise,ID,83702,43.615097,-116.213356,,False,,,,
338468813,FOR_RENT,House for rent,,2099.0,1500.0,1.0,391500.0,261.0,1958.0,,,3.0,2.0,"1500 Surprise Valley Rd, Pocatello, ID 83201",1500 Surprise Valley Rd,Pocatello,ID,83201,42.90289,-112.42539,,False,,,,
89056381,FOR_RENT,House for rent,,2995.0,2318.0,1.0,629700.0,272.0,2591.0,,,4.0,2.0,"5527 N Forbes Ave, Boise, ID 83713",5527 N Forbes Ave,Boise,ID,83713,43.654892,-116.35735,,False,,,,
124754139,FOR_RENT,House for rent,,2150.0,1478.0,1.0,398100.0,269.0,2116.0,,,3.0,3.0,"701 E Springloyd St, Meridian, ID 83642",701 E Springloyd St,Meridian,ID,83642,43.574085,-116.38545,,False,,,,
338344855,FOR_RENT,House for rent,,2480.0,1694.0,1.0,422200.0,249.0,2382.0,,,3.0,2.0,"2927 N Windbrook Ave, Star, ID 83669",2927 N Windbrook Ave,Star,ID,83669,43.718494,-116.50061,,False,,,,
455545994,FOR_RENT,House for rent,,2300.0,1787.0,1.0,,,,,,4.0,3.0,"1209 W Fairwood Ave, Nampa, ID 83651",1209 W Fairwood Ave,Nampa,ID,83651,43.574608,-116.59593,,False,,,,
441569259,FOR_RENT,Townhouse for rent,,1650.0,985.0,2.0,,,,,,3.0,2.0,"202 N Main St, Council, ID 83612",202 N Main St,Council,ID,83612,44.731228,-116.440605,,False,,,,
338344066,FOR_RENT,Townhouse for rent,,1650.0,1060.0,2.0,321100.0,303.0,1769.0,,,2.0,3.0,"10751 W Cricket Ln, Boise, ID 83709",10751 W Cricket Ln,Boise,ID,83709,43.548145,-116.315926,,False,,,,
79623201,FOR_RENT,House for rent,,3600.0,2972.0,1.0,743900.0,250.0,2553.0,,,4.0,3.0,"2092 E Mozart St, Meridian, ID 83646",2092 E Mozart St,Meridian,ID,83646,43.654625,-116.3684,,False,,,,
2112111366,FOR_RENT,Apartment for rent,,1295.0,,,,,1107.0,,,1.0,1.0,"716 N 7th St APT 3, Coeur D Alene, ID 83814",716 N 7th St APT 3,Coeur D Alene,ID,83814,47.67892,-116.77622,,False,,,,
2072066515,FOR_RENT,Apartment for rent,,1650.0,800.0,2.0,,,1271.0,,,2.0,1.0,"482 S White Cloud Dr, Boise, ID 83709",482 S White Cloud Dr,Boise,ID,83709,43.599953,-116.28285,,False,,,,
455524928,FOR_RENT,House for rent,,1682.0,1175.0,1.0,,,,,,3.0,2.0,"3917 Slate Dr, Idaho Falls, ID 83401",3917 Slate Dr,Idaho Falls,ID,83401,43.52858,-111.95551,,False,,,,
113144517,FOR_RENT,House for rent,,1995.0,1400.0,1.0,354600.0,253.0,1966.0,,,3.0,1.0,"30575 N Meadow St, Athol, ID 83801",30575 N Meadow St,Athol,ID,83801,47.949394,-116.71462,,False,,,,
455432810,FOR_RENT,Apartment for rent,,1800.0,1100.0,2.0,,,,,,2.0,2.0,"1220 Smith Ave, Nampa, ID 83651",1220 Smith Ave,Nampa,ID,83651,43.583183,-116.59519,,False,,,,
453860300,FOR_RENT,Apartment for rent,,1995.0,1237.0,2.0,,,,,,2.0,2.0,"1304 S Manitou Ave #1304, Boise, ID 83706",1304 S Manitou Ave #1304,Boise,ID,83706,43.596806,-116.19843,,False,,,,
2061600796,FOR_RENT,Townhouse for rent,,2600.0,1854.0,1.0,539800.0,291.0,2564.0,,,3.0,3.0,"1701 E Cutgrass Ln, Eagle, ID 83616",1701 E Cutgrass Ln,Eagle,ID,83616,43.695976,-116.332565,,False,,,,
455366986,FOR_RENT,Townhouse for rent,,1800.0,1302.0,1.0,,,,,,2.0,2.0,"195 Robison Dr, Idaho Falls, ID 83406",195 Robison Dr,Idaho Falls,ID,83406,43.49563,-111.95254,,False,,,,
455425625,FOR_RENT,Apartment for rent,,825.0,873.0,1.0,,,,,,2.0,1.0,"1316 E Whitman St APT 2A, Pocatello, ID 83201",1316 E Whitman St APT 2A,Pocatello,ID,83201,42.869198,-112.43359,,False,,,,
89245314,FOR_RENT,Townhouse for rent,,2300.0,1563.0,1.0,347800.0,223.0,2234.0,,,3.0,3.0,"13509 Palm Beach Dr, Caldwell, ID 83607",13509 Palm Beach Dr,Caldwell,ID,83607,43.60866,-116.66373,,False,,,,
455160910,FOR_RENT,Apartment for rent,,1895.0,1100.0,2.0,,,,,,2.0,2.0,"7626 W Opohonga Ln APT 102, Boise, ID 83704",7626 W Opohonga Ln APT 102,Boise,ID,83704,43.61815,-116.27765,,False,,,,
455391417,FOR_RENT,House for rent,,2500.0,700.0,4.0,,,,,,1.0,1.0,"654 Juniper Ridge Rd, Victor, ID 83455",654 Juniper Ridge Rd,Victor,ID,83455,43.59959,-111.08907,,False,,,,
79673483,FOR_RENT,House for rent,,2600.0,1448.0,2.0,444500.0,307.0,2489.0,,,3.0,2.0,"732 E Monarch St, Eagle, ID 83616",732 E Monarch St,Eagle,ID,83616,43.69799,-116.34517,,False,,,,
2066800005,FOR_RENT,Apartment for rent,,1250.0,700.0,2.0,,,1380.0,,,2.0,2.0,"2001 E Linden St #3, Caldwell, ID 83605",2001 E Linden St #3,Caldwell,ID,83605,43.64836,-116.67412,,False,,,,
2063210752,FOR_RENT,Apartment for rent,,950.0,600.0,2.0,,,1048.0,,,1.0,1.0,"111 1/2 W Cleveland Blvd, Caldwell, ID 83605",111 1/2 W Cleveland Blvd,Caldwell,ID,83605,43.66905,-116.69686,,False,,,,
338347451,FOR_RENT,House for rent,,2650.0,1717.0,2.0,696000.0,405.0,3201.0,,,3.0,4.0,"2120 N 34th St, Boise, ID 83703",2120 N 34th St,Boise,ID,83703,43.63967,-116.23047,,False,,,,
2077229060,FOR_RENT,Townhouse for rent,,1450.0,1136.0,1.0,315300.0,278.0,1555.0,,,3.0,2.0,"2-3578 E Deloy Dr #2, Idaho Falls, ID 83401",2-3578 E Deloy Dr #2,Idaho Falls,ID,83401,43.517536,-111.94978,,False,,,,
2071621386,FOR_RENT,Apartment for rent,,950.0,790.0,1.0,,,808.0,,,1.0,1.0,"650 N Arthur Ave #2, Pocatello, ID 83204",650 N Arthur Ave #2,Pocatello,ID,83204,42.865917,-112.45644,,False,,,,
113145349,FOR_RENT,House for rent,,2500.0,1430.0,2.0,489000.0,342.0,2218.0,,,3.0,1.0,"1019 E Lakeside Ave, Coeur D Alene, ID 83814",1019 E Lakeside Ave,Coeur D Alene,ID,83814,47.674393,-116.7713,,False,,,,
455239144,FOR_RENT,Townhouse for rent,,1525.0,700.0,2.0,280200.0,400.0,,,,1.0,1.0,"812 NE 3rd St, Meridian, ID 83642",812 NE 3rd St,Meridian,ID,83642,43.611507,-116.39717,,False,,,,
339628264,FOR_RENT,House for rent,,2250.0,1662.0,1.0,425500.0,256.0,2263.0,,,3.0,2.0,"7973 E Apple Tree Loop, Nampa, ID 83687",7973 E Apple Tree Loop,Nampa,ID,83687,43.613964,-116.55073,,False,,,,
79601960,FOR_RENT,Townhouse for rent,,2000.0,1101.0,2.0,324900.0,295.0,1939.0,,,2.0,2.0,"5609 S Caper Pl, Boise, ID 83716",5609 S Caper Pl,Boise,ID,83716,43.551353,-116.13373,,False,,,,
455068582,FOR_RENT,Apartment for rent,,1200.0,961.0,1.0,,,,,,2.0,1.0,"1600 S Juanita St #1600, Boise, ID 83706",1600 S Juanita St #1600,Boise,ID,83706,43.601418,-116.2072,,False,,,,
455268188,FOR_RENT,House for rent,,1000.0,620.0,2.0,207100.0,334.0,,,,1.0,1.0,"221 E 2 N, Rigby, ID 83442",221 E 2 N,Rigby,ID,83442,43.668816,-111.91858,,False,,,,
455341414,FOR_RENT,Apartment for rent,,1099.0,1000.0,1.0,,,,,,2.0,1.0,"1252 Highway 51 #A, Mountain Home, ID 83647",1252 Highway 51 #A,Mountain Home,ID,83647,43.067963,-115.72361,,False,,,,
351477822,FOR_RENT,Apartment for rent,,2295.0,1456.0,2.0,,,2620.0,,,3.0,1.0,"2312 W State St #3, Boise, ID 83702",2312 W State St #3,Boise,ID,83702,43.628914,-116.21824,,False,,,,
79667294,FOR_RENT,House for rent,,3050.0,2018.0,2.0,543600.0,269.0,2761.0,,,4.0,3.0,"5811 N Cosworth Pl, Boise, ID 83713",5811 N Cosworth Pl,Boise,ID,83713,43.657585,-116.359215,,False,,,,
79662348,FOR_RENT,Townhouse for rent,,2300.0,1513.0,2.0,520200.0,344.0,2309.0,,,2.0,3.0,"1817 S Colorado Ave, Boise, ID 83706",1817 S Colorado Ave,Boise,ID,83706,43.590557,-116.190125,,False,,,,
455179069,FOR_RENT,Apartment for rent,,1250.0,,,,,,,,1.0,1.0,"1415 W Franklin St #4, Boise, ID 83702",1415 W Franklin St #4,Boise,ID,83702,43.623905,-116.207016,,False,,,,
2063003329,FOR_RENT,House for rent,,2600.0,3368.0,1.0,451500.0,134.0,2568.0,,,3.0,2.0,"1830 Mesa Canyon Dr, Idaho Falls, ID 83401",1830 Mesa Canyon Dr,Idaho Falls,ID,83401,43.511776,-111.94466,,False,,,,
104628791,FOR_RENT,Townhouse for rent,,4500.0,2000.0,2.0,1223600.0,612.0,4610.0,,,4.0,2.0,"301 Sage Rd #B, Ketchum, ID 83340",301 Sage Rd #B,Ketchum,ID,83340,43.688053,-114.40229,,False,,,,
113848055,FOR_RENT,House for rent,,1899.0,1690.0,1.0,341100.0,202.0,1931.0,,,4.0,2.0,"4860 Freedom Ave, Chubbuck, ID 83202",4860 Freedom Ave,Chubbuck,ID,83202,42.921547,-112.48824,,False,,,,
349554433,FOR_RENT,Townhouse for rent,,2495.0,1388.0,2.0,390000.0,281.0,2020.0,,,3.0,3.0,"2578 N Linda Vista Ln #101, Boise, ID 83704",2578 N Linda Vista Ln #101,Boise,ID,83704,43.628326,-116.301575,,False,,,,
339846890,FOR_RENT,Townhouse for rent,,2900.0,2100.0,1.0,502500.0,239.0,2265.0,,,3.0,3.0,"4178 N Honeysuckle Dr, Coeur D Alene, ID 83815",4178 N Honeysuckle Dr,Coeur D Alene,ID,83815,47.715004,-116.775505,,False,,,,
370645822,FOR_RENT,Townhouse for rent,,2195.0,1600.0,1.0,424200.0,265.0,2249.0,,,3.0,3.0,"1344 N Meridian Rd, Meridian, ID 83642",1344 N Meridian Rd,Meridian,ID,83642,43.61661,-116.3928,,False,,,,
2094491471,FOR_RENT,Apartment for rent,,1200.0,600.0,2.0,,,1036.0,,,,2.0,"125 Broadway Ave S, Buhl, ID 83316",125 Broadway Ave S,Buhl,ID,83316,42.598156,-114.75909,,False,,,,
449001499,FOR_RENT,Townhouse for rent,,2250.0,1757.0,1.0,385700.0,220.0,,,,3.0,3.0,"4254 W Perspective St, Eagle, ID 83616",4254 W Perspective St,Eagle,ID,83616,43.696392,-116.406845,,False,,,,
455367513,FOR_RENT,Apartment for rent,,1025.0,510.0,2.0,,,,,,,1.0,"1106 W Fort St #3, Boise, ID 83702",1106 W Fort St #3,Boise,ID,83702,43.623882,-116.20127,,False,,,,
338343995,FOR_RENT,House for rent,,2750.0,2171.0,1.0,562100.0,259.0,2649.0,,,4.0,3.0,"1748 E Knobcone Dr, Meridian, ID 83642",1748 E Knobcone Dr,Meridian,ID,83642,43.615967,-116.372635,,False,,,,
455119669,FOR_RENT,Apartment for rent,,1345.0,,,,,,,,1.0,1.0,"1917 W Hazel St, Boise, ID 83702",1917 W Hazel St,Boise,ID,83702,43.634514,-116.21305,,False,,,,
113112067,FOR_RENT,House for rent,,2400.0,1602.0,1.0,536700.0,335.0,2303.0,,,3.0,2.0,"2769 W Tours Dr, Coeur D Alene, ID 83815",2769 W Tours Dr,Coeur D Alene,ID,83815,47.724808,-116.824936,,False,,,,
339433359,FOR_RENT,House for rent,,3250.0,2899.0,1.0,668300.0,231.0,3159.0,7710.12,sqft,5.0,3.0,"261 E Caldera St, Meridian, ID 83642",261 E Caldera St,Meridian,ID,83642,43.55678,-116.39066,,False,,,,
454883916,FOR_RENT,Apartment for rent,,2300.0,1200.0,2.0,,,,,,2.0,1.0,"103 W East Way #B, Boise, ID 83702",103 W East Way #B,Boise,ID,83702,43.62591,-116.188324,,False,,,,
2062753867,FOR_RENT,House for rent,,2695.0,2153.0,1.0,519900.0,241.0,2591.0,,,5.0,3.0,"384 Calf Creek Ave, Meridian, ID 83642",384 Calf Creek Ave,Meridian,ID,83642,43.60136,-116.445816,,False,,,,
2083246962,FOR_RENT,Townhouse for rent,,3200.0,1529.0,2.0,592900.0,388.0,2431.0,,,3.0,3.0,"105 Broken Pine Ln, McCall, ID 83638",105 Broken Pine Ln,McCall,ID,83638,44.902386,-116.12818,,False,,,,
454301970,FOR_RENT,Apartment for rent,,1725.0,1100.0,2.0,,,,,,3.0,2.0,"2921 W Marbeth Ct #2921, Meridian, ID 83642",2921 W Marbeth Ct #2921,Meridian,ID,83642,43.610565,-116.43021,,False,,,,
72353113,FOR_RENT,House for rent,,1945.0,1284.0,2.0,360000.0,280.0,2092.0,,,3.0,2.0,"7193 E Canterbury Ln, Nampa, ID 83687",7193 E Canterbury Ln,Nampa,ID,83687,43.61534,-116.53702,,False,,,,
2054463483,FOR_RENT,Apartment for rent,,1425.0,725.0,2.0,,,1629.0,,,1.0,1.0,"1715 N 12th St #A, Boise, ID 83702",1715 N 12th St #A,Boise,ID,83702,43.631664,-116.20254,,False,,,,
113108127,FOR_RENT,House for rent,,2600.0,2064.0,1.0,544200.0,264.0,2892.0,,,4.0,2.0,"1311 E Maple Ave, Coeur D Alene, ID 83814",1311 E Maple Ave,Coeur D Alene,ID,83814,47.68554,-116.76715,,False,,,,
338344528,FOR_RENT,House for rent,,5500.0,2636.0,2.0,562800.0,214.0,2887.0,,,5.0,3.0,"7167 W Riverwood St, Boise, ID 83709",7167 W Riverwood St,Boise,ID,83709,43.539036,-116.27107,,False,,,,
246647798,FOR_RENT,House for rent,,2250.0,1356.0,2.0,413100.0,305.0,2234.0,,,3.0,2.0,"2765 E Apricot Dr, Meridian, ID 83646",2765 E Apricot Dr,Meridian,ID,83646,43.621643,-116.36103,,False,,,,
113155834,FOR_RENT,Apartment for rent,,1495.0,775.0,2.0,,,1428.0,,,1.0,1.0,"818 E Boyd Ave, Coeur D Alene, ID 83814",818 E Boyd Ave,Coeur D Alene,ID,83814,47.6816,-116.77425,,False,,,,
79622807,FOR_RENT,House for rent,,2295.0,1426.0,2.0,427900.0,300.0,2189.0,,,3.0,2.0,"1975 N Dixie Ave, Meridian, ID 83646",1975 N Dixie Ave,Meridian,ID,83646,43.6228,-116.3693,,False,,,,
2071034276,FOR_RENT,Apartment for rent,,1420.0,612.0,2.0,,,1285.0,,,1.0,1.0,"717 N 9th St #3, Coeur D Alene, ID 83814",717 N 9th St #3,Coeur D Alene,ID,83814,47.67884,-116.774185,,False,,,,
2057554346,FOR_RENT,House for rent,,2200.0,1446.0,2.0,424100.0,293.0,2199.0,,,3.0,2.0,"10216 W Gladiola St, Star, ID 83669",10216 W Gladiola St,Star,ID,83669,43.72207,-116.480965,,False,,,,
79612002,FOR_RENT,House for rent,,4600.0,4454.0,1.0,1077200.0,242.0,4629.0,,,5.0,5.0,"5327 N High Country Way, Star, ID 83669",5327 N High Country Way,Star,ID,83669,43.739227,-116.48337,,False,,,,
338416319,FOR_RENT,Townhouse for rent,,2300.0,1930.0,1.0,325200.0,168.0,2256.0,,,4.0,2.0,"497 E 19th St, Idaho Falls, ID 83404",497 E 19th St,Idaho Falls,ID,83404,43.481014,-112.024345,,False,,,,
454675182,FOR_RENT,Townhouse for rent,,2550.0,1600.0,2.0,451600.0,282.0,,,,3.0,3.0,"762 W Redwood Ct #762, Hayden, ID 83835",762 W Redwood Ct #762,Hayden,ID,83835,47.748383,-116.79673,,False,,,,
306075432,FOR_RENT,House for rent,,2700.0,2065.0,1.0,591700.0,287.0,2584.0,,,3.0,3.0,"6420 W Glencrest Ln, Boise, ID 83714",6420 W Glencrest Ln,Boise,ID,83714,43.669464,-116.26891,,False,,,,
455192240,FOR_RENT,Townhouse for rent,,1800.0,1800.0,1.0,313300.0,174.0,,,,4.0,2.0,"557 Mountain View Dr, Twin Falls, ID 83301",557 Mountain View Dr,Twin Falls,ID,83301,42.57091,-114.44499,,False,,,,
296619135,FOR_RENT,House for rent,,2850.0,2033.0,1.0,690800.0,340.0,2916.0,,,3.0,2.0,"6931 N Dubuis Dr, Coeur D Alene, ID 83815",6931 N Dubuis Dr,Coeur D Alene,ID,83815,47.73476,-116.81598,,False,,,,
113152869,FOR_RENT,House for rent,,2195.0,1304.0,2.0,418800.0,321.0,1979.0,,,2.0,1.0,"1829 N 6th St, Coeur D Alene, ID 83814",1829 N 6th St,Coeur D Alene,ID,83814,47.693264,-116.77826,,False,,,,
325644416,FOR_RENT,House for rent,,2200.0,2804.0,1.0,412200.0,147.0,2199.0,,,3.0,2.0,"4353 Marlin Dr, Idaho Falls, ID 83401",4353 Marlin Dr,Idaho Falls,ID,83401,43.527115,-111.946976,,False,,,,
336964125,FOR_RENT,House for rent,,2495.0,2538.0,1.0,495600.0,195.0,2578.0,,,4.0,3.0,"15432 Hogback Way, Caldwell, ID 83607",15432 Hogback Way,Caldwell,ID,83607,43.596287,-116.6607,,False,,,,
79647812,FOR_RENT,House for rent,,1695.0,800.0,2.0,735300.0,919.0,1809.0,,,2.0,1.0,"1700 S Denver Ave, Boise, ID 83706",1700 S Denver Ave,Boise,ID,83706,43.59177,-116.19449,,False,,,,
79602494,FOR_RENT,House for rent,,2400.0,1500.0,2.0,453600.0,302.0,2273.0,,,3.0,2.0,"1506 S Denver Ave, Boise, ID 83706",1506 S Denver Ave,Boise,ID,83706,43.594284,-116.19451,,False,,,,
448795664,FOR_RENT,Apartment for rent,,1200.0,600.0,2.0,,,,,,,1.0,"1823 S 10th Ave #B, Caldwell, ID 83605",1823 S 10th Ave #B,Caldwell,ID,83605,43.653595,-116.692726,,False,,,,
455249429,FOR_RENT,House for rent,,2200.0,3054.0,1.0,479300.0,157.0,,,,5.0,3.0,"4592 John Adams Pkwy, Idaho Falls, ID 83406",4592 John Adams Pkwy,Idaho Falls,ID,83406,43.490944,-111.94258,,False,,,,
79597848,FOR_RENT,House for rent,,1750.0,1008.0,2.0,456600.0,453.0,1849.0,,,3.0,1.0,"6518 S Ruddsdale Ave, Boise, ID 83709",6518 S Ruddsdale Ave,Boise,ID,83709,43.54364,-116.31131,,False,,,,
446175965,FOR_RENT,Apartment for rent,,1675.0,950.0,2.0,,,,,,2.0,2.0,"835 W Main St #1, Emmett, ID 83617",835 W Main St #1,Emmett,ID,83617,43.8721,-116.51056,,False,,,,
126640953,FOR_RENT,House for rent,,1995.0,1770.0,1.0,373100.0,211.0,2035.0,,,3.0,2.0,"705 SW Nuggett St, Mountain Home, ID 83647",705 SW Nuggett St,Mountain Home,ID,83647,43.10924,-115.69516,,False,,,,
113113261,FOR_RENT,House for rent,,2200.0,1800.0,1.0,494300.0,275.0,2357.0,,,4.0,2.0,"11928 N Diamond Dr, Hayden Lake, ID 83835",11928 N Diamond Dr,Hayden Lake,ID,83835,47.77932,-116.78078,,False,,,,
336014727,FOR_RENT,House for rent,,2095.0,1522.0,1.0,442800.0,291.0,2406.0,,,3.0,2.0,"3502 W Charlene St, Meridian, ID 83642",3502 W Charlene St,Meridian,ID,83642,43.544594,-116.43761,,False,,,,
113129315,FOR_RENT,House for rent,,2000.0,1593.0,1.0,489300.0,307.0,2075.0,,,3.0,1.0,"744 N 2nd St, Coeur D Alene, ID 83814",744 N 2nd St,Coeur D Alene,ID,83814,47.680035,-116.783455,,False,,,,
2089462130,FOR_RENT,Townhouse for rent,,1675.0,950.0,2.0,331200.0,349.0,1657.0,,,2.0,1.0,"2052 S Leadville Ave, Boise, ID 83706",2052 S Leadville Ave,Boise,ID,83706,43.587173,-116.19091,,False,,,,
113150285,FOR_RENT,House for rent,,2650.0,1485.0,2.0,520800.0,351.0,2549.0,,,3.0,2.0,"4919 E Portside Ct, Post Falls, ID 83854",4919 E Portside Ct,Post Falls,ID,83854,47.704887,-116.881905,,False,,,,
83168776,FOR_RENT,House for rent,,2899.0,3659.0,1.0,587300.0,161.0,3244.0,,,5.0,3.0,"3902 S Leaning Tower Pl, Meridian, ID 83642",3902 S Leaning Tower Pl,Meridian,ID,83642,43.5694,-116.375984,,False,,,,
2097236381,FOR_RENT,Apartment for rent,,1425.0,1066.0,1.0,,,1396.0,,,2.0,1.0,"3004 College Ave #A, Caldwell, ID 83605",3004 College Ave #A,Caldwell,ID,83605,43.643356,-116.68099,,False,,,,
79676124,FOR_RENT,House for rent,,2900.0,2801.0,1.0,709400.0,253.0,3007.0,,,4.0,3.0,"1710 N Mansfield Way, Eagle, ID 83616",1710 N Mansfield Way,Eagle,ID,83616,43.71066,-116.321556,,False,,,,
2066504422,FOR_RENT,Townhouse for rent,,1990.0,1280.0,2.0,357000.0,279.0,1958.0,,,3.0,3.0,"5938 S Boddington Ln, Boise, ID 83709",5938 S Boddington Ln,Boise,ID,83709,43.548893,-116.315605,,False,,,,
79592954,FOR_RENT,House for rent,,2200.0,720.0,3.0,367100.0,510.0,1799.0,,,2.0,1.0,"3303 W Hamilton St, Boise, ID 83705",3303 W Hamilton St,Boise,ID,83705,43.602646,-116.22253,,False,,,,
79677052,FOR_RENT,Townhouse for rent,,1395.0,,,450300.0,,2174.0,,,2.0,1.0,"1807 S Division Ave, Boise, ID 83706",1807 S Division Ave,Boise,ID,83706,43.590458,-116.18888,,False,,,,
72330269,FOR_RENT,House for rent,,2095.0,1202.0,2.0,342900.0,285.0,1909.0,,,3.0,2.0,"811 W Dewey Ave, Nampa, ID 83686",811 W Dewey Ave,Nampa,ID,83686,43.563766,-116.5885,,False,,,,
2056453214,FOR_RENT,Apartment for rent,,1175.0,950.0,1.0,,,1430.0,,,2.0,1.0,"1727 N Crestmont Dr, Meridian, ID 83646",1727 N Crestmont Dr,Meridian,ID,83646,43.61918,-116.40128,,False,,,,
124754307,FOR_RENT,House for rent,,3100.0,2743.0,1.0,813600.0,297.0,3094.0,,,3.0,4.0,"4226 N Brooksburg Way, Meridian, ID 83646",4226 N Brooksburg Way,Meridian,ID,83646,43.64318,-116.35715,,False,,,,
127140148,FOR_RENT,House for rent,,2900.0,1389.0,2.0,566600.0,408.0,2464.0,,,3.0,2.0,"6391 E Kyong Ct, Post Falls, ID 83854",6391 E Kyong Ct,Post Falls,ID,83854,47.70159,-116.86376,,False,,,,
2084265152,FOR_RENT,Apartment for rent,,3500.0,1800.0,2.0,,,1178.0,,,2.0,1.0,"11463 W Riverview Dr #B, Post Falls, ID 83854",11463 W Riverview Dr #B,Post Falls,ID,83854,47.69753,-116.92637,,False,,,,
2057070091,FOR_RENT,Apartment for rent,,1295.0,900.0,1.0,,,1554.0,,,2.0,1.0,"6758 W Clinton Ln APT 102, Boise, ID 83704",6758 W Clinton Ln APT 102,Boise,ID,83704,43.60948,-116.26563,,False,,,,
2133140140,FOR_RENT,Apartment for rent,,1100.0,400.0,3.0,,,1012.0,,,1.0,1.0,"1009 W Warren St, Boise, ID 83706",1009 W Warren St,Boise,ID,83706,43.591923,-116.19442,,False,,,,
454788109,FOR_RENT,Townhouse for rent,,1800.0,1371.0,1.0,285200.0,208.0,,,,3.0,2.0,"212 NE 3rd St #212, Fruitland, ID 83619",212 NE 3rd St #212,Fruitland,ID,83619,44.013367,-116.9116,,False,,,,
79598824,FOR_RENT,House for rent,,3950.0,2100.0,2.0,836600.0,398.0,3822.0,,,4.0,3.0,"1970 S Toluka Way, Boise, ID 83712",1970 S Toluka Way,Boise,ID,83712,43.585846,-116.1484,,False,,,,
113151354,FOR_RENT,House for rent,,2600.0,1322.0,2.0,472200.0,357.0,2443.0,,,3.0,3.0,"499 E Dragonfly Dr, Coeur D Alene, ID 83815",499 E Dragonfly Dr,Coeur D Alene,ID,83815,47.714466,-116.77908,,False,,,,
113140765,FOR_RENT,House for rent,,3150.0,1828.0,2.0,646700.0,354.0,2498.0,,,3.0,2.0,"3255 N Swiftwater Ln, Coeur D Alene, ID 83814",3255 N Swiftwater Ln,Coeur D Alene,ID,83814,47.701614,-116.84629,,False,,,,
113156598,FOR_RENT,Apartment for rent,,1700.0,1100.0,2.0,307900.0,280.0,1673.0,,,2.0,2.0,"8207 N Ridgewood Dr APT 4, Hayden Lake, ID 83835",8207 N Ridgewood Dr APT 4,Hayden Lake,ID,83835,47.74598,-116.77749,,False,,,,
79520490,FOR_RENT,House for rent,,2195.0,1328.0,2.0,412000.0,310.0,2233.0,,,3.0,2.0,"1213 N Shire Ave, Meridian, ID 83642",1213 N Shire Ave,Meridian,ID,83642,43.615322,-116.37933,,False,,,,
113145365,FOR_RENT,House for rent,,2100.0,1300.0,2.0,525300.0,404.0,1955.0,,,2.0,1.0,"1016 E Lakeside Ave, Coeur D Alene, ID 83814",1016 E Lakeside Ave,Coeur D Alene,ID,83814,47.673927,-116.77151,,False,,,,
79669917,FOR_RENT,Townhouse for rent,,1975.0,1007.0,2.0,370500.0,368.0,1979.0,,,2.0,2.0,"1424 S Colorado Ave, Boise, ID 83706",1424 S Colorado Ave,Boise,ID,83706,43.59499,-116.18939,,False,,,,
346268198,FOR_RENT,Townhouse for rent,,1850.0,1371.0,1.0,290600.0,212.0,1883.0,,,3.0,2.0,"110 NE 3rd St, Fruitland, ID 83619",110 NE 3rd St,Fruitland,ID,83619,44.013443,-116.91319,,False,,,,
79625963,FOR_RENT,House for rent,,2500.0,1600.0,2.0,462900.0,289.0,2440.0,,,3.0,2.0,"11879 W Lewisburg Ct, Boise, ID 83709",11879 W Lewisburg Ct,Boise,ID,83709,43.59355,-116.330345,,False,,,,
339431892,FOR_RENT,House for rent,,2600.0,1993.0,1.0,432400.0,217.0,2494.0,,,3.0,3.0,"4750 W Riva Capri Ct, Meridian, ID 83646",4750 W Riva Capri Ct,Meridian,ID,83646,43.649265,-116.45312,,False,,,,
79591331,FOR_RENT,Townhouse for rent,,2500.0,1818.0,1.0,519900.0,286.0,2411.0,,,3.0,2.0,"20 E Ranch Dr, Eagle, ID 83616",20 E Ranch Dr,Eagle,ID,83616,43.70193,-116.35356,,False,,,,
439673039,FOR_RENT,Townhouse for rent,,2300.0,800.0,3.0,385600.0,482.0,,,,2.0,1.0,"2030 E Warm Springs Ave, Boise, ID 83712",2030 E Warm Springs Ave,Boise,ID,83712,43.601707,-116.1694,,False,,,,
79706714,FOR_RENT,House for rent,,2200.0,1369.0,2.0,404400.0,295.0,2197.0,,,3.0,2.0,"74 W Davenport Dr, Meridian, ID 83642",74 W Davenport Dr,Meridian,ID,83642,43.58791,-116.39472,,False,,,,
2080895184,FOR_RENT,Apartment for rent,,1195.0,752.0,2.0,,,1210.0,,,1.0,1.0,"1329 E 3rd St, Meridian, ID 83642",1329 E 3rd St,Meridian,ID,83642,43.61615,-116.38862,,False,,,,
338343945,FOR_RENT,House for rent,,3200.0,2493.0,1.0,735000.0,295.0,3089.0,,,4.0,3.0,"6705 N Elmstone Way, Meridian, ID 83646",6705 N Elmstone Way,Meridian,ID,83646,43.66579,-116.45563,,False,,,,
83175128,FOR_RENT,Townhouse for rent,,2400.0,1500.0,2.0,376300.0,251.0,2323.0,,,3.0,3.0,"5231 W Morris Hill Rd, Boise, ID 83706",5231 W Morris Hill Rd,Boise,ID,83706,43.60752,-116.24688,,False,,,,
124448232,FOR_RENT,House for rent,,2700.0,2159.0,1.0,617900.0,286.0,2869.0,,,4.0,3.0,"3441 S Island Fox Ave, Eagle, ID 83616",3441 S Island Fox Ave,Eagle,ID,83616,43.66378,-116.406784,,False,,,,
306077240,FOR_RENT,House for rent,,2800.0,2115.0,1.0,580300.0,274.0,2798.0,,,3.0,2.0,"20513 N Glenisla Ave, Boise, ID 83714",20513 N Glenisla Ave,Boise,ID,83714,43.790382,-116.2623,,False,,,,
79601717,FOR_RENT,House for rent,,2295.0,1639.0,1.0,470000.0,287.0,2296.0,,,3.0,2.0,"215 E Mango Dr, Eagle, ID 83616",215 E Mango Dr,Eagle,ID,83616,43.701107,-116.351295,,False,,,,
113119521,FOR_RENT,Apartment for rent,,1595.0,1000.0,2.0,832000.0,832.0,1476.0,,,2.0,2.0,"309 W 22nd Ave, Post Falls, ID 83854",309 W 22nd Ave,Post Falls,ID,83854,47.728912,-116.95237,,False,,,,
222804493,FOR_RENT,House for rent,,1499.0,1300.0,1.0,,,1544.0,,,3.0,2.0,"315 La Valle Strada, Pocatello, ID 83201",315 La Valle Strada,Pocatello,ID,83201,42.880886,-112.4173,,False,,,,
339927622,FOR_RENT,Apartment for rent,,925.0,800.0,1.0,,,900.0,,,2.0,1.0,"387 Packard Ave, Pocatello, ID 83201",387 Packard Ave,Pocatello,ID,83201,42.8826,-112.46004,,False,,,,
2105214610,FOR_RENT,Apartment for rent,,895.0,500.0,2.0,600200.0,1200.0,1304.0,,,1.0,1.0,"628 W Fort St APT 1, Boise, ID 83702",628 W Fort St APT 1,Boise,ID,83702,43.62135,-116.19616,,False,,,,
2081857392,FOR_RENT,Apartment for rent,,1345.0,864.0,2.0,,,1350.0,,,2.0,1.0,"6468 W Douglas St, Boise, ID 83704",6468 W Douglas St,Boise,ID,83704,43.60493,-116.261925,,False,,,,
2099266390,FOR_RENT,House for rent,,950.0,1300.0,1.0,225100.0,173.0,1018.0,,,2.0,1.0,"255 Pleasant Valley Rd, Clearwater, ID 83552",255 Pleasant Valley Rd,Clearwater,ID,83552,46.028416,-115.91749,,False,,,,
94751412,FOR_RENT,House for rent,,2400.0,2636.0,1.0,408000.0,155.0,2339.0,,,5.0,3.0,"3636 E Vision Dr, Idaho Falls, ID 83401",3636 E Vision Dr,Idaho Falls,ID,83401,43.51898,-111.96139,,False,,,,
2095603911,FOR_RENT,Apartment for rent,,750.0,800.0,1.0,227400.0,284.0,1067.0,,,2.0,1.0,"262 Pine St, Idaho Falls, ID 83402",262 Pine St,Idaho Falls,ID,83402,43.486847,-112.03865,,False,,,,
2112500047,FOR_RENT,Apartment for rent,,895.0,600.0,1.0,,,961.0,,,1.0,1.0,"2008 Walnut St APT 3, Caldwell, ID 83605",2008 Walnut St APT 3,Caldwell,ID,83605,43.648746,-116.67397,,False,,,,
2092886986,FOR_RENT,Apartment for rent,,1345.0,873.0,2.0,,,1354.0,,,2.0,1.0,"1957 E Wilson Ln APT D, Meridian, ID 83642",1957 E Wilson Ln APT D,Meridian,ID,83642,43.616077,-116.36985,,False,,,,
339431571,FOR_RENT,House for rent,,2645.0,1901.0,1.0,515700.0,271.0,2608.0,,,3.0,2.0,"6065 S Catria Pl, Meridian, ID 83642",6065 S Catria Pl,Meridian,ID,83642,43.549747,-116.432816,,False,,,,
448888284,FOR_RENT,Apartment for rent,,775.0,500.0,2.0,,,,,,1.0,1.0,"1645 N Garfield Ave #B, Pocatello, ID 83204",1645 N Garfield Ave #B,Pocatello,ID,83204,42.87226,-112.46685,,False,,,,
79600738,FOR_RENT,House for rent,,3200.0,2800.0,1.0,505600.0,181.0,3036.0,,,4.0,3.0,"1209 N Roosevelt St, Boise, ID 83706",1209 N Roosevelt St,Boise,ID,83706,43.615654,-116.23371,,False,,,,
452798955,FOR_RENT,Apartment for rent,,1900.0,1100.0,2.0,,,,,,5.0,3.0,"1445 N Woodruff Ave, Idaho Falls, ID 83401",1445 N Woodruff Ave,Idaho Falls,ID,83401,43.50798,-112.00146,,False,,,,
79600296,FOR_RENT,House for rent,,1995.0,1130.0,2.0,430400.0,381.0,2141.0,,,4.0,1.0,"509 N Atlantic St, Boise, ID 83706",509 N Atlantic St,Boise,ID,83706,43.609257,-116.22619,,False,,,,
2115998589,FOR_RENT,Apartment for rent,,1545.0,1116.0,1.0,,,1597.0,,,3.0,2.0,"10198 W Garverdale Ln APT 102, Boise, ID 83704",10198 W Garverdale Ln APT 102,Boise,ID,83704,43.62117,-116.30848,,False,,,,
79693459,FOR_RENT,House for rent,,2295.0,1433.0,2.0,422100.0,295.0,2326.0,,,4.0,2.0,"844 S Pelican Way, Meridian, ID 83642",844 S Pelican Way,Meridian,ID,83642,43.596966,-116.40775,,False,,,,
445858513,FOR_RENT,House for rent,,2495.0,2317.0,1.0,565600.0,244.0,,,,5.0,3.0,"3858 W Peak Cloud Ct, Meridian, ID 83642",3858 W Peak Cloud Ct,Meridian,ID,83642,43.60441,-116.44174,,False,,,,
113142860,FOR_RENT,House for rent,,2700.0,,,517600.0,,2524.0,,,4.0,2.0,"1310 N 9th St, Coeur D Alene, ID 83814",1310 N 9th St,Coeur D Alene,ID,83814,47.68763,-116.772575,,False,,,,
455531519,FOR_RENT,Apartment for rent,,930.0,750.0,1.0,,,,,,2.0,1.0,"Hyde Park Apartments 1, 707 S 5 W #1601, Rexburg, ID 83440",707 S 5 W #1601,Rexburg,ID,83440,43.811447,-111.79681,,False,,,,
2062725883,FOR_RENT,Apartment for rent,,1245.0,872.0,1.0,,,1240.0,,,2.0,1.0,"724 W Idaho Ave, Meridian, ID 83642",724 W Idaho Ave,Meridian,ID,83642,43.611347,-116.403534,,False,,,,
455557340,FOR_RENT,House for rent,,2295.0,1680.0,1.0,,,,,,4.0,2.0,"878 N Windflower Ave, 878 N Windflower Ave #ID0020, Kuna, ID 83634",878 N Windflower Ave #ID0020,Kuna,ID,83634,43.49655,-116.43678,,False,,,,
102680821,FOR_RENT,House for rent,,2500.0,1960.0,1.0,432700.0,221.0,2099.0,,,3.0,2.0,"3312 E Edwards Dr, Idaho Falls, ID 83401",3312 E Edwards Dr,Idaho Falls,ID,83401,43.535366,-111.9674,,False,,,,
79698986,FOR_RENT,House for rent,,2195.0,1750.0,1.0,502800.0,287.0,2351.0,,,3.0,2.0,"5797 N Applebrook Way, Boise, ID 83713",5797 N Applebrook Way,Boise,ID,83713,43.65758,-116.35362,,False,,,,
249556022,FOR_RENT,House for rent,,1895.0,1436.0,1.0,448100.0,312.0,2100.0,,,2.0,3.0,"6045 N Hampstead Ave, Boise, ID 83714",6045 N Hampstead Ave,Boise,ID,83714,43.675144,-116.287674,,False,,,,
441933804,FOR_RENT,House for rent,,2195.0,1583.0,1.0,427900.0,270.0,,,,3.0,3.0,"6145 N Hampstead Ave, Boise, ID 83714",6145 N Hampstead Ave,Boise,ID,83714,43.67622,-116.287796,,False,,,,
441933806,FOR_RENT,House for rent,,2195.0,1583.0,1.0,427900.0,270.0,,,,3.0,3.0,"6159 N Hampstead Ave, Boise, ID 83714",6159 N Hampstead Ave,Boise,ID,83714,43.676353,-116.287796,,False,,,,
115531007,FOR_RENT,House for rent,,2995.0,2326.0,1.0,477000.0,205.0,2690.0,,,5.0,3.0,"191 N 3990 E, Rigby, ID 83442",191 N 3990 E,Rigby,ID,83442,43.65409,-111.906784,,False,,,,
455543222,FOR_RENT,Apartment for rent,,1495.0,1254.0,1.0,,,,,,3.0,2.0,"G5880RO, 5880 N Silver Fox Rd #1, Idaho Falls, ID 83401",5880 N Silver Fox Rd #1,Idaho Falls,ID,83401,43.54836,-111.96275,,False,,,,
2080044358,FOR_RENT,Apartment for rent,,1195.0,400.0,3.0,319900.0,800.0,1102.0,,,1.0,1.0,"612.5 W Thatcher St, Boise, ID 83702",612.5 W Thatcher St,Boise,ID,83702,43.623947,-116.20047,,False,,,,
443925188,FOR_RENT,Apartment for rent,,850.0,663.0,1.0,,,,,,1.0,1.0,"1 bed, 1.0 bath, 663 sqft, $850, 702 3rd Ave W #3, Twin Falls, ID 83301",702 3rd Ave W #3,Twin Falls,ID,83301,42.56012,-114.479095,,False,,,,
351235579,FOR_RENT,House for rent,,2295.0,1569.0,1.0,333200.0,212.0,2014.0,,,3.0,2.0,"569 Idaho Ave, Sugar City, ID 83440",569 Idaho Ave,Sugar City,ID,83440,43.87213,-111.75133,,False,,,,
72315459,FOR_RENT,House for rent,,1495.0,1017.0,1.0,282900.0,278.0,1407.0,,,2.0,2.0,"1311 Diamond Ct, Nampa, ID 83686",1311 Diamond Ct,Nampa,ID,83686,43.555714,-116.559296,,False,,,,
114129006,FOR_RENT,House for rent,,1750.0,,,242500.0,,1725.0,,,3.0,2.0,"201 River St, Wallace, ID 83873",201 River St,Wallace,ID,83873,47.4743,-115.92979,,False,,,,
115534505,FOR_RENT,House for rent,,1295.0,1144.0,1.0,231000.0,202.0,1197.0,,,2.0,1.0,"324 Harvard Ave, Rexburg, ID 83440",324 Harvard Ave,Rexburg,ID,83440,43.819134,-111.777,,False,,,,
350462550,FOR_RENT,Apartment for rent,,1395.0,950.0,1.0,211300.0,222.0,1334.0,,,2.0,1.0,"238 Ella Ln UNIT 2303, Rexburg, ID 83440",238 Ella Ln UNIT 2303,Rexburg,ID,83440,43.84236,-111.77683,,False,,,,
455540469,FOR_RENT,Apartment for rent,,1495.0,1254.0,1.0,,,,,,3.0,2.0,"G3581RO, 3581 E Gample Ave #2, Idaho Falls, ID 83401",3581 E Gample Ave #2,Idaho Falls,ID,83401,43.550014,-111.962265,,False,,,,
455481144,FOR_RENT,House for rent,,2495.0,3596.0,1.0,,,,,,4.0,3.0,"9154 W Rustica Drive, 9154 W Rustica Dr #ID0012, Boise, ID 83709",9154 W Rustica Dr #ID0012,Boise,ID,83709,43.541557,-116.29637,,False,,,,
2121004937,FOR_RENT,Apartment for rent,,1345.0,915.0,1.0,,,1480.0,,,2.0,2.0,"10151 W Garverdale Ln APT 101, Boise, ID 83704",10151 W Garverdale Ln APT 101,Boise,ID,83704,43.62043,-116.30863,,False,,,,
115547788,FOR_RENT,House for rent,,3000.0,1719.0,2.0,850600.0,495.0,3008.0,,,3.0,3.0,"1647 Ginney Way, McCall, ID 83638",1647 Ginney Way,McCall,ID,83638,44.91971,-116.07233,,False,,,,
79702516,FOR_RENT,House for rent,,2200.0,1064.0,2.0,800300.0,752.0,2257.0,,,2.0,1.0,"1411 W Fort St, Boise, ID 83702",1411 W Fort St,Boise,ID,83702,43.625355,-116.20539,,False,,,,
455457028,FOR_RENT,Townhouse for rent,,1300.0,,,,,,,,2.0,1.0,"400 W 13th St #1, Burley, ID 83318",400 W 13th St #1,Burley,ID,83318,42.53694,-113.79756,,False,,,,
2056024034,FOR_RENT,Apartment for rent,,1275.0,550.0,2.0,,,1577.0,,,,1.0,"612 S 9th St #B, Coeur D Alene, ID 83814",612 S 9th St #B,Coeur D Alene,ID,83814,47.66853,-116.774124,,False,,,,
2084648085,FOR_RENT,Apartment for rent,,1195.0,860.0,1.0,,,1164.0,,,2.0,1.0,"821 E Georgia Ave, Nampa, ID 83686",821 E Georgia Ave,Nampa,ID,83686,43.55579,-116.561806,,False,,,,
335969738,FOR_RENT,Townhouse for rent,,1695.0,960.0,2.0,651300.0,678.0,1548.0,,,2.0,1.0,"9405 W Ustick Rd, Boise, ID 83704",9405 W Ustick Rd,Boise,ID,83704,43.633724,-116.29988,,False,,,,
114125325,FOR_RENT,House for rent,,1300.0,,,225100.0,,1201.0,,,2.0,1.0,"11 E Market Ave, Kellogg, ID 83837",11 E Market Ave,Kellogg,ID,83837,47.533527,-116.12069,,False,,,,
104642101,FOR_RENT,House for rent,,2350.0,3200.0,1.0,767200.0,240.0,2363.0,,,3.0,4.0,"1727 E 300 N, Saint Anthony, ID 83445",1727 E 300 N,Saint Anthony,ID,83445,43.92801,-111.81432,,False,,,,
455487141,FOR_RENT,Apartment for rent,,1500.0,1180.0,1.0,,,,,,2.0,1.0,"The Brickyard 3648, 3648 N Centrepoint Way Brickyard 2b #TOWNHOUSE E-1, Meridian, ID 83646",3648 N Centrepoint Way Brickyard 2b #TOWNHOUSE E-1,Meridian,ID,83646,43.637787,-116.35649,,False,,,,
455478262,FOR_RENT,Townhouse for rent,,1599.0,1106.0,1.0,,,,,,2.0,2.0,"15702 N Knightgate Ln #1, Nampa, ID 83651",15702 N Knightgate Ln #1,Nampa,ID,83651,43.600513,-116.61445,,False,,,,
455424159,FOR_RENT,Townhouse for rent,,1695.0,1104.0,2.0,,,,,,3.0,2.0,"4812 W Richardson St #12, Boise, ID 83705",4812 W Richardson St #12,Boise,ID,83705,43.60392,-116.24154,,False,,,,
79524450,FOR_RENT,House for rent,,2695.0,2000.0,1.0,591300.0,296.0,2332.0,,,3.0,2.0,"6045 N Pintail Way, Garden City, ID 83714",6045 N Pintail Way,Garden City,ID,83714,43.660076,-116.291046,,False,,,,
2076833617,FOR_RENT,Apartment for rent,,750.0,498.0,2.0,,,631.0,,,1.0,1.0,"1350 1/2 Lake Ave, Idaho Falls, ID 83402",1350 1/2 Lake Ave,Idaho Falls,ID,83402,43.499977,-112.0341,,False,,,,
76925185,FOR_RENT,House for rent,,1625.0,1418.0,1.0,269500.0,190.0,1629.0,,,4.0,1.0,"275 E 15th St, Idaho Falls, ID 83404",275 E 15th St,Idaho Falls,ID,83404,43.484615,-112.029205,,False,,,,
72365612,FOR_RENT,Apartment for rent,,1495.0,1218.0,1.0,,,1514.0,,,2.0,2.0,"910 E Maine Ave, Nampa, ID 83686",910 E Maine Ave,Nampa,ID,83686,43.550877,-116.56062,,False,,,,
2063174981,FOR_RENT,Townhouse for rent,,1700.0,900.0,2.0,370500.0,412.0,1971.0,,,2.0,1.0,"1566 S Euclid Ave, Boise, ID 83706",1566 S Euclid Ave,Boise,ID,83706,43.59372,-116.19721,,False,,,,
113840971,FOR_RENT,House for rent,,1199.0,948.0,1.0,196700.0,207.0,1197.0,,,2.0,1.0,"1410 E Clark St, Pocatello, ID 83201",1410 E Clark St,Pocatello,ID,83201,42.87264,-112.43621,,False,,,,
76918029,FOR_RENT,House for rent,,2900.0,4042.0,1.0,556000.0,138.0,2624.0,,,4.0,4.0,"1932 E 25th St, Idaho Falls, ID 83404",1932 E 25th St,Idaho Falls,ID,83404,43.474785,-111.99527,,False,,,,
309930215,FOR_RENT,Townhouse for rent,,2295.0,1627.0,1.0,359400.0,221.0,2307.0,,,3.0,3.0,"7947 W 2nd St, Rathdrum, ID 83858",7947 W 2nd St,Rathdrum,ID,83858,47.811447,-116.89487,,False,,,,
110849963,FOR_RENT,Apartment for rent,,1000.0,650.0,2.0,192600.0,296.0,1264.0,,,2.0,1.0,"1030 N 10 E, Mtn Home, ID 83647",1030 N 10 E,Mtn Home,ID,83647,43.141666,-115.68718,,False,,,,
96136543,FOR_RENT,House for rent,,2395.0,1741.0,1.0,495200.0,284.0,2402.0,,,3.0,3.0,"7984 S Snow Bird Ave, Boise, ID 83716",7984 S Snow Bird Ave,Boise,ID,83716,43.529457,-116.10152,,False,,,,
2065608382,FOR_RENT,Apartment for rent,,850.0,500.0,2.0,,,786.0,,,1.0,1.0,"978 Bannock Ave., 978 Bannock Ave #1, Idaho Falls, ID 83402",978 Bannock Ave #1,Idaho Falls,ID,83402,43.505417,-112.03572,,False,,,,
113132806,FOR_RENT,House for rent,,2700.0,1508.0,2.0,472100.0,313.0,2084.0,,,3.0,2.0,"8868 N Huntington Ct, Hayden Lake, ID 83835",8868 N Huntington Ct,Hayden Lake,ID,83835,47.75234,-116.78158,,False,,,,
115547791,FOR_RENT,House for rent,,2295.0,1242.0,2.0,666700.0,537.0,2456.0,,,3.0,2.0,"1683 Ginney Way, McCall, ID 83638",1683 Ginney Way,McCall,ID,83638,44.921604,-116.07504,,False,,,,
249071852,FOR_RENT,House for rent,,2200.0,1614.0,1.0,301100.0,187.0,2130.0,,,4.0,2.0,"148 NE Lotus Ct, Mountain Home, ID 83647",148 NE Lotus Ct,Mountain Home,ID,83647,43.146587,-115.70649,,False,,,,
455441508,FOR_RENT,Townhouse for rent,,1000.0,,,,,,,,1.0,1.0,"418 W 13th St #B, Burley, ID 83318",418 W 13th St #B,Burley,ID,83318,42.536808,-113.79802,,False,,,,
2057293836,FOR_RENT,Apartment for rent,,895.0,800.0,1.0,,,894.0,,,2.0,1.0,"694-698 Washington, 694 Washington Ave #1/2, Pocatello, ID 83201",694 Washington Ave #1/2,Pocatello,ID,83201,42.887604,-112.44626,,False,,,,
351311059,FOR_RENT,Townhouse for rent,,1895.0,1646.0,1.0,,,,,,4.0,3.0,"5580 Trueman St UNIT B, Chubbuck, ID 83202",5580 Trueman St UNIT B,Chubbuck,ID,83202,42.934494,-112.48218,,False,,,,
447956033,FOR_RENT,Apartment for rent,,1095.0,1000.0,1.0,,,,,,2.0,1.0,"1165 Canal Ave #1, Idaho Falls, ID 83402",1165 Canal Ave #1,Idaho Falls,ID,83402,43.499672,-112.038216,,False,,,,
79644928,FOR_RENT,House for rent,,2000.0,1039.0,2.0,409000.0,394.0,1892.0,,,2.0,1.0,"613 N Pond St, Boise, ID 83706",613 N Pond St,Boise,ID,83706,43.61028,-116.24139,,False,,,,
76911070,FOR_RENT,House for rent,,1875.0,1696.0,1.0,299800.0,177.0,1882.0,,,4.0,2.0,"375 W 18th St, Idaho Falls, ID 83402",375 W 18th St,Idaho Falls,ID,83402,43.48153,-112.04045,,False,,,,
455446875,FOR_RENT,Apartment for rent,,950.0,,,,,,,,2.0,1.0,"1346 Holman Ave #1346, Pocatello, ID 83201",1346 Holman Ave #1346,Pocatello,ID,83201,42.89899,-112.44288,,False,,,,
2091920110,FOR_RENT,Apartment for rent,,1235.0,700.0,2.0,,,1392.0,,,1.0,1.0,"1605 S Joyce St, Boise, ID 83706",1605 S Joyce St,Boise,ID,83706,43.600464,-116.20653,,False,,,,
113146307,FOR_RENT,House for rent,,1925.0,1197.0,2.0,429500.0,359.0,2254.0,,,3.0,2.0,"661 W Bushwood Ave, Coeur D Alene, ID 83815",661 W Bushwood Ave,Coeur D Alene,ID,83815,47.726192,-116.79485,,False,,,,
2072627435,FOR_RENT,House for rent,,2300.0,1780.0,1.0,477800.0,268.0,2609.0,,,3.0,2.0,"2762 E Gypsum St, Nampa, ID 83686",2762 E Gypsum St,Nampa,ID,83686,43.53305,-116.53707,,False,,,,
2080413887,FOR_RENT,Apartment for rent,,750.0,700.0,1.0,347700.0,497.0,1152.0,,,1.0,1.0,"101 Depot St APT 1, Horseshoe Bend, ID 83629",101 Depot St APT 1,Horseshoe Bend,ID,83629,43.91412,-116.194984,,False,,,,
455255307,FOR_RENT,Apartment for rent,,1395.0,1400.0,1.0,,,,,,4.0,1.0,"4 bed, 1.0 bath, 1400 sqft, $1,395, 461 2nd Ave E #256804242, Twin Falls, ID 83301",461 2nd Ave E #256804242,Twin Falls,ID,83301,42.553265,-114.4641,,False,,,,
79620520,FOR_RENT,Apartment for rent,,1325.0,816.0,2.0,740100.0,907.0,1778.0,,,2.0,1.0,"1478 W Sandalwood Dr, Meridian, ID 83646",1478 W Sandalwood Dr,Meridian,ID,83646,43.62345,-116.41205,,False,,,,
124752465,FOR_RENT,House for rent,,2375.0,1548.0,2.0,432100.0,279.0,2314.0,,,4.0,3.0,"4691 N Bright Angel Pl, Meridian, ID 83646",4691 N Bright Angel Pl,Meridian,ID,83646,43.64747,-116.375565,,False,,,,
351173783,FOR_RENT,Apartment for rent,,1995.0,1033.0,2.0,,,1701.0,,,3.0,2.0,"Beautifully Renovated Single Level Home in the Heart of Coeur D' Alene!, 5140 N Abbey Ct, Coeur D Alene, ID 83815",5140 N Abbey Ct #0,Coeur D Alene,ID,83815,47.71884,-116.83103,,False,,,,
89047267,FOR_RENT,Apartment for rent,,1650.0,1001.0,2.0,286300.0,286.0,1539.0,,,2.0,2.0,"11045 W Garverdale Ln APT 102, Boise, ID 83713",11045 W Garverdale Ln APT 102,Boise,ID,83713,43.62086,-116.319916,,False,,,,
89247737,FOR_RENT,House for rent,,2495.0,2685.0,1.0,440600.0,164.0,2522.0,,,3.0,3.0,"663 Gold St, Middleton, ID 83644",663 Gold St,Middleton,ID,83644,43.712963,-116.60062,,False,,,,
79641847,FOR_RENT,House for rent,,2295.0,1981.0,1.0,523200.0,264.0,2611.0,,,3.0,2.0,"250 S Harlan Pl, Eagle, ID 83616",250 S Harlan Pl,Eagle,ID,83616,43.693207,-116.35772,,False,,,,
121769484,FOR_RENT,House for rent,,2750.0,2124.0,1.0,531600.0,250.0,2780.0,,,4.0,3.0,"1283 N Ewell Ct, Post Falls, ID 83854",1283 N Ewell Ct,Post Falls,ID,83854,47.720165,-116.89807,,False,,,,
94752921,FOR_RENT,House for rent,,2500.0,3136.0,1.0,420100.0,134.0,2480.0,,,4.0,3.0,"2409 Brandon Dr, Idaho Falls, ID 83402",2409 Brandon Dr,Idaho Falls,ID,83402,43.489727,-112.079254,,False,,,,
79622699,FOR_RENT,House for rent,,2450.0,1400.0,2.0,421600.0,301.0,2215.0,,,4.0,2.0,"14457 W Roaring Creek St, Boise, ID 83713",14457 W Roaring Creek St,Boise,ID,83713,43.650063,-116.3626,,False,,,,
2066691044,FOR_RENT,Apartment for rent,,1495.0,900.0,2.0,,,1429.0,,,2.0,1.0,"9673 W Hoff Dr, Garden City, ID 83714",9673 W Hoff Dr,Garden City,ID,83714,43.66078,-116.30178,,False,,,,
336962088,FOR_RENT,House for rent,,2395.0,1904.0,1.0,412100.0,216.0,2500.0,,,3.0,3.0,"10162 Davies St, Nampa, ID 83687",10162 Davies St,Nampa,ID,83687,43.636936,-116.59649,,False,,,,
76915756,FOR_RENT,House for rent,,2500.0,2950.0,1.0,438600.0,149.0,2484.0,,,5.0,3.0,"2006 Eagle Pointe Dr, Ammon, ID 83406",2006 Eagle Pointe Dr,Ammon,ID,83406,43.479008,-111.95401,,False,,,,
455424693,FOR_RENT,Townhouse for rent,,1250.0,1266.0,1.0,,,,,,3.0,2.0,"5229 Mesquite Dr #3, Pocatello, ID 83202",5229 Mesquite Dr #3,Pocatello,ID,83202,42.928295,-112.469925,,False,,,,
2091798971,FOR_RENT,Townhouse for rent,,1250.0,1266.0,1.0,234300.0,185.0,1448.0,,,3.0,2.0,"5237 Mesquite Dr APT 2, Pocatello, ID 83202",5237 Mesquite Dr APT 2,Pocatello,ID,83202,42.928295,-112.47028,,False,,,,
2088219835,FOR_RENT,Apartment for rent,,1595.0,1210.0,1.0,,,2033.0,,,3.0,2.0,"3624 E 2nd Ave #A, Post Falls, ID 83854",3624 E 2nd Ave #A,Post Falls,ID,83854,47.706776,-116.89975,,False,,,,
331268564,FOR_RENT,House for rent,,2800.0,2267.0,1.0,520800.0,230.0,2812.0,,,5.0,3.0,"10236 W Achillea St, Star, ID 83669",10236 W Achillea St,Star,ID,83669,43.69051,-116.481186,,False,,,,
96903668,FOR_RENT,House for rent,,3000.0,2352.0,1.0,592800.0,252.0,2757.0,,,3.0,3.0,"1306 Jessica Ave, Fruitland, ID 83619",1306 Jessica Ave,Fruitland,ID,83619,44.02381,-116.9063,,False,,,,
339431095,FOR_RENT,Townhouse for rent,,2400.0,1438.0,2.0,420500.0,292.0,2228.0,,,3.0,2.0,"11019 W Shelborne St, Boise, ID 83709",11019 W Shelborne St,Boise,ID,83709,43.545593,-116.31948,,False,,,,
2054285084,FOR_RENT,Apartment for rent,,815.0,500.0,2.0,,,772.0,,,1.0,1.0,"Apartments available in a highly desirable University District location!, 655 S 6th Ave #4, Pocatello, ID 83201",655 S 6th Ave #4,Pocatello,ID,83201,42.862656,-112.43764,,False,,,,
455323187,FOR_RENT,Apartment for rent,,1450.0,1256.0,1.0,,,,,,2.0,2.0,"435 2nd Ave N - 2, 435 2nd Ave N, Nampa, ID 83687",435 2nd Ave N #2,Nampa,ID,83687,43.592575,-116.565834,,False,,,,
340056385,FOR_RENT,Apartment for rent,,1795.0,1258.0,1.0,,,1782.0,,,3.0,2.0,"1553 Clear Creek, 1553 S Clear Creek Dr #101, Boise, ID 83709",1553 S Clear Creek Dr #101,Boise,ID,83709,43.590557,-116.31769,,False,,,,
339428811,FOR_RENT,House for rent,,2395.0,1487.0,2.0,551700.0,371.0,2401.0,,,2.0,2.0,"955 Boise Ave, Boise, ID 83706",955 Boise Ave,Boise,ID,83706,43.590782,-116.19348,,False,,,,
2070056794,FOR_RENT,House for rent,,3100.0,2332.0,1.0,485000.0,208.0,2617.0,,,4.0,3.0,"17805 N Harpster Way, Nampa, ID 83687",17805 N Harpster Way,Nampa,ID,83687,43.63119,-116.561775,,False,,,,
222796993,FOR_RENT,Townhouse for rent,,1250.0,1300.0,1.0,223100.0,172.0,1416.0,,,3.0,2.0,"503 Raven Way APT B, Chubbuck, ID 83202",503 Raven Way APT B,Chubbuck,ID,83202,42.913635,-112.45624,,False,,,,
72318680,FOR_RENT,House for rent,,1995.0,1136.0,2.0,351500.0,309.0,1851.0,,,3.0,2.0,"784 Johnson Dr, Middleton, ID 83644",784 Johnson Dr,Middleton,ID,83644,43.711857,-116.612206,,False,,,,
336015711,FOR_RENT,House for rent,,2395.0,2046.0,1.0,517300.0,253.0,2542.0,,,4.0,2.0,"3551 N Tansy Pl, Star, ID 83669",3551 N Tansy Pl,Star,ID,83669,43.724716,-116.485596,,False,,,,
2067151284,FOR_RENT,House for rent,,2295.0,1447.0,2.0,394400.0,273.0,2104.0,,,3.0,2.0,"1755 E Kentucky Ave, Nampa, ID 83686",1755 E Kentucky Ave,Nampa,ID,83686,43.552254,-116.54989,,False,,,,
332949951,FOR_RENT,House for rent,,2250.0,1216.0,2.0,358700.0,295.0,2120.0,,,3.0,2.0,"15090 N Bonelli Ave, Nampa, ID 83651",15090 N Bonelli Ave,Nampa,ID,83651,43.591427,-116.616,,False,,,,
455326515,FOR_RENT,Apartment for rent,,985.0,,,,,,,,2.0,1.0,"2 bed, 1.0 bath, $985, 350 5th Ave E #3, Twin Falls, ID 83301",350 5th Ave E #3,Twin Falls,ID,83301,42.555946,-114.46331,,False,,,,
79655563,FOR_RENT,House for rent,,2045.0,1140.0,2.0,408100.0,358.0,2036.0,,,3.0,2.0,"7819 W Gillis St, Boise, ID 83714",7819 W Gillis St,Boise,ID,83714,43.677593,-116.28484,,False,,,,
76917184,FOR_RENT,House for rent,,2300.0,3400.0,1.0,353100.0,104.0,2141.0,,,5.0,3.0,"414 E 22nd St, Idaho Falls, ID 83404",414 E 22nd St,Idaho Falls,ID,83404,43.477844,-112.02564,,False,,,,
79700207,FOR_RENT,Apartment for rent,,1550.0,1000.0,2.0,,,1481.0,,,2.0,1.0,"2060 S Colorado Ave, Boise, ID 83706",2060 S Colorado Ave,Boise,ID,83706,43.58697,-116.18975,,False,,,,
2091411854,FOR_RENT,Apartment for rent,,750.0,600.0,1.0,,,727.0,,,1.0,1.0,"907 N Garfield Ave, Pocatello, ID 83204",907 N Garfield Ave,Pocatello,ID,83204,42.86691,-112.45995,,False,,,,
2057135159,FOR_RENT,Townhouse for rent,,3750.0,2480.0,2.0,995300.0,401.0,5166.0,,,3.0,3.0,"109 W Spruce St #4, Hailey, ID 83333",109 W Spruce St #4,Hailey,ID,83333,43.522995,-114.3201,,False,,,,
113830612,FOR_RENT,Apartment for rent,,1399.0,1443.0,1.0,,,1211.0,,,3.0,1.0,"1350 Willard Ave, Pocatello, ID 83201",1350 Willard Ave,Pocatello,ID,83201,42.90031,-112.44734,,False,,,,
222796769,FOR_RENT,Townhouse for rent,,1195.0,1200.0,1.0,215200.0,179.0,1211.0,,,2.0,2.0,"446 Pheasant Ridge Dr APT A, Chubbuck, ID 83202",446 Pheasant Ridge Dr APT A,Chubbuck,ID,83202,42.915546,-112.45792,,False,,,,
222799271,FOR_RENT,House for rent,,1599.0,1700.0,1.0,257500.0,151.0,1491.0,,,4.0,1.0,"728 W Cedar St, Pocatello, ID 83201",728 W Cedar St,Pocatello,ID,83201,42.887997,-112.46261,,False,,,,
2058192514,FOR_RENT,Apartment for rent,,1295.0,868.0,1.0,,,1459.0,,,2.0,2.0,"4986 W Station Ln APT 201, Boise, ID 83703",4986 W Station Ln APT 201,Boise,ID,83703,43.65182,-116.25061,,False,,,,
2054585624,FOR_RENT,Apartment for rent,,1045.0,587.0,2.0,,,1975.0,,,1.0,1.0,"580 S 14th St #202, Boise, ID 83702",580 S 14th St #202,Boise,ID,83702,43.61606,-116.21493,,False,,,,
2057866165,FOR_RENT,Apartment for rent,,1195.0,483.0,2.0,,,1088.0,,,1.0,1.0,"122 E Aikens Rd, Eagle, ID 83616",122 E Aikens Rd,Eagle,ID,83616,43.694237,-116.352486,,False,,,,
79693397,FOR_RENT,House for rent,,3200.0,1706.0,2.0,650700.0,381.0,3006.0,,,3.0,3.0,"2304 N 29th St, Boise, ID 83703",2304 N 29th St,Boise,ID,83703,43.641003,-116.22419,,False,,,,
2066547367,FOR_RENT,Townhouse for rent,,1995.0,1509.0,1.0,363600.0,241.0,1733.0,,,3.0,3.0,"10620 N 36 E, Idaho Falls, ID 83401",10620 N 36 E,Idaho Falls,ID,83401,43.5912,-111.96171,,False,,,,
2080925167,FOR_RENT,Apartment for rent,,1095.0,866.0,1.0,,,1247.0,,,2.0,1.0,"1727 S Juniper St APT 28, Nampa, ID 83686",1727 S Juniper St APT 28,Nampa,ID,83686,43.552128,-116.5681,,False,,,,
89249081,FOR_RENT,House for rent,,1925.0,1251.0,2.0,352700.0,282.0,1914.0,,,3.0,2.0,"13671 Orlando St, Caldwell, ID 83607",13671 Orlando St,Caldwell,ID,83607,43.609417,-116.66634,,False,,,,
455327367,FOR_RENT,Apartment for rent,,1425.0,958.0,1.0,,,,,,2.0,2.0,"Idaho Avenue - 571, 571 W Idaho Ave, Meridian, ID 83642",571 W Idaho Ave #571,Meridian,ID,83642,43.61076,-116.4015,,False,,,,
2088336648,FOR_RENT,Apartment for rent,,1525.0,960.0,2.0,,,1560.0,,,2.0,2.0,"4767 N Morninggale Dr APT 101, Boise, ID 83713",4767 N Morninggale Dr APT 101,Boise,ID,83713,43.647835,-116.343796,,False,,,,
222797043,FOR_RENT,Townhouse for rent,,1250.0,1300.0,1.0,227200.0,175.0,1396.0,,,3.0,2.0,"456 Raven Way APT A, Chubbuck, ID 83202",456 Raven Way APT A,Chubbuck,ID,83202,42.91411,-112.457306,,False,,,,
455348263,FOR_RENT,Apartment for rent,,1595.0,1200.0,1.0,,,,,,3.0,3.0,"1513 E 3rd Ave #A, Post Falls, ID 83854",1513 E 3rd Ave #A,Post Falls,ID,83854,47.708378,-116.92482,,False,,,,
339431932,FOR_RENT,House for rent,,3350.0,1860.0,2.0,498400.0,268.0,2427.0,,,4.0,2.0,"3917 N Amberwood Ave, Meridian, ID 83646",3917 N Amberwood Ave,Meridian,ID,83646,43.64023,-116.36088,,False,,,,
2056133744,FOR_RENT,Apartment for rent,,1395.0,860.0,2.0,,,1397.0,,,2.0,1.0,"1213 W Beacon St, Boise, ID 83706",1213 W Beacon St,Boise,ID,83706,43.59814,-116.19663,,False,,,,
234170355,FOR_RENT,Apartment for rent,,1550.0,,,,,1373.0,,,3.0,3.0,"565 Pioneer Rd, Rexburg, ID 83440",565 Pioneer Rd,Rexburg,ID,83440,43.814835,-111.80662,,False,,,,
2062350532,FOR_RENT,Apartment for rent,,1245.0,792.0,2.0,,,2466.0,,,2.0,1.0,"592 S 14th St APT 300, Boise, ID 83702",592 S 14th St APT 300,Boise,ID,83702,43.61603,-116.21504,,False,,,,
2079188459,FOR_RENT,Apartment for rent,,1295.0,868.0,1.0,,,1459.0,,,2.0,2.0,"4986 W Station Ln #101, Boise, ID 83703",4986 W Station Ln #101,Boise,ID,83703,43.65182,-116.250595,,False,,,,
2079341791,FOR_RENT,Apartment for rent,,1045.0,576.0,2.0,,,1177.0,,,1.0,1.0,"4980 W Camas St #16, Boise, ID 83705",4980 W Camas St #16,Boise,ID,83705,43.595543,-116.24319,,False,,,,
2101376452,FOR_RENT,Apartment for rent,,1095.0,866.0,1.0,,,1247.0,,,2.0,1.0,"1731 S Juniper St APT 36, Nampa, ID 83686",1731 S Juniper St APT 36,Nampa,ID,83686,43.552067,-116.56811,,False,,,,
2088037947,FOR_RENT,Apartment for rent,,1250.0,1100.0,1.0,,,1272.0,,,3.0,2.0,"3535 Deloy Dr APT 3, Idaho Falls, ID 83401",3535 Deloy Dr APT 3,Idaho Falls,ID,83401,43.518173,-111.96375,,False,,,,
239900404,FOR_RENT,House for rent,,2850.0,1662.0,2.0,479100.0,288.0,2598.0,,,4.0,3.0,"7971 S Red Cliff Ave, Boise, ID 83716",7971 S Red Cliff Ave,Boise,ID,83716,43.529495,-116.11042,,False,,,,
455369770,FOR_RENT,House for rent,,1200.0,,,,,,,,3.0,1.0,"714 E Oak St #718, Pocatello, ID 83201",714 E Oak St #718,Pocatello,ID,83201,42.877068,-112.44323,,False,,,,
455270818,FOR_RENT,Apartment for rent,,1345.0,880.0,2.0,,,,,,2.0,2.0,"1805 W Bella Ln #1, Nampa, ID 83651",1805 W Bella Ln #1,Nampa,ID,83651,43.598053,-116.60361,,False,,,,
2054754503,FOR_RENT,House for rent,,2125.0,1400.0,2.0,362800.0,259.0,1901.0,,,3.0,2.0,"4344 E Glade Creek Rd, Idaho Falls, ID 83401",4344 E Glade Creek Rd,Idaho Falls,ID,83401,43.514072,-111.947334,,False,,,,
300361254,FOR_RENT,Apartment for rent,,1055.0,932.0,1.0,,,1087.0,,,3.0,1.0,"2800 Hunters Loop, Blackfoot, ID 83221",2800 Hunters Loop,Blackfoot,ID,83221,43.211224,-112.31937,,False,,,,
2118681330,FOR_RENT,Apartment for rent,,1695.0,628.0,3.0,,,1313.0,,,1.0,1.0,"832 W Ridenbaugh St, Boise, ID 83702",832 W Ridenbaugh St,Boise,ID,83702,43.63208,-116.19797,,False,,,,
2070966384,FOR_RENT,House for rent,,2600.0,2290.0,1.0,464500.0,203.0,2503.0,,,4.0,2.0,"15837 N Limestone Way, Nampa, ID 83651",15837 N Limestone Way,Nampa,ID,83651,43.60233,-116.63663,,False,,,,
455345691,FOR_RENT,Apartment for rent,,825.0,450.0,2.0,,,,,,,1.0,"1015 N 2nd St #E, Coeur D Alene, ID 83814",1015 N 2nd St #E,Coeur D Alene,ID,83814,47.683205,-116.78411,,False,,,,
79622410,FOR_RENT,House for rent,,2875.0,2008.0,1.0,516800.0,257.0,2577.0,,,3.0,3.0,"6209 W Filly St, Boise, ID 83703",6209 W Filly St,Boise,ID,83703,43.66361,-116.26601,,False,,,,
2061591065,FOR_RENT,Apartment for rent,,1595.0,1545.0,1.0,,,1770.0,,,3.0,2.0,"2810 N 14th Pl, Coeur D Alene, ID 83815",2810 N 14th Pl,Coeur D Alene,ID,83815,47.70302,-116.76616,,False,,,,
2122707449,FOR_RENT,Apartment for rent,,895.0,600.0,1.0,,,995.0,,,1.0,1.0,"908 11th Ave S APT 4, Nampa, ID 83651",908 11th Ave S APT 4,Nampa,ID,83651,43.572968,-116.56871,,False,,,,
79603147,FOR_RENT,Apartment for rent,,1345.0,864.0,2.0,,,1234.0,,,2.0,1.0,"6470 W Douglas St, Boise, ID 83704",6470 W Douglas St,Boise,ID,83704,43.605145,-116.26215,,False,,,,
2082197731,FOR_RENT,Apartment for rent,,1998.0,1056.0,2.0,,,1558.0,,,2.0,2.0,"4327 W Grover St, Boise, ID 83705",4327 W Grover St,Boise,ID,83705,43.599625,-116.235435,,False,,,,
2054112482,FOR_RENT,Apartment for rent,,1000.0,787.0,1.0,,,1053.0,,,2.0,1.0,"3156 E Chasewood Dr #4, Idaho Falls, ID 83406",3156 E Chasewood Dr #4,Idaho Falls,ID,83406,43.48429,-111.97136,,False,,,,
79648232,FOR_RENT,House for rent,,3500.0,2200.0,2.0,570300.0,259.0,2896.0,,,3.0,3.0,"3200 W Catalina Ln, Boise, ID 83705",3200 W Catalina Ln,Boise,ID,83705,43.575806,-116.220985,,False,,,,
79653780,FOR_RENT,House for rent,,1695.0,1100.0,2.0,357200.0,325.0,1957.0,,,3.0,1.0,"2104 NW 12th St, Meridian, ID 83646",2104 NW 12th St,Meridian,ID,83646,43.624107,-116.409325,,False,,,,
222808572,FOR_RENT,House for rent,,1299.0,1887.0,1.0,258300.0,137.0,1746.0,,,2.0,2.0,"506 S 9th Ave, Pocatello, ID 83201",506 S 9th Ave,Pocatello,ID,83201,42.866096,-112.43561,,False,,,,
239900096,FOR_RENT,Apartment for rent,,1995.0,1609.0,1.0,419800.0,261.0,2151.0,,,3.0,3.0,"2683 W Malad St, Boise, ID 83705",2683 W Malad St,Boise,ID,83705,43.578453,-116.2153,,False,,,,
79698528,FOR_RENT,House for rent,,2295.0,1481.0,2.0,391900.0,265.0,2243.0,,,3.0,3.0,"3342 W Wave Dr, Meridian, ID 83642",3342 W Wave Dr,Meridian,ID,83642,43.614628,-116.435745,,False,,,,
72363730,FOR_RENT,House for rent,,1960.0,1291.0,2.0,340100.0,263.0,1959.0,,,4.0,2.0,"1209 Falcon St, Caldwell, ID 83607",1209 Falcon St,Caldwell,ID,83607,43.622288,-116.68419,,False,,,,
94753536,FOR_RENT,Townhouse for rent,,1250.0,1080.0,1.0,214100.0,198.0,1234.0,,,2.0,2.0,"404 Energy Dr APT 3, Idaho Falls, ID 83401",404 Energy Dr APT 3,Idaho Falls,ID,83401,43.518757,-112.04098,,False,,,,
2115556428,FOR_RENT,Apartment for rent,,1795.0,1100.0,2.0,,,1626.0,,,3.0,2.0,"10505 W Ardyce Ct, Boise, ID 83704",10505 W Ardyce Ct,Boise,ID,83704,43.62983,-116.31331,,False,,,,
400802507,FOR_RENT,Townhouse for rent,,1560.0,1000.0,2.0,273400.0,273.0,,,,2.0,2.0,"321 Adams St, Twin Falls, ID 83301",321 Adams St,Twin Falls,ID,83301,42.567226,-114.47874,,False,,,,
455347129,FOR_RENT,Townhouse for rent,,1595.0,1100.0,1.0,,,,,,3.0,1.0,"460 N Elm Rd #460, Post Falls, ID 83854",460 N Elm Rd #460,Post Falls,ID,83854,47.711452,-116.98517,,False,,,,
455012861,FOR_RENT,Apartment for rent,,1200.0,1150.0,1.0,,,,,,2.0,1.0,"1430 Midway Ave APT 3, Idaho Falls, ID 83406",1430 Midway Ave APT 3,Idaho Falls,ID,83406,43.484257,-111.96906,,False,,,,
338344894,FOR_RENT,House for rent,,1595.0,924.0,2.0,387300.0,419.0,1550.0,,,1.0,2.0,"1527 S Chase St, Boise, ID 83709",1527 S Chase St,Boise,ID,83709,43.5911,-116.29146,,False,,,,
455129888,FOR_RENT,Apartment for rent,,1350.0,840.0,2.0,,,,,,2.0,1.0,"710 N 21st St #1, Coeur D Alene, ID 83814",710 N 21st St #1,Coeur D Alene,ID,83814,47.67841,-116.75608,,False,,,,
2114024371,FOR_RENT,Apartment for rent,,1345.0,915.0,1.0,,,1715.0,,,2.0,2.0,"10174 W Garverdale Ln APT 202, Boise, ID 83704",10174 W Garverdale Ln APT 202,Boise,ID,83704,43.620995,-116.309006,,False,,,,
210580283,FOR_RENT,Apartment for rent,,1400.0,850.0,2.0,,,1269.0,,,3.0,2.0,"3180 E Chasewood Dr, Ammon, ID 83406",3180 E Chasewood Dr,Ammon,ID,83406,43.484257,-111.97045,,False,,,,
113109153,FOR_RENT,House for rent,,2700.0,,,557000.0,,2190.0,,,3.0,1.0,"1231 E Dalton Ave, Dalton Gardens, ID 83815",1231 E Dalton Ave,Dalton Gardens,ID,83815,47.722855,-116.76993,,False,,,,
336962558,FOR_RENT,House for rent,,2095.0,1411.0,1.0,378100.0,268.0,2121.0,,,3.0,2.0,"17781 N Pegram Way, Nampa, ID 83687",17781 N Pegram Way,Nampa,ID,83687,43.630856,-116.56019,,False,,,,
2118875014,FOR_RENT,Apartment for rent,,1295.0,847.0,2.0,,,1300.0,,,2.0,1.0,"269 E Elbridge St, Meridian, ID 83646",269 E Elbridge St,Meridian,ID,83646,43.62306,-116.39007,,False,,,,
79611649,FOR_RENT,House for rent,,2200.0,1021.0,2.0,413300.0,405.0,2066.0,,,3.0,2.0,"3654 E Wormwood Ct, Boise, ID 83716",3654 E Wormwood Ct,Boise,ID,83716,43.554092,-116.13746,,False,,,,
336014685,FOR_RENT,House for rent,,2395.0,1893.0,1.0,457400.0,242.0,2433.0,,,4.0,3.0,"3453 W Charlene St, Meridian, ID 83642",3453 W Charlene St,Meridian,ID,83642,43.544216,-116.43691,,False,,,,
455195708,FOR_RENT,Townhouse for rent,,1499.0,980.0,2.0,280000.0,286.0,,,,2.0,2.0,"15726 N Knightgate Ln #102, Nampa, ID 83651",15726 N Knightgate Ln #102,Nampa,ID,83651,43.60088,-116.61466,,False,,,,
338345011,FOR_RENT,House for rent,,3900.0,2753.0,1.0,927600.0,337.0,3758.0,,,4.0,3.0,"362 S Hamlin Ln, Eagle, ID 83616",362 S Hamlin Ln,Eagle,ID,83616,43.688423,-116.45365,,False,,,,
79615295,FOR_RENT,House for rent,,2350.0,1648.0,1.0,491600.0,298.0,2255.0,,,3.0,2.0,"1909 W Boulder Bar Dr, Meridian, ID 83646",1909 W Boulder Bar Dr,Meridian,ID,83646,43.660877,-116.41782,,False,,,,
115537569,FOR_RENT,House for rent,,2150.0,2000.0,1.0,497900.0,249.0,2165.0,,,3.0,2.0,"4801 S 4300 W, Rexburg, ID 83440",4801 S 4300 W,Rexburg,ID,83440,43.76361,-111.87092,,False,,,,
79700708,FOR_RENT,House for rent,,3000.0,1487.0,2.0,493100.0,332.0,2314.0,,,4.0,2.0,"6146 N Alder Point Ave, Boise, ID 83714",6146 N Alder Point Ave,Boise,ID,83714,43.675915,-116.28246,,False,,,,
455234653,FOR_RENT,Apartment for rent,,1295.0,959.0,1.0,,,,,,2.0,2.0,"Bright & Stylish Upstairs Apartment!, 10712 W Halstead Ln, Boise, ID 83713",10712 W Halstead Ln #202,Boise,ID,83713,43.622242,-116.31576,,False,,,,
2083223098,FOR_RENT,Townhouse for rent,,1425.0,1189.0,1.0,271900.0,229.0,1431.0,,,2.0,3.0,"76 4th St N APT 104, Nampa, ID 83687",76 4th St N APT 104,Nampa,ID,83687,43.59371,-116.56929,,False,,,,
113143496,FOR_RENT,House for rent,,2150.0,1300.0,2.0,441400.0,340.0,2227.0,,,3.0,2.0,"3502 N 12th St, Coeur D Alene, ID 83815",3502 N 12th St,Coeur D Alene,ID,83815,47.70978,-116.76795,,False,,,,
2061291173,FOR_RENT,House for rent,,2600.0,1461.0,2.0,528400.0,362.0,2141.0,,,3.0,2.0,"4679 W Gumwood Dr, Post Falls, ID 83854",4679 W Gumwood Dr,Post Falls,ID,83854,47.708878,-117.01212,,False,,,,
2081827448,FOR_RENT,Apartment for rent,,1150.0,880.0,1.0,,,1202.0,,,2.0,1.0,"7510 W Holbrook Ln APT 120, Boise, ID 83704",7510 W Holbrook Ln APT 120,Boise,ID,83704,43.629322,-116.27566,,False,,,,
448397251,FOR_RENT,Apartment for rent,,1495.0,1254.0,1.0,,,,,,3.0,2.0,"6231 N Freedom Rd #1-4, Idaho Falls, ID 83401",6231 N Freedom Rd #1-4,Idaho Falls,ID,83401,43.551773,-111.961716,,False,,,,
454838433,FOR_RENT,Apartment for rent,,895.0,800.0,1.0,,,,,,2.0,2.0,"1632 S Von Elm St #1, Pocatello, ID 83201",1632 S Von Elm St #1,Pocatello,ID,83201,42.90149,-112.43057,,False,,,,
2111257875,FOR_RENT,Apartment for rent,,1445.0,959.0,2.0,,,1246.0,,,2.0,1.0,"4920 W Blodgett Ln APT 201, Boise, ID 83705",4920 W Blodgett Ln APT 201,Boise,ID,83705,43.576836,-116.24213,,False,,,,
113851722,FOR_RENT,Apartment for rent,,1050.0,960.0,1.0,252400.0,263.0,1033.0,,,2.0,1.0,"116 Trail Creek Rd, Pocatello, ID 83204",116 Trail Creek Rd,Pocatello,ID,83204,42.8679,-112.468834,,False,,,,
371044464,FOR_RENT,House for rent,,2395.0,1574.0,2.0,464700.0,295.0,2497.0,,,3.0,2.0,"11787 N Entwistle Way, Rathdrum, ID 83858",11787 N Entwistle Way,Rathdrum,ID,83858,47.77865,-116.87568,,False,,,,
79617229,FOR_RENT,House for rent,,2900.0,2753.0,1.0,,,3437.0,,,5.0,3.0,"1917 W Sunrise Rim Rd, Boise, ID 83705",1917 W Sunrise Rim Rd,Boise,ID,83705,43.570198,-116.20573,,False,,,,
79635922,FOR_RENT,House for rent,,2095.0,1599.0,1.0,449300.0,281.0,2186.0,,,3.0,2.0,"9990 W Skycrest Dr, Boise, ID 83704",9990 W Skycrest Dr,Boise,ID,83704,43.653683,-116.30643,,False,,,,
79617498,FOR_RENT,House for rent,,2250.0,1465.0,2.0,427800.0,292.0,2256.0,,,3.0,2.0,"1749 W Hendricks St, Meridian, ID 83646",1749 W Hendricks St,Meridian,ID,83646,43.622116,-116.41538,,False,,,,
72340705,FOR_RENT,House for rent,,2750.0,2112.0,1.0,450700.0,213.0,2734.0,,,4.0,3.0,"1919 E Lost River Ave, Nampa, ID 83686",1919 E Lost River Ave,Nampa,ID,83686,43.536972,-116.54694,,False,,,,
79692780,FOR_RENT,House for rent,,2240.0,1348.0,2.0,410600.0,305.0,2153.0,,,3.0,2.0,"257 S Delphinium Ave, Star, ID 83669",257 S Delphinium Ave,Star,ID,83669,43.689926,-116.48749,,False,,,,
350461679,FOR_RENT,Townhouse for rent,,1895.0,1036.0,2.0,412800.0,398.0,2162.0,,,2.0,2.0,"1238 S Columbus St #1, Boise, ID 83705",1238 S Columbus St #1,Boise,ID,83705,43.592697,-116.208466,,False,,,,
452939997,FOR_RENT,Apartment for rent,,935.0,750.0,1.0,,,,,,2.0,1.0,"Fremont 1351 E, 1351 E Fremont St #1/2, Pocatello, ID 83201",1351 E Fremont St #1/2,Pocatello,ID,83201,42.873512,-112.43834,,False,,,,
348402182,FOR_RENT,House for rent,,2500.0,1903.0,1.0,512700.0,269.0,2478.0,,,3.0,2.0,"1657 S Eagle Flight Pl, Boise, ID 83709",1657 S Eagle Flight Pl,Boise,ID,83709,43.589684,-116.30004,,False,,,,
115526585,FOR_RENT,House for rent,,2500.0,2496.0,1.0,460200.0,184.0,2439.0,,,5.0,3.0,"3830 E 22 N, Rigby, ID 83442",3830 E 22 N,Rigby,ID,83442,43.628876,-111.9372,,False,,,,
2087057632,FOR_RENT,Apartment for rent,,1195.0,950.0,1.0,,,1769.0,,,2.0,3.0,"205 E Bird Ave APT B, Nampa, ID 83686",205 E Bird Ave APT B,Nampa,ID,83686,43.5602,-116.571365,,False,,,,
79612750,FOR_RENT,Apartment for rent,,1370.0,900.0,2.0,,,1384.0,,,2.0,1.0,"8135 W Bobran St, Boise, ID 83709",8135 W Bobran St,Boise,ID,83709,43.595486,-116.283585,,False,,,,
234168921,FOR_RENT,Townhouse for rent,,950.0,890.0,1.0,188600.0,212.0,986.0,,,2.0,1.0,"520 W 7 S, Rexburg, ID 83440",520 W 7 S,Rexburg,ID,83440,43.81206,-111.7987,,False,,,,
72338738,FOR_RENT,House for rent,,1895.0,1028.0,2.0,327000.0,318.0,1851.0,,,3.0,2.0,"2717 E Sandgate Ave, Nampa, ID 83686",2717 E Sandgate Ave,Nampa,ID,83686,43.544483,-116.53705,,False,,,,
337620708,FOR_RENT,House for rent,,2250.0,1456.0,2.0,400400.0,275.0,2278.0,,,3.0,2.0,"2584 Duchess Trl, Emmett, ID 83617",2584 Duchess Trl,Emmett,ID,83617,43.87532,-116.46525,,False,,,,
452811347,FOR_RENT,Apartment for rent,,1695.0,1150.0,1.0,,,,,,3.0,2.0,"Tottenham - 7586, 7586 W Tottenham Ln #97-201, Boise, ID 83704",7586 W Tottenham Ln #97-201,Boise,ID,83704,43.631916,-116.27613,,False,,,,
306836515,FOR_RENT,House for rent,,1950.0,1352.0,1.0,353600.0,262.0,1947.0,,,3.0,3.0,"10597 Hot Springs St, Nampa, ID 83687",10597 Hot Springs St,Nampa,ID,83687,43.627956,-116.60521,,False,,,,
336964162,FOR_RENT,House for rent,,2695.0,2710.0,1.0,553600.0,204.0,2752.0,,,5.0,3.0,"1326 Placerville Ct, Middleton, ID 83644",1326 Placerville Ct,Middleton,ID,83644,43.715557,-116.60488,,False,,,,
246647012,FOR_RENT,House for rent,,3395.0,2669.0,1.0,887100.0,332.0,3524.0,,,4.0,3.0,"6765 E Warm Springs Ave, Boise, ID 83716",6765 E Warm Springs Ave,Boise,ID,83716,43.5564,-116.0989,,False,,,,
110453205,FOR_RENT,House for rent,,2000.0,1053.0,2.0,,,2023.0,,,4.0,3.0,"211 N Lilly St, Moscow, ID 83843",211 N Lilly St,Moscow,ID,83843,46.734974,-117.00705,,False,,,,
2077563792,FOR_RENT,Townhouse for rent,,1275.0,1042.0,1.0,234800.0,225.0,1358.0,,,2.0,3.0,"2143 12th St #2143, Idaho Falls, ID 83404",2143 12th St #2143,Idaho Falls,ID,83404,43.487946,-111.991554,,False,,,,
455152744,FOR_RENT,Apartment for rent,,1395.0,970.0,1.0,,,,,,2.0,2.0,"3301 W Murano Ct #201, Boise, ID 83705",3301 W Murano Ct #201,Boise,ID,83705,43.582,-116.22261,,False,,,,
2062555401,FOR_RENT,Apartment for rent,,1550.0,1082.0,1.0,,,1592.0,,,2.0,2.0,"10222 W Ustick Rd #100, Boise, ID 83704",10222 W Ustick Rd #100,Boise,ID,83704,43.634216,-116.31003,,False,,,,
351526482,FOR_RENT,Townhouse for rent,,2100.0,1776.0,1.0,333000.0,188.0,1894.0,,,3.0,3.0,"1413 Pinecrest Trl, Ammon, ID 83406",1413 Pinecrest Trl,Ammon,ID,83406,43.48391,-111.97477,,False,,,,
222812888,FOR_RENT,House for rent,,2599.0,2997.0,1.0,374900.0,125.0,2010.0,,,6.0,2.0,"27 Dartmouth Ave, Pocatello, ID 83201",27 Dartmouth Ave,Pocatello,ID,83201,42.863155,-112.42319,,False,,,,
79703167,FOR_RENT,House for rent,,2295.0,1809.0,1.0,445200.0,246.0,2261.0,,,3.0,2.0,"2260 N Baywing Hawk Pl, Kuna, ID 83634",2260 N Baywing Hawk Pl,Kuna,ID,83634,43.51121,-116.41112,,False,,,,
2100378038,FOR_RENT,Townhouse for rent,,1250.0,1050.0,1.0,267900.0,255.0,1211.0,,,2.0,2.0,"1304 S Ivy St APT B, Nampa, ID 83686",1304 S Ivy St APT B,Nampa,ID,83686,43.556065,-116.5654,,False,,,,
2060891342,FOR_RENT,House for rent,,1025.0,519.0,2.0,192400.0,371.0,1143.0,,,1.0,1.0,"1724 6th St S, Nampa, ID 83651",1724 6th St S,Nampa,ID,83651,43.57106,-116.55892,,False,,,,
79626803,FOR_RENT,House for rent,,2400.0,1800.0,1.0,473600.0,263.0,2490.0,,,4.0,2.0,"5102 W Grover St, Boise, ID 83705",5102 W Grover St,Boise,ID,83705,43.599644,-116.244934,,False,,,,
339431684,FOR_RENT,House for rent,,2620.0,2179.0,1.0,473100.0,217.0,2598.0,,,4.0,3.0,"4065 Keklik Ave, Meridian, ID 83646",4065 Keklik Ave,Meridian,ID,83646,43.64183,-116.47814,,False,,,,
243438533,FOR_RENT,House for rent,,2220.0,1530.0,1.0,431900.0,282.0,2174.0,,,3.0,2.0,"3091 W Fuji Ct, Kuna, ID 83634",3091 W Fuji Ct,Kuna,ID,83634,43.488304,-116.45283,,False,,,,
336963909,FOR_RENT,House for rent,,2700.0,2054.0,1.0,449000.0,219.0,2496.0,,,4.0,3.0,"8318 E Big Muddy Dr, Nampa, ID 83687",8318 E Big Muddy Dr,Nampa,ID,83687,43.631786,-116.56026,,False,,,,
83170950,FOR_RENT,Townhouse for rent,,2700.0,1531.0,2.0,557300.0,364.0,2629.0,,,3.0,3.0,"1222 S Leadville Ave, Boise, ID 83706",1222 S Leadville Ave,Boise,ID,83706,43.597546,-116.19063,,False,,,,
117915208,FOR_RENT,House for rent,,2350.0,1171.0,2.0,425900.0,364.0,2318.0,,,3.0,2.0,"7819 W Kayak Ct, Rathdrum, ID 83858",7819 W Kayak Ct,Rathdrum,ID,83858,47.795208,-116.89167,,False,,,,
113153720,FOR_RENT,House for rent,,2599.0,1816.0,1.0,447100.0,246.0,2627.0,,,3.0,3.0,"1717 N Quail Run Blvd, Post Falls, ID 83854",1717 N Quail Run Blvd,Post Falls,ID,83854,47.725544,-116.93218,,False,,,,
79590793,FOR_RENT,House for rent,,2200.0,1448.0,2.0,386100.0,267.0,2220.0,,,4.0,2.0,"693 E Baldwin St, Meridian, ID 83646",693 E Baldwin St,Meridian,ID,83646,43.63164,-116.385506,,False,,,,
72312838,FOR_RENT,House for rent,,2300.0,1549.0,1.0,386700.0,250.0,2034.0,,,3.0,2.0,"17344 N Cody Ave, Nampa, ID 83687",17344 N Cody Ave,Nampa,ID,83687,43.62445,-116.55843,,False,,,,
338345415,FOR_RENT,House for rent,,2500.0,2025.0,1.0,489400.0,242.0,2535.0,,,4.0,2.0,"3541 W Remembrance Dr, Meridian, ID 83642",3541 W Remembrance Dr,Meridian,ID,83642,43.544964,-116.43822,,False,,,,
113108695,FOR_RENT,House for rent,,1600.0,,,,,962.0,,,3.0,2.0,"8747 N Starr Loop, Hayden Lake, ID 83835",8747 N Starr Loop,Hayden Lake,ID,83835,47.74846,-116.78777,,False,,,,
352379912,FOR_RENT,Townhouse for rent,,1895.0,1150.0,2.0,,,1818.0,,,2.0,3.0,"4838 N Orchid Ln #1, Coeur D Alene, ID 83815",4838 N Orchid Ln #1,Coeur D Alene,ID,83815,47.71608,-116.8056,,False,,,,
112436448,FOR_RENT,House for rent,,2250.0,1596.0,1.0,403100.0,253.0,2533.0,,,4.0,3.0,"4862 S Chex Way, Boise, ID 83709",4862 S Chex Way,Boise,ID,83709,43.55859,-116.286514,,False,,,,
2088611056,FOR_RENT,Apartment for rent,,1245.0,862.0,1.0,,,1341.0,,,2.0,1.0,"2867 W Malad St, Boise, ID 83705",2867 W Malad St,Boise,ID,83705,43.578545,-116.217415,,False,,,,
455109429,FOR_RENT,Apartment for rent,,1750.0,900.0,2.0,,,,,,2.0,1.0,"Newly Renovated Townhouse - Pet Friendly!!, 2520 N Arthur St, Boise, ID 83703",2520 N Arthur St #0,Boise,ID,83703,43.643192,-116.23742,,False,,,,
455053694,FOR_RENT,Apartment for rent,,2695.0,3250.0,1.0,,,,,,6.0,3.0,"6344 Ender Ln UNIT 1, Idaho Falls, ID 83401",6344 Ender Ln UNIT 1,Idaho Falls,ID,83401,43.55262,-112.02977,,False,,,,
2122309424,FOR_RENT,Apartment for rent,,1595.0,1150.0,1.0,,,1543.0,,,2.0,2.0,"6720 W Morris Hill Ln APT 102, Boise, ID 83704",6720 W Morris Hill Ln APT 102,Boise,ID,83704,43.60901,-116.264984,,False,,,,
455134752,FOR_RENT,Townhouse for rent,,1599.0,1106.0,1.0,287200.0,260.0,,,,2.0,2.0,"15714 N Knightgate Ln #1, Nampa, ID 83651",15714 N Knightgate Ln #1,Nampa,ID,83651,43.600697,-116.614555,,False,,,,
2066394694,FOR_RENT,Apartment for rent,,1450.0,904.0,2.0,,,1378.0,,,2.0,1.0,"10452 S Fox Ridge Dr #10452, Boise, ID 83709",10452 S Fox Ridge Dr #10452,Boise,ID,83709,43.532185,-116.312515,,False,,,,
2091029580,FOR_RENT,Apartment for rent,,1295.0,800.0,2.0,,,1487.0,,,2.0,2.0,"4176 W Libby Ln, Boise, ID 83705",4176 W Libby Ln,Boise,ID,83705,43.597538,-116.23319,,False,,,,
396061414,FOR_RENT,House for rent,,1200.0,550.0,2.0,200500.0,365.0,1176.0,,,1.0,1.0,"116 E Morrison St, Caldwell, ID 83605",116 E Morrison St,Caldwell,ID,83605,43.65702,-116.69742,,False,,,,
433327685,FOR_RENT,Apartment for rent,,1495.0,1254.0,1.0,,,,,,3.0,2.0,"6148 N Freedom Rd #1-4, Idaho Falls, ID 83401",6148 N Freedom Rd #1-4,Idaho Falls,ID,83401,43.551113,-111.96091,,False,,,,
447751218,FOR_RENT,Townhouse for rent,,1750.0,1655.0,1.0,,,,,,3.0,2.0,"6 7th St #1, Pinehurst, ID 83850",6 7th St #1,Pinehurst,ID,83850,47.540474,-116.24027,,False,,,,
455134751,FOR_RENT,Townhouse for rent,,1599.0,1106.0,1.0,288100.0,260.0,,,,2.0,2.0,"15703 N Knightgate Ln #3, Nampa, ID 83651",15703 N Knightgate Ln #3,Nampa,ID,83651,43.600574,-116.615,,False,,,,
79687193,FOR_RENT,House for rent,,2400.0,1944.0,1.0,507500.0,261.0,2312.0,,,3.0,3.0,"1416 W Great Basin Dr, Meridian, ID 83646",1416 W Great Basin Dr,Meridian,ID,83646,43.643837,-116.41194,,False,,,,
2092320584,FOR_RENT,Apartment for rent,,1350.0,,,,,1330.0,,,2.0,1.0,"2007 E Whispering Willow Ln APT 102, Nampa, ID 83687",2007 E Whispering Willow Ln APT 102,Nampa,ID,83687,43.572533,-116.54661,,False,,,,
2084948207,FOR_RENT,Apartment for rent,,1399.0,1400.0,1.0,,,1312.0,,,3.0,2.0,"767 Filmore Ave #B, Pocatello, ID 83201",767 Filmore Ave #B,Pocatello,ID,83201,42.888763,-112.44066,,False,,,,
76902845,FOR_RENT,House for rent,,2250.0,2669.0,1.0,425700.0,159.0,2394.0,,,6.0,3.0,"2051 Hughes Dr, Idaho Falls, ID 83402",2051 Hughes Dr,Idaho Falls,ID,83402,43.494656,-112.07208,,False,,,,
455255308,FOR_RENT,House for rent,,895.0,600.0,1.0,,,,,,1.0,1.0,"227 Carney St, Twin Falls, ID 83301",227 Carney St,Twin Falls,ID,83301,42.566,-114.488495,,False,,,,
2089296802,FOR_RENT,Apartment for rent,,1300.0,1100.0,1.0,,,1223.0,,,2.0,3.0,"1629 N Stevens Dr APT C, Idaho Falls, ID 83401",1629 N Stevens Dr APT C,Idaho Falls,ID,83401,43.510372,-111.959526,,False,,,,
455045965,FOR_RENT,Apartment for rent,,1495.0,852.0,2.0,,,,,,2.0,1.0,"1617 E 3rd Ave #B, Post Falls, ID 83854",1617 E 3rd Ave #B,Post Falls,ID,83854,47.70843,-116.9217,,False,,,,
455143566,FOR_RENT,Apartment for rent,,1595.0,,,,,,,,3.0,2.0,"Integra St 16645 - 101, 16645 N Integra St, Nampa, ID 83687",16645 N Integra St #101,Nampa,ID,83687,43.61438,-116.51931,,False,,,,
249555121,FOR_RENT,House for rent,,2945.0,2261.0,1.0,670800.0,297.0,2790.0,,,3.0,3.0,"3280 S Ruffian Ln, Meridian, ID 83642",3280 S Ruffian Ln,Meridian,ID,83642,43.574947,-116.40408,,False,,,,
339432274,FOR_RENT,Apartment for rent,,2132.0,1977.0,1.0,,,2674.0,,,4.0,4.0,"1618 N Mumbarto Ln, Boise, ID 83713",1618 N Mumbarto Ln,Boise,ID,83713,43.620293,-116.322784,,False,,,,
79680711,FOR_RENT,Townhouse for rent,,1895.0,1321.0,1.0,343800.0,260.0,1928.0,,,3.0,3.0,"11243 W Stallion Ln, Boise, ID 83713",11243 W Stallion Ln,Boise,ID,83713,43.634216,-116.3222,,False,,,,
362900465,FOR_RENT,Apartment for rent,,1725.0,1200.0,1.0,,,1773.0,,,3.0,2.0,"3460 S Milan Ave - 3 Bedroom Apartment, 3460 S Milan Ave #3484, Meridian, ID 83642",3460 S Milan Ave #3484,Meridian,ID,83642,43.573605,-116.35485,,False,,,,
72689442,FOR_RENT,House for rent,,2250.0,1290.0,2.0,387800.0,301.0,2095.0,,,3.0,2.0,"1279 N Black Wolf Ave, Kuna, ID 83634",1279 N Black Wolf Ave,Kuna,ID,83634,43.500862,-116.41939,,False,,,,
2063006222,FOR_RENT,Townhouse for rent,,1495.0,866.0,2.0,297400.0,343.0,1424.0,,,2.0,2.0,"928 E Wandering Ln APT 104, Kuna, ID 83634",928 E Wandering Ln APT 104,Kuna,ID,83634,43.487305,-116.40225,,False,,,,
239900098,FOR_RENT,House for rent,,1995.0,1609.0,1.0,448200.0,279.0,2122.0,,,3.0,2.0,"2691 W Malad St, Boise, ID 83705",2691 W Malad St,Boise,ID,83705,43.5786,-116.2153,,False,,,,
113107386,FOR_RENT,House for rent,,2775.0,2249.0,1.0,642200.0,286.0,2788.0,,,3.0,2.0,"2057 E Goldleaf Ln, Coeur D Alene, ID 83815",2057 E Goldleaf Ln,Coeur D Alene,ID,83815,47.72139,-116.75607,,False,,,,
110849255,FOR_RENT,Apartment for rent,,975.0,650.0,2.0,177800.0,274.0,1100.0,,,2.0,1.0,"1095 E 9 S, Mountain Home, ID 83647",1095 E 9 S,Mountain Home,ID,83647,43.122574,-115.68517,,False,,,,
79641117,FOR_RENT,Apartment for rent,,1395.0,915.0,2.0,,,1404.0,,,2.0,2.0,"6533 W Douglas St, Boise, ID 83704",6533 W Douglas St,Boise,ID,83704,43.604813,-116.2631,,False,,,,
455108151,FOR_RENT,Apartment for rent,,1350.0,978.0,1.0,,,,,,2.0,2.0,"Sugar Street Townhomes, 3 N Sugar St, Nampa, ID 83687",3 N Sugar St #101,Nampa,ID,83687,43.576057,-116.543915,,False,,,,
79702701,FOR_RENT,Townhouse for rent,,1500.0,750.0,2.0,474400.0,633.0,1698.0,,,2.0,1.0,"1522 S Denver Ave, Boise, ID 83706",1522 S Denver Ave,Boise,ID,83706,43.593613,-116.19451,,False,,,,
249553362,FOR_RENT,House for rent,,2300.0,1500.0,2.0,462900.0,309.0,2278.0,,,3.0,2.0,"6530 W Russett St, Boise, ID 83704",6530 W Russett St,Boise,ID,83704,43.62205,-116.263275,,False,,,,
79706309,FOR_RENT,Apartment for rent,,1095.0,988.0,1.0,754400.0,764.0,1258.0,,,2.0,1.0,"5645 W Dorian Ln, Boise, ID 83705",5645 W Dorian Ln,Boise,ID,83705,43.588318,-116.25185,,False,,,,
455323390,FOR_RENT,Apartment for rent,,1450.0,1256.0,1.0,,,,,,2.0,2.0,"431 2nd Ave N - 7, 431 2nd Ave N, Nampa, ID 83687",431 2nd Ave N #7,Nampa,ID,83687,43.592487,-116.56595,,False,,,,
250280889,FOR_RENT,House for rent,,3500.0,3386.0,1.0,590500.0,174.0,3659.0,,,6.0,3.0,"1462 N 825 E, Shelley, ID 83274",1462 N 825 E,Shelley,ID,83274,43.40473,-112.11944,,False,,,,
2060477858,FOR_RENT,Townhouse for rent,,1995.0,1774.0,1.0,452700.0,255.0,2176.0,,,4.0,3.0,"1383 Pine Crest Dr, Idaho Falls, ID 83401",1383 Pine Crest Dr,Idaho Falls,ID,83401,44.47506,-111.45156,,False,,,,
2104992110,FOR_RENT,Apartment for rent,,895.0,900.0,1.0,,,1028.0,,,2.0,1.0,"182 Adams St APT 3, Chubbuck, ID 83202",182 Adams St APT 3,Chubbuck,ID,83202,42.93034,-112.46821,,False,,,,
239901085,FOR_RENT,House for rent,,2400.0,1605.0,1.0,488300.0,304.0,2386.0,,,4.0,2.0,"1289 E Yucca Canyon St, Meridian, ID 83646",1289 E Yucca Canyon St,Meridian,ID,83646,43.64878,-116.37817,,False,,,,
76908374,FOR_RENT,House for rent,,2100.0,2329.0,1.0,325700.0,140.0,1907.0,,,5.0,2.0,"930 Koster Ave, Idaho Falls, ID 83404",930 Koster Ave,Idaho Falls,ID,83404,43.489136,-112.00151,,False,,,,
72309011,FOR_RENT,House for rent,,2255.0,1568.0,1.0,359400.0,229.0,2179.0,,,4.0,3.0,"11603 Shelburne St, Caldwell, ID 83605",11603 Shelburne St,Caldwell,ID,83605,43.659595,-116.625275,,False,,,,
79612180,FOR_RENT,Apartment for rent,,1145.0,876.0,1.0,,,1410.0,,,1.0,1.0,"1404 W Franklin St, Boise, ID 83702",1404 W Franklin St,Boise,ID,83702,43.624203,-116.20627,,False,,,,
2121028346,FOR_RENT,Apartment for rent,,1195.0,847.0,1.0,,,1300.0,,,2.0,1.0,"2070 N Woodford Ave, Meridian, ID 83646",2070 N Woodford Ave,Meridian,ID,83646,43.624,-116.39075,,False,,,,
454965782,FOR_RENT,Townhouse for rent,,2200.0,2444.0,1.0,398500.0,163.0,,,,3.0,3.0,"5229 Remember Dr, Idaho Falls, ID 83406",5229 Remember Dr,Idaho Falls,ID,83406,43.450268,-111.94778,,False,,,,
79600736,FOR_RENT,Apartment for rent,,1245.0,862.0,1.0,,,1316.0,,,2.0,1.0,"2833 W Malad St, Boise, ID 83705",2833 W Malad St,Boise,ID,83705,43.578293,-116.216866,,False,,,,
2053597671,FOR_RENT,Apartment for rent,,1050.0,,,,,1097.0,,,3.0,2.0,"108 S 3 W #B, Rexburg, ID 83440",108 S 3 W #B,Rexburg,ID,83440,43.823605,-111.79292,,False,,,,
76914635,FOR_RENT,House for rent,,1595.0,940.0,2.0,,,1517.0,,,3.0,1.0,"1444 Carson St, Idaho Falls, ID 83402",1444 Carson St,Idaho Falls,ID,83402,43.492844,-112.05638,,False,,,,
113124411,FOR_RENT,House for rent,,2500.0,1200.0,2.0,409800.0,342.0,2375.0,,,3.0,2.0,"1008 E Teton Ave, Post Falls, ID 83854",1008 E Teton Ave,Post Falls,ID,83854,47.728218,-116.93291,,False,,,,
124752789,FOR_RENT,House for rent,,2975.0,2425.0,1.0,686800.0,283.0,3080.0,,,4.0,3.0,"3466 S Pheasant Tail Way, Boise, ID 83716",3466 S Pheasant Tail Way,Boise,ID,83716,43.569897,-116.122696,,False,,,,
79701529,FOR_RENT,House for rent,,2300.0,1624.0,1.0,726300.0,447.0,2088.0,,,2.0,1.0,"2031 N Harrison Blvd, Boise, ID 83702",2031 N Harrison Blvd,Boise,ID,83702,43.637512,-116.20873,,False,,,,
248034777,FOR_RENT,House for rent,,2460.0,2348.0,1.0,491700.0,209.0,2482.0,,,4.0,3.0,"57 S Fremont St, Nampa, ID 83651",57 S Fremont St,Nampa,ID,83651,43.57172,-116.60833,,False,,,,
455167800,FOR_RENT,Apartment for rent,,995.0,,,,,,,,,1.0,"407 W 4th St #1B, Moscow, ID 83843",407 W 4th St #1B,Moscow,ID,83843,46.731373,-117.00599,,False,,,,
2120450364,FOR_RENT,Apartment for rent,,1195.0,950.0,1.0,,,1319.0,,,2.0,2.0,"5788 W Clearview Ln APT 202, Boise, ID 83703",5788 W Clearview Ln APT 202,Boise,ID,83703,43.65912,-116.26056,,False,,,,
2056434957,FOR_RENT,Apartment for rent,,1025.0,950.0,1.0,,,1040.0,,,2.0,2.0,"337 E 15th St UNIT 3, Idaho Falls, ID 83404",337 E 15th St UNIT 3,Idaho Falls,ID,83404,43.48444,-112.02762,,False,,,,
339432824,FOR_RENT,House for rent,,2550.0,1817.0,1.0,442000.0,243.0,2341.0,,,3.0,3.0,"4973 W Marysville St, Meridian, ID 83646",4973 W Marysville St,Meridian,ID,83646,43.65122,-116.455696,,False,,,,
2069960330,FOR_RENT,House for rent,,2200.0,2086.0,1.0,523100.0,251.0,2511.0,,,3.0,3.0,"115 W Lava Falls St, Meridian, ID 83646",115 W Lava Falls St,Meridian,ID,83646,43.645615,-116.39497,,False,,,,
2096503255,FOR_RENT,Apartment for rent,,1195.0,560.0,2.0,,,1190.0,,,1.0,1.0,"5140 W Kootenai St APT 6, Boise, ID 83705",5140 W Kootenai St APT 6,Boise,ID,83705,43.593937,-116.24534,,False,,,,
79680671,FOR_RENT,House for rent,,2525.0,1654.0,2.0,480100.0,290.0,2487.0,,,4.0,2.0,"992 E Grouse Dr, Meridian, ID 83646",992 E Grouse Dr,Meridian,ID,83646,43.627853,-116.38214,,False,,,,
2088327793,FOR_RENT,Apartment for rent,,1250.0,950.0,1.0,,,1455.0,,,2.0,1.0,"262 N Latah St APT 202, Boise, ID 83706",262 N Latah St APT 202,Boise,ID,83706,43.606506,-116.22779,,False,,,,
103895030,FOR_RENT,House for rent,,2195.0,1511.0,1.0,463400.0,307.0,2188.0,,,3.0,2.0,"1206 Kinnikinnik Ave, Sandpoint, ID 83864",1206 Kinnikinnik Ave,Sandpoint,ID,83864,48.284782,-116.57075,,False,,,,
79685038,FOR_RENT,House for rent,,3450.0,1941.0,2.0,574000.0,296.0,2454.0,,,4.0,3.0,"922 E Winding Creek Dr, Eagle, ID 83616",922 E Winding Creek Dr,Eagle,ID,83616,43.695004,-116.34233,,False,,,,
442109459,FOR_RENT,Townhouse for rent,,2195.0,1695.0,1.0,332500.0,196.0,,,,4.0,3.0,"2972 Huntshire Ave, Idaho Falls, ID 83406",2972 Huntshire Ave,Idaho Falls,ID,83406,43.48317,-111.97489,,False,,,,
454965155,FOR_RENT,Townhouse for rent,,1795.0,960.0,2.0,324100.0,338.0,,,,2.0,1.0,"2400 S Hilton St #1, Boise, ID 83705",2400 S Hilton St #1,Boise,ID,83705,43.58067,-116.245735,,False,,,,
113116375,FOR_RENT,House for rent,,9000.0,4425.0,2.0,3044700.0,688.0,5896.0,,,5.0,5.0,"4891 W Mill River Ct, Coeur D Alene, ID 83814",4891 W Mill River Ct,Coeur D Alene,ID,83814,47.700268,-116.8468,,False,,,,
2085136128,FOR_RENT,Townhouse for rent,,1495.0,866.0,2.0,297400.0,343.0,1424.0,,,2.0,2.0,"931 E Wandering Ln APT 104, Kuna, ID 83634",931 E Wandering Ln APT 104,Kuna,ID,83634,43.486897,-116.40214,,False,,,,
443648921,FOR_RENT,Apartment for rent,,1400.0,825.0,2.0,,,,,,2.0,1.0,"3365 N Maple Grove Rd, Boise, ID 83704",3365 N Maple Grove Rd,Boise,ID,83704,43.63539,-116.294815,,False,,,,
121072649,FOR_RENT,House for rent,,2450.0,2076.0,1.0,458600.0,221.0,2388.0,,,4.0,3.0,"5692 S Moonfire Way, Boise, ID 83709",5692 S Moonfire Way,Boise,ID,83709,43.55192,-116.32103,,False,,,,
79646431,FOR_RENT,House for rent,,1975.0,1112.0,2.0,392600.0,353.0,2044.0,,,3.0,2.0,"5828 W Filly St, Boise, ID 83703",5828 W Filly St,Boise,ID,83703,43.664062,-116.261444,,False,,,,
338344279,FOR_RENT,House for rent,,2495.0,2172.0,1.0,491200.0,226.0,2488.0,,,4.0,3.0,"12567 W Nabesna St, Star, ID 83669",12567 W Nabesna St,Star,ID,83669,43.691742,-116.51038,,False,,,,
115539183,FOR_RENT,Apartment for rent,,1195.0,900.0,1.0,181500.0,202.0,1060.0,,,2.0,1.0,"264 N 3 E APT 602, Rexburg, ID 83440",264 N 3 E APT 602,Rexburg,ID,83440,43.831768,-111.7739,,False,,,,
2128229108,FOR_RENT,Apartment for rent,,1450.0,900.0,2.0,,,1438.0,,,2.0,2.0,"4903 Maid Jessica St, Caldwell, ID 83607",4903 Maid Jessica St,Caldwell,ID,83607,43.625755,-116.637955,,False,,,,
72683703,FOR_RENT,House for rent,,1995.0,1140.0,2.0,395700.0,347.0,2086.0,,,3.0,2.0,"7826 W Gillis St, Boise, ID 83714",7826 W Gillis St,Boise,ID,83714,43.6778,-116.285095,,False,,,,
454331855,FOR_RENT,Apartment for rent,,1195.0,860.0,1.0,,,,,,2.0,1.0,"10077 W Rifleman Ln APT 102, Boise, ID 83704",10077 W Rifleman Ln APT 102,Boise,ID,83704,43.612343,-116.30754,,False,,,,
443692589,FOR_RENT,House for rent,,2500.0,1874.0,1.0,425200.0,227.0,,,,4.0,2.0,"20444 Owl Creek Ave, Caldwell, ID 83605",20444 Owl Creek Ave,Caldwell,ID,83605,43.668633,-116.61413,,False,,,,
2055791987,FOR_RENT,Apartment for rent,,1700.0,1600.0,1.0,,,1752.0,,,3.0,3.0,"380 S 3 W UNIT 503, Rigby, ID 83442",380 S 3 W UNIT 503,Rigby,ID,83442,43.66693,-111.92398,,False,,,,
336964128,FOR_RENT,House for rent,,2500.0,2347.0,1.0,502600.0,214.0,2625.0,,,5.0,3.0,"15396 Hogback Way, Caldwell, ID 83607",15396 Hogback Way,Caldwell,ID,83607,43.59576,-116.66068,,False,,,,
454849031,FOR_RENT,Apartment for rent,,2500.0,,,,,,,,4.0,3.0,"115 D St #D, Rupert, ID 83350",115 D St #D,Rupert,ID,83350,42.61294,-113.67218,,False,,,,
2092421652,FOR_RENT,Apartment for rent,,1395.0,920.0,2.0,,,1439.0,,,2.0,1.0,"228 N Latah St APT 101, Boise, ID 83706",228 N Latah St APT 101,Boise,ID,83706,43.606266,-116.22728,,False,,,,
454606245,FOR_RENT,Apartment for rent,,850.0,522.0,2.0,,,,,,1.0,1.0,"209 N Lincoln ave, 209 N Lincoln Ave #B, Jerome, ID 83338",209 N Lincoln Ave #B,Jerome,ID,83338,42.725384,-114.51898,,False,,,,
454951686,FOR_RENT,Apartment for rent,,1295.0,1150.0,1.0,,,,,,3.0,2.0,"2429 Eagle Dr APT 101, Idaho Falls, ID 83406",2429 Eagle Dr APT 101,Idaho Falls,ID,83406,43.47514,-111.98012,,False,,,,
2056434958,FOR_RENT,Apartment for rent,,900.0,800.0,1.0,,,855.0,,,2.0,1.0,"322 Fredregill Rd UNIT 4, Pocatello, ID 83204",322 Fredregill Rd UNIT 4,Pocatello,ID,83204,42.848133,-112.42625,,False,,,,
79700144,FOR_RENT,House for rent,,2455.0,2150.0,1.0,457800.0,213.0,2368.0,,,3.0,3.0,"1074 S New Summer Ave, Kuna, ID 83634",1074 S New Summer Ave,Kuna,ID,83634,43.47833,-116.40534,,False,,,,
2078728868,FOR_RENT,Apartment for rent,,1050.0,1120.0,1.0,,,1231.0,,,3.0,2.0,"2866 Hunters Loop UNIT 800, Blackfoot, ID 83221",2866 Hunters Loop UNIT 800,Blackfoot,ID,83221,43.212658,-112.321144,,False,,,,
239899168,FOR_RENT,House for rent,,2070.0,1734.0,1.0,441300.0,254.0,2017.0,,,3.0,3.0,"2991 N Cajun Ln, Meridian, ID 83646",2991 N Cajun Ln,Meridian,ID,83646,43.631878,-116.35639,,False,,,,
2071239092,FOR_RENT,House for rent,,2150.0,1775.0,1.0,358700.0,202.0,2019.0,,,4.0,3.0,"2930 Sunburst Dr, Ammon, ID 83406",2930 Sunburst Dr,Ammon,ID,83406,43.48456,-111.975624,,False,,,,
338343658,FOR_RENT,House for rent,,2715.0,2259.0,1.0,649600.0,288.0,2736.0,,,4.0,3.0,"1061 N Barkvine Ave, Star, ID 83669",1061 N Barkvine Ave,Star,ID,83669,43.701946,-116.47263,,False,,,,
441564321,FOR_RENT,Apartment for rent,,1325.0,1000.0,1.0,,,,,,2.0,1.0,"211 15th Ave S, 211 15th Ave S #1, Nampa, ID 83651",211 15th Ave S #1,Nampa,ID,83651,43.575718,-116.558266,,False,,,,
79674325,FOR_RENT,Apartment for rent,,2150.0,1195.0,2.0,420100.0,352.0,2032.0,,,2.0,2.0,"5146 S Surprise Way APT 101, Boise, ID 83716",5146 S Surprise Way APT 101,Boise,ID,83716,43.556656,-116.12496,,False,,,,
2057907441,FOR_RENT,House for rent,,2915.0,2637.0,1.0,656500.0,249.0,2881.0,,,5.0,3.0,"9291 W Dove Creek St, Star, ID 83669",9291 W Dove Creek St,Star,ID,83669,43.701035,-116.46965,,False,,,,
443052157,FOR_RENT,House for rent,,2800.0,2312.0,1.0,499800.0,216.0,,,,3.0,3.0,"2449 N Ice Fire Ave, Star, ID 83669",2449 N Ice Fire Ave,Star,ID,83669,43.712177,-116.484726,,False,,,,
336016247,FOR_RENT,House for rent,,2470.0,1721.0,1.0,466900.0,271.0,2466.0,,,3.0,2.0,"1743 N Montgomery Way, Meridian, ID 83646",1743 N Montgomery Way,Meridian,ID,83646,43.620705,-116.45831,,False,,,,
79707723,FOR_RENT,House for rent,,2250.0,1544.0,1.0,429800.0,278.0,2339.0,,,3.0,2.0,"1097 N Cliff Creek Ave, Meridian, ID 83642",1097 N Cliff Creek Ave,Meridian,ID,83642,43.614952,-116.435455,,False,,,,
115535327,FOR_RENT,House for rent,,2295.0,3586.0,1.0,471000.0,131.0,2059.0,,,4.0,3.0,"204 S 5 W, Rexburg, ID 83440",204 S 5 W,Rexburg,ID,83440,43.82138,-111.79866,,False,,,,
79613490,FOR_RENT,House for rent,,1700.0,1069.0,2.0,670500.0,627.0,1707.0,,,2.0,2.0,"9954 W Utahna Rd, Boise, ID 83714",9954 W Utahna Rd,Boise,ID,83714,43.684475,-116.30736,,False,,,,
335667776,FOR_RENT,Apartment for rent,,1199.0,980.0,1.0,,,946.0,,,2.0,1.0,"Ririe Park, 317 E Smith St #9, Ririe, ID 83443",317 E Smith St #9,Ririe,ID,83443,43.632275,-111.770035,,False,,,,
454079419,FOR_RENT,Townhouse for rent,,1900.0,,,375900.0,,,,,3.0,2.0,"3347 E Kathaway Ln #1, Idaho Falls, ID 83406",3347 E Kathaway Ln #1,Idaho Falls,ID,83406,43.465664,-111.96932,,False,,,,
2116043290,FOR_RENT,Apartment for rent,,995.0,1060.0,1.0,,,1107.0,,,3.0,1.0,"639 Hoopes Ave APT 6, Idaho Falls, ID 83401",639 Hoopes Ave APT 6,Idaho Falls,ID,83401,43.492134,-111.99727,,False,,,,
455175370,FOR_RENT,Apartment for rent,,875.0,,,,,,,,2.0,1.0,"Wayside Manor, 551 S 5 W #E2, Rexburg, ID 83440",551 S 5 W #E2,Rexburg,ID,83440,43.814438,-111.79719,,False,,,,
442749127,FOR_RENT,Apartment for rent,,1325.0,855.0,2.0,,,,,,2.0,2.0,"469 Teton Dr UNIT 6, Saint Anthony, ID 83445",469 Teton Dr UNIT 6,Saint Anthony,ID,83445,43.911507,-111.79294,,False,,,,
2057932466,FOR_RENT,Apartment for rent,,1000.0,970.0,1.0,,,998.0,,,3.0,1.0,"Academy Terrace, 458 W 6 S #202, Rexburg, ID 83440",458 W 6 S #202,Rexburg,ID,83440,43.81381,-111.79698,,False,,,,
76926280,FOR_RENT,House for rent,,1090.0,,,116500.0,,1074.0,,,2.0,1.0,"870 N Eden Dr, Idaho Falls, ID 83401",870 N Eden Dr,Idaho Falls,ID,83401,43.50287,-111.956314,,False,,,,
2060835172,FOR_RENT,Apartment for rent,,1195.0,1000.0,1.0,,,1125.0,,,2.0,2.0,"731 N Fanning Ave UNIT 733, Idaho Falls, ID 83401",731 N Fanning Ave UNIT 733,Idaho Falls,ID,83401,43.502575,-112.01702,,False,,,,
454187917,FOR_RENT,Apartment for rent,,1350.0,1256.0,1.0,,,,,,3.0,2.0,"3 Bed 2 Bath Apartment for Rent in Idaho Falls - Off street parking, 3656 Lena Ave, Idaho Falls, ID 83401",3656 Lena Ave #1,Idaho Falls,ID,83401,43.54703,-111.96094,,False,,,,
2056487505,FOR_RENT,Apartment for rent,,850.0,,,,,887.0,,,2.0,1.0,"135 W Fremont Ave #1, Rigby, ID 83442",135 W Fremont Ave #1,Rigby,ID,83442,43.67295,-111.91582,,False,,,,
443226376,FOR_RENT,House for rent,,1495.0,1170.0,1.0,318500.0,272.0,,,,3.0,2.0,"5961 N Silver Fox Rd #3, Idaho Falls, ID 83401",5961 N Silver Fox Rd #3,Idaho Falls,ID,83401,43.54929,-111.96352,,False,,,,
347361930,FOR_RENT,House for rent,,1050.0,986.0,1.0,266100.0,270.0,1012.0,,,2.0,1.0,"2126 Saint Clair Rd, Idaho Falls, ID 83404",2126 Saint Clair Rd,Idaho Falls,ID,83404,43.478554,-112.00431,,False,,,,
2093164467,FOR_RENT,Townhouse for rent,,1450.0,1100.0,1.0,311400.0,283.0,1379.0,,,3.0,2.0,"665 N Park Ave #B, Shelley, ID 83274",665 N Park Ave #B,Shelley,ID,83274,43.390472,-112.123314,,False,,,,
455109474,FOR_RENT,Apartment for rent,,425.0,,,,,,,,6.0,2.0,"Savoye, 639 Handcart Ln #204, Rexburg, ID 83440",639 Handcart Ln #204,Rexburg,ID,83440,43.81319,-111.80339,,False,,,,
2060815851,FOR_RENT,Apartment for rent,,1095.0,840.0,1.0,,,1031.0,,,2.0,1.0,"775 N Freeman Ave #795, Idaho Falls, ID 83401",775 N Freeman Ave #795,Idaho Falls,ID,83401,43.50289,-112.0216,,False,,,,
2111624436,FOR_RENT,Apartment for rent,,795.0,800.0,1.0,,,864.0,,,1.0,1.0,"204 6th St #B, Idaho Falls, ID 83401",204 6th St #B,Idaho Falls,ID,83401,43.492188,-112.03088,,False,,,,
76924187,FOR_RENT,House for rent,,2300.0,2900.0,1.0,448900.0,155.0,2312.0,,,5.0,3.0,"3314 E Woodside Dr, Idaho Falls, ID 83401",3314 E Woodside Dr,Idaho Falls,ID,83401,43.523815,-111.96855,,False,,,,
111259601,FOR_RENT,House for rent,,1050.0,920.0,1.0,212800.0,231.0,1203.0,,,2.0,2.0,"1487 Vega Cir APT 7, Idaho Falls, ID 83402",1487 Vega Cir APT 7,Idaho Falls,ID,83402,43.503235,-112.0578,,False,,,,
2080934358,FOR_RENT,House for rent,,1395.0,1632.0,1.0,343800.0,211.0,1778.0,,,4.0,2.0,"2148 Saint Clair Rd, Idaho Falls, ID 83404",2148 Saint Clair Rd,Idaho Falls,ID,83404,43.478165,-112.004135,,False,,,,
452737469,FOR_RENT,Apartment for rent,,1299.0,1100.0,1.0,,,,,,3.0,2.0,"5941 Freedom, 5941 N Freedom Rd #4, Idaho Falls, ID 83401",5941 N Freedom Rd #4,Idaho Falls,ID,83401,43.54914,-111.961716,,False,,,,
450794765,FOR_RENT,House for rent,,950.0,,,,,,,,2.0,1.0,"586 Highland Dr #2, Idaho Falls, ID 83402",586 Highland Dr #2,Idaho Falls,ID,83402,43.503654,-112.03605,,False,,,,
400879604,FOR_RENT,Apartment for rent,,3403.0,,,,,,,,,,"1066 Curlew Drive - 1070-1078 Curlew Drive, 1070 Curlew Dr, Idaho Falls, ID 83406",1070 Curlew Dr,Idaho Falls,ID,83406,43.487614,-111.97845,,False,,,,
431536803,FOR_RENT,Townhouse for rent,,800.0,900.0,1.0,207800.0,231.0,,,,2.0,1.0,"1480 Calkins Ave #2, Idaho Falls, ID 83402",1480 Calkins Ave #2,Idaho Falls,ID,83402,43.48465,-112.03642,,False,,,,
351509775,FOR_RENT,Apartment for rent,,3000.0,3000.0,1.0,,,1894.0,,,,,"2692 S Yellowstone Hwy #105, Rexburg, ID 83440",2692 S Yellowstone Hwy #105,Rexburg,ID,83440,43.791306,-111.818985,,False,,,,
453488331,FOR_RENT,Apartment for rent,,900.0,,,,,,,,2.0,1.0,"225 Poplar Street - 1, 225 Poplar St, Idaho Falls, ID 83402",225 Poplar St #1,Idaho Falls,ID,83402,43.49244,-112.034966,,False,,,,
443788553,FOR_RENT,House for rent,,3000.0,,,520900.0,,,,,6.0,3.0,"4651 Mountain Bend Dr, Idaho Falls, ID 83406",4651 Mountain Bend Dr,Idaho Falls,ID,83406,43.456383,-111.94837,,False,,,,
453500457,FOR_RENT,Apartment for rent,,900.0,,,,,,,,2.0,1.0,"225 Poplar Street, 255 Poplar St #1, Idaho Falls, ID 83402",255 Poplar St #1,Idaho Falls,ID,83402,43.492382,-112.0352,,False,,,,
449619301,FOR_RENT,House for rent,,825.0,850.0,1.0,258500.0,304.0,,,,2.0,1.0,"10844 N Yellowstone Hwy #2, Ucon, ID 83454",10844 N Yellowstone Hwy #2,Ucon,ID,83454,43.593105,-111.96345,,False,,,,
115531425,FOR_RENT,House for rent,,1800.0,2341.0,1.0,313500.0,134.0,1815.0,,,3.0,2.0,"394 N 4 W, Rigby, ID 83442",394 N 4 W,Rigby,ID,83442,43.678246,-111.92661,,False,,,,
2058609187,FOR_RENT,Apartment for rent,,825.0,800.0,1.0,,,930.0,,,2.0,1.0,"Benton St. Apartments, 1461 Benton St, Idaho Falls, ID 83401",1461 Benton St #F7F0206C3,Idaho Falls,ID,83401,43.490517,-112.0043,,False,,,,
448974588,FOR_RENT,Apartment for rent,,1400.0,600.0,2.0,,,,,,1.0,1.0,"Teton Mesa, 885 Lomax St, Idaho Falls, ID 83401",885 Lomax St #7ED280A14,Idaho Falls,ID,83401,43.49806,-112.01425,,False,,,,
2068033180,FOR_RENT,Apartment for rent,,1275.0,1156.0,1.0,,,1282.0,,,3.0,2.0,"118 Clubhouse Cir UNIT 201, Idaho Falls, ID 83401",118 Clubhouse Cir UNIT 201,Idaho Falls,ID,83401,43.496216,-112.00257,,False,,,,
