address,zipCode,city,state,rent,bed,bath,sqft,rentPerSf,zillowUrl,latitude,longitude,homeType,zestimate,rentZestimate,imageUrl,fips_code,geo_id
"Lofts at Jefferson Mill, 670 N Commercial St #10, Manchester, NH 03101",3101,Manchester,NH,2310.0,2.0,1.0,875.0,,https://www.zillow.com/apartments/manchester-nh/lofts-at-jefferson-mill/9VnkcS/,42.997917,-71.46799,,,,https://photos.zillowstatic.com/fp/abd531f17008b8a4c3dc0464e074aef1-p_e.jpg,,
"Hollis Commons, 30 Cherry St, Concord, NH 03301",3301,Concord,NH,2151.0,2.0,1.0,1050.0,,https://www.zillow.com/apartments/concord-nh/hollis-commons/5Xrbdy/,43.19761,-71.50574,,,,https://photos.zillowstatic.com/fp/05554254318e7c28d20304bc2a4ddc1c-p_e.jpg,,
"Portland Place, 44 Portland Ave UNIT 16, Dover, NH 03820",3820,Dover,NH,2604.0,3.0,2.0,1600.0,,https://www.zillow.com/apartments/dover-nh/portland-place/ChTXsX/,43.19778,-70.87081,,,,https://photos.zillowstatic.com/fp/85e894953c17dae35752170fd1df39cd-p_e.jpg,,
"Meadowbrook Village, 4 Highland Ave, West Lebanon, NH 03784",3784,West Lebanon,NH,1671.0,2.0,1.0,778.0,,https://www.zillow.com/apartments/west-lebanon-nh/meadowbrook-village/65ZMqn/,43.64874,-72.30179,,,,https://photos.zillowstatic.com/fp/450424e3a0e9e46faa2979b67a30977a-p_e.jpg,,
"Wood Edge, 1445 Bodwell Rd APT 6, Manchester, NH 03109",3109,Manchester,NH,1872.0,2.0,1.0,650.0,,https://www.zillow.com/apartments/manchester-nh/wood-edge/5XjV7Z/,42.948303,-71.391556,,203000.0,,https://photos.zillowstatic.com/fp/07e704536507fd2fcaeae1aceeece58c-p_e.jpg,,
"Eastern Trails Apartments and Storage, 29 Capron Rd APT 49, Milford, NH 03055",3055,Milford,NH,1958.0,2.0,1.0,875.0,,https://www.zillow.com/apartments/milford-nh/eastern-trails-apartments-and-storage/5XjPdw/,42.820793,-71.626465,,,,https://photos.zillowstatic.com/fp/34e53dcdc9580eea8b6cf39d97987ccf-p_e.jpg,,
"Riverview Apartments, 111 Hancock Rd, Peterborough, NH 03458",3458,Peterborough,NH,1341.0,1.0,1.0,550.0,,https://www.zillow.com/apartments/peterborough-nh/riverview-apartments/CjjCQz/,42.906693,-71.93725,,,,https://photos.zillowstatic.com/fp/0e334b74e0b93998b4aeb9e18caf32f0-p_e.jpg,,
"Chelmsford Hardy Place, 14 South Ave APT 218, Derry, NH 03038",3038,Derry,NH,1641.0,1.0,1.0,600.0,,https://www.zillow.com/apartments/derry-nh/chelmsford-hardy-place/Ck8YXM/,42.87728,-71.32423,,,,https://photos.zillowstatic.com/fp/8ad82fc0b89cccabe388a7b1bbef4ee8-p_e.jpg,,
"Oak Creek - A Beautiful Place to Live, 72 Maplewood Ln, Concord, NH 03303",3303,Concord,NH,1888.0,2.0,1.0,850.0,,https://www.zillow.com/apartments/concord-nh/oak-creek-a-beautiful-place-to-live/5ZGLYP/,43.27074,-71.59799,,,,https://photos.zillowstatic.com/fp/cbf9772557ef332f24aa46d72efcbe94-p_e.jpg,,
"Oak Terrace Townhomes, 8 Oak Ter, Dover, NH 03820",3820,Dover,NH,2400.0,2.0,2.0,1100.0,,https://www.zillow.com/apartments/dover-nh/oak-terrace-townhomes/CjjCSM/,43.208237,-70.87365,,,,https://photos.zillowstatic.com/fp/84710c845622d79a4ab4deccd4fb9fcc-p_e.jpg,,
"15 Back River Road, 15 Back River Rd APT 1, Dover, NH 03820",3820,Dover,NH,1956.0,2.0,1.0,850.0,,https://www.zillow.com/apartments/dover-nh/15-back-river-road/5Xr9vF/,43.177643,-70.87821,,,,https://photos.zillowstatic.com/fp/42d220d56c37facce85aef53d1ff53aa-p_e.jpg,,
"16 Chevrolet Ave #1, Portsmouth, NH 03801",3801,Portsmouth,NH,4163.0,4.0,2.0,1398.0,,https://www.zillow.com/homedetails/16-Chevrolet-Ave-1-Portsmouth-NH-03801/95355119_zpid/,43.069187,-70.76757,,714900.0,,https://photos.zillowstatic.com/fp/6fa950d2d63963b7f0b36b3f2fa760fe-p_e.jpg,,
"85 Austin St #1, Portsmouth, NH 03801",3801,Portsmouth,NH,2657.0,2.0,1.0,850.0,,https://www.zillow.com/homedetails/85-Austin-St-1-Portsmouth-NH-03801/2061007190_zpid/,43.072746,-70.76311,,,,https://photos.zillowstatic.com/fp/f3b7d022134ed1400d0405f0a231b0d2-p_e.jpg,,
"138 Middle St, Manchester, NH 03101",3101,Manchester,NH,2904.0,3.0,2.0,1600.0,,https://www.zillow.com/homedetails/138-Middle-St-Manchester-NH-03101/2084030534_zpid/,42.989872,-71.46659,,401700.0,,https://photos.zillowstatic.com/fp/af886789bba829c8aa3d491c3fdaee15-p_e.jpg,,
"25 Atlantic Ave, Dover, NH 03820",3820,Dover,NH,2885.0,3.0,1.0,1040.0,,https://www.zillow.com/homedetails/25-Atlantic-Ave-Dover-NH-03820/92905928_zpid/,43.20029,-70.86083,,460100.0,,https://photos.zillowstatic.com/fp/0492918748e82c87d2c6f066f23826aa-p_e.jpg,,
"4 W Mill Pond Rd #B, Lee, NH 03861",3861,Lee,NH,2779.0,3.0,2.0,1344.0,,https://www.zillow.com/homedetails/4-W-Mill-Pond-Rd-B-Lee-NH-03861/2058932191_zpid/,43.12035,-71.03408,,347600.0,,https://photos.zillowstatic.com/fp/d191b80fc0e889f0c17ea8056b8fe46d-p_e.jpg,,
"10 Davis Dr #2, Lebanon, NH 03766",3766,Lebanon,NH,1975.0,2.0,1.0,650.0,,https://www.zillow.com/homedetails/10-Davis-Dr-2-Lebanon-NH-03766/2056568567_zpid/,43.64761,-72.256035,,,,https://photos.zillowstatic.com/fp/100df4969f7c97b23d2087b180014bfb-p_e.jpg,,
"812 Court St APT D, Keene, NH 03431",3431,Keene,NH,1924.0,2.0,2.0,924.0,,https://www.zillow.com/homedetails/812-Court-St-APT-D-Keene-NH-03431/125643418_zpid/,42.962223,-72.30635,,204700.0,,https://photos.zillowstatic.com/fp/0ac84b17233909d6a672884e0102bed3-p_e.jpg,,
"11 Pleasant St #7, Franklin, NH 03235",3235,Franklin,NH,2823.0,5.0,1.0,,,https://www.zillow.com/homedetails/11-Pleasant-St-7-Franklin-NH-03235/347362045_zpid/,43.443954,-71.642815,,,,https://photos.zillowstatic.com/fp/30e8007a91a58eec99d84bc696fc9cbc-p_e.jpg,,
"50 Catamount Rd #2, Pittsfield, NH 03263",3263,Pittsfield,NH,1854.0,2.0,1.0,1000.0,,https://www.zillow.com/homedetails/50-Catamount-Rd-2-Pittsfield-NH-03263/2061135518_zpid/,43.30416,-71.32029,,,,https://photos.zillowstatic.com/fp/d080e72c12c1d7bc0bf33ed682515ab8-p_e.jpg,,
"(undisclosed Address), Meredith, NH 03253",3253,Meredith,NH,1505.0,1.0,1.0,550.0,,https://www.zillow.com/homedetails/Meredith-NH-03253/2054598137_zpid/,,,,,,https://photos.zillowstatic.com/fp/e9e0249c6903e9b7e9fefe9eca5f84f8-p_e.jpg,,
"111 High St, Hampton, NH 03842",3842,Hampton,NH,2143.0,2.0,1.0,950.0,,https://www.zillow.com/homedetails/111-High-St-Hampton-NH-03842/2145934133_zpid/,42.940117,-70.83245,,,,https://photos.zillowstatic.com/fp/109b5266e0241fa3ad4d6b537ce14565-p_e.jpg,,
"18 Main St APT 9, Hinsdale, NH 03451",3451,Hinsdale,NH,1730.0,2.0,1.0,,,https://www.zillow.com/homedetails/18-Main-St-APT-9-Hinsdale-NH-03451/2053594203_zpid/,42.786953,-72.482185,,251600.0,,https://photos.zillowstatic.com/fp/88d2ccf654b9823ed423daf1036e11b8-p_e.jpg,,
"222 Whipple St #2, Manchester, NH 03102",3102,Manchester,NH,1729.0,2.0,1.0,,,https://www.zillow.com/homedetails/222-Whipple-St-2-Manchester-NH-03102/2098554154_zpid/,42.990852,-71.48489,,,,https://photos.zillowstatic.com/fp/08b83c4fc6740b957c259ae32399e59b-p_e.jpg,,
"108 Eastern Ave APT 101, Manchester, NH 03104",3104,Manchester,NH,1969.0,2.0,1.0,,,https://www.zillow.com/homedetails/108-Eastern-Ave-APT-101-Manchester-NH-03104/119148096_zpid/,42.999554,-71.4193,,244500.0,,https://photos.zillowstatic.com/fp/db5e9cdf405abcaf5dc043b1870b7683-p_e.jpg,,
"36 Court St APT 4, Exeter, NH 03833",3833,Exeter,NH,1821.0,1.0,1.0,500.0,,https://www.zillow.com/homedetails/36-Court-St-APT-4-Exeter-NH-03833/2084665152_zpid/,42.977962,-70.946754,,,,https://photos.zillowstatic.com/fp/e0e2e11a93cdd60d299ac7a3bdcea2cc-p_e.jpg,,
"9 Kentville Ter, Hampton, NH 03842",3842,Hampton,NH,2585.0,3.0,1.0,852.0,,https://www.zillow.com/homedetails/9-Kentville-Ter-Hampton-NH-03842/86816931_zpid/,42.914257,-70.81001,,571000.0,,https://photos.zillowstatic.com/fp/29a4e3fb7f4dca992faab5e431d59c48-p_e.jpg,,
"224 Endicott St E, Laconia, NH 03246",3246,Laconia,NH,2751.0,3.0,3.0,2100.0,,https://www.zillow.com/homedetails/224-Endicott-St-E-Laconia-NH-03246/211099966_zpid/,43.568832,-71.47693,,1665700.0,,https://photos.zillowstatic.com/fp/24c6f409d66d86fcedd257ee1ca6febf-p_e.jpg,,
"46 Mountain Rd APT A, New London, NH 03257",3257,New London,NH,1484.0,1.0,1.0,800.0,,https://www.zillow.com/homedetails/46-Mountain-Rd-APT-A-New-London-NH-03257/341192516_zpid/,43.39915,-71.93681,,,,https://photos.zillowstatic.com/fp/eac185e9264206354069977ac50d466d-p_e.jpg,,
"4 Forrest Rd UNIT 2, Northfield, NH 03276",3276,Northfield,NH,1949.0,2.0,1.0,909.0,,https://www.zillow.com/homedetails/4-Forrest-Rd-UNIT-2-Northfield-NH-03276/86774677_zpid/,43.433052,-71.5936,,,,https://photos.zillowstatic.com/fp/b7fb257a220eb8d52249a39f91828de4-p_e.jpg,,
"(undisclosed Address), Laconia, NH 03246",3246,Laconia,NH,1519.0,1.0,1.0,1100.0,,https://www.zillow.com/homedetails/Laconia-NH-03246/2056014096_zpid/,,,,,,https://photos.zillowstatic.com/fp/44293f031f6ee81b13fa1dccaefe3e15-p_e.jpg,,
"63 Woodland Grn #63, Rochester, NH 03868",3868,Rochester,NH,2129.0,2.0,2.0,1048.0,,https://www.zillow.com/homedetails/63-Woodland-Grn-63-Rochester-NH-03868/2066718551_zpid/,43.328094,-70.96084,,273200.0,,https://photos.zillowstatic.com/fp/d839968b8cf0db47b8c23f2ef45d432d-p_e.jpg,,
"517 1st Crown Point Rd, Strafford, NH 03884",3884,Strafford,NH,3513.0,4.0,2.0,2600.0,,https://www.zillow.com/homedetails/517-1st-Crown-Point-Rd-Strafford-NH-03884/204189017_zpid/,43.30227,-71.09937,,436000.0,,https://photos.zillowstatic.com/fp/4fff61f9dc39245c2c928fea8adbc52e-p_e.jpg,,
"4 W Shore Dr, Sandown, NH 03873",3873,Sandown,NH,3462.0,3.0,2.0,1682.0,,https://www.zillow.com/homedetails/4-W-Shore-Dr-Sandown-NH-03873/86818626_zpid/,42.90407,-71.15631,,844200.0,,https://photos.zillowstatic.com/fp/8c289f58d8eb91f61dd46f08e33524c2-p_e.jpg,,
"40 Eastern Ave APT 207, Manchester, NH 03104",3104,Manchester,NH,2359.0,3.0,2.0,1000.0,,https://www.zillow.com/homedetails/40-Eastern-Ave-APT-207-Manchester-NH-03104/119150458_zpid/,42.9989,-71.41764,,291200.0,,https://photos.zillowstatic.com/fp/8ac1c7e0d512e4922a7527e6752e0bcc-p_e.jpg,,
"656 S Beech St #1, Manchester, NH 03103",3103,Manchester,NH,1702.0,2.0,1.0,1400.0,,https://www.zillow.com/homedetails/656-S-Beech-St-1-Manchester-NH-03103/2082665404_zpid/,42.961475,-71.45494,,,,https://photos.zillowstatic.com/fp/25832aa2db1164050c70fb0b6332ce65-p_e.jpg,,
"4 Brown Ln, Swanzey, NH 03446",3446,Swanzey,NH,1856.0,1.0,1.0,750.0,,https://www.zillow.com/homedetails/4-Brown-Ln-Swanzey-NH-03446/92836265_zpid/,42.845634,-72.2995,,,,https://photos.zillowstatic.com/fp/3403f74dc6f602fe32f1d563d891d596-p_e.jpg,,
"63 Old Northfield Rd, Hinsdale, NH 03451",3451,Hinsdale,NH,2216.0,1.0,1.0,950.0,,https://www.zillow.com/homedetails/63-Old-Northfield-Rd-Hinsdale-NH-03451/86742580_zpid/,42.775852,-72.47275,,655300.0,,https://photos.zillowstatic.com/fp/f27d15885eba465b15318e334bf6b428-p_e.jpg,,
"7 Fenwick St, Nashua, NH 03063",3063,Nashua,NH,2420.0,3.0,2.0,1980.0,,https://www.zillow.com/homedetails/7-Fenwick-St-Nashua-NH-03063/92865472_zpid/,42.749546,-71.515,,466700.0,,https://photos.zillowstatic.com/fp/08dbd12f30b950af9f3a32839117f5e5-p_e.jpg,,
"90 River Rd, Manchester, NH 03104",3104,Manchester,NH,2249.0,1.0,2.0,1100.0,,https://www.zillow.com/homedetails/90-River-Rd-Manchester-NH-03104/74300445_zpid/,43.00433,-71.468666,,336200.0,,https://photos.zillowstatic.com/fp/db60ffc4a8884c2607da646bdfa3f1c5-p_e.jpg,,
"5 Mill Pond Ln, Hampton, NH 03842",3842,Hampton,NH,4305.0,4.0,3.0,3184.0,,https://www.zillow.com/homedetails/5-Mill-Pond-Ln-Hampton-NH-03842/86797929_zpid/,42.94206,-70.80005,,962200.0,,https://photos.zillowstatic.com/fp/ef6f2bcb89f51e2704c4f3876f9e8bf4-p_e.jpg,,
"537 Islington St #2, Portsmouth, NH 03801",3801,Portsmouth,NH,4208.0,3.0,2.0,1500.0,,https://www.zillow.com/homedetails/537-Islington-St-2-Portsmouth-NH-03801/95356185_zpid/,43.071785,-70.76995,,631500.0,,https://photos.zillowstatic.com/fp/54892f412d694a1efc525796e5100f14-p_e.jpg,,
"306 Hanover St #2, Portsmouth, NH 03801",3801,Portsmouth,NH,2342.0,1.0,1.0,600.0,,https://www.zillow.com/homedetails/306-Hanover-St-2-Portsmouth-NH-03801/2080351789_zpid/,43.07607,-70.76238,,,,https://photos.zillowstatic.com/fp/85ebc9225576c017bf905567975e99d4-p_e.jpg,,
"19 Colonial Dr #19, Merrimack, NH 03054",3054,Merrimack,NH,2770.0,2.0,2.0,1702.0,,https://www.zillow.com/homedetails/19-Colonial-Dr-19-Merrimack-NH-03054/2071170281_zpid/,42.84723,-71.4942,,361500.0,,https://photos.zillowstatic.com/fp/93af07b5471aff823643e6d745ccabdf-p_e.jpg,,
"9 Sixth St, Dover, NH 03820",3820,Dover,NH,2308.0,2.0,2.0,,,https://www.zillow.com/homedetails/9-Sixth-St-Dover-NH-03820/2115443243_zpid/,43.20113,-70.876595,,,,https://photos.zillowstatic.com/fp/a6b834854af2739854aad1dce8663255-p_e.jpg,,
"240 Sagamore St FLOOR 1, Manchester, NH 03104",3104,Manchester,NH,1987.0,2.0,1.0,1125.0,,https://www.zillow.com/homedetails/240-Sagamore-St-FLOOR-1-Manchester-NH-03104/2068826615_zpid/,43.00362,-71.45175,,,,https://photos.zillowstatic.com/fp/1d06e9ad5c2856b81c796d219f36264e-p_e.jpg,,
"206 Church St FLOOR 3, Keene, NH 03431",3431,Keene,NH,1017.0,1.0,1.0,,,https://www.zillow.com/homedetails/206-Church-St-FLOOR-3-Keene-NH-03431/2053599323_zpid/,42.933865,-72.270676,,,,https://photos.zillowstatic.com/fp/16ab48d19b5e1350a161de3cc0388456-p_e.jpg,,
"532 Brackett Rd, Sanbornville, NH 03872",3872,Sanbornville,NH,2494.0,3.0,2.0,2844.0,,https://www.zillow.com/homedetails/532-Brackett-Rd-Sanbornville-NH-03872/86722409_zpid/,43.54517,-71.00896,,1176800.0,,https://photos.zillowstatic.com/fp/df78c546695ed2449c6bd59aecfb5594-p_e.jpg,,
"103 Brook St APT 3, Manchester, NH 03104",3104,Manchester,NH,2606.0,3.0,2.0,1680.0,,https://www.zillow.com/homedetails/103-Brook-St-APT-3-Manchester-NH-03104/2091663477_zpid/,43.000187,-71.45891,,,,https://photos.zillowstatic.com/fp/e35c1dca14e221b4b0d3c5eafa91f9b2-p_e.jpg,,
"43 Buzzell St, Manchester, NH 03104",3104,Manchester,NH,1781.0,2.0,1.0,1000.0,,https://www.zillow.com/homedetails/43-Buzzell-St-Manchester-NH-03104/95349592_zpid/,42.994484,-71.44716,,498700.0,,https://photos.zillowstatic.com/fp/aa02ef268f083dc902c85bb2d2d0eee2-p_e.jpg,,
"100 Main St APT 215, Pembroke, NH 03275",3275,Pembroke,NH,1806.0,1.0,1.0,798.0,,https://www.zillow.com/homedetails/100-Main-St-APT-215-Pembroke-NH-03275/92879854_zpid/,43.13081,-71.45442,,204800.0,,https://photos.zillowstatic.com/fp/18a19874f195e5c82c598be68366db8d-p_e.jpg,,
"550 Texas Hill Rd #B, Plymouth, NH 03264",3264,Plymouth,NH,1979.0,3.0,2.0,1100.0,,https://www.zillow.com/homedetails/550-Texas-Hill-Rd-B-Plymouth-NH-03264/2058858910_zpid/,43.726192,-71.71086,,,,https://photos.zillowstatic.com/fp/2879b0e41d9a06dde902ca54d61f78ca-p_e.jpg,,
"43 Water St #2, Lebanon, NH 03766",3766,Lebanon,NH,1538.0,1.0,1.0,458.0,,https://www.zillow.com/homedetails/43-Water-St-2-Lebanon-NH-03766/2085895689_zpid/,43.638813,-72.25244,,,,https://photos.zillowstatic.com/fp/6121bd5d7921980c57ea0a0a84f7eeaf-p_e.jpg,,
"(undisclosed Address), Andover, NH 03216",3216,Andover,NH,3455.0,4.0,3.0,2600.0,,https://www.zillow.com/homedetails/Andover-NH-03216/86765180_zpid/,,,,641600.0,,https://photos.zillowstatic.com/fp/1ce94663bccb8e4cee618efb1730e5cb-p_e.jpg,,
"28-30 Thorwald Ave, Hampton, NH 03842",3842,Hampton,NH,2460.0,3.0,1.0,1100.0,,https://www.zillow.com/homedetails/28-30-Thorwald-Ave-Hampton-NH-03842/86810077_zpid/,42.928802,-70.80422,,,,https://photos.zillowstatic.com/fp/3fb567fb01969b36b8489b454edfe8c7-p_e.jpg,,
"26 Pleasant St #2, Salem, NH 03079",3079,Salem,NH,3203.0,3.0,2.0,1650.0,,https://www.zillow.com/homedetails/26-Pleasant-St-2-Salem-NH-03079/2093018861_zpid/,42.7791,-71.23174,,,,https://photos.zillowstatic.com/fp/28005444919d7242167b761a35f9baf8-p_e.jpg,,
"113 Bear Hill Rd, Loudon, NH 03307",3307,Loudon,NH,3866.0,3.0,3.0,2626.0,,https://www.zillow.com/homedetails/113-Bear-Hill-Rd-Loudon-NH-03307/86766197_zpid/,43.29633,-71.43449,,707500.0,,https://photos.zillowstatic.com/fp/680ec09b7a3289e2d57fc74a1d8b4584-p_e.jpg,,
"800 Route 106 N APT 2, Loudon, NH 03307",3307,Loudon,NH,1615.0,2.0,1.0,720.0,,https://www.zillow.com/homedetails/800-Route-106-N-APT-2-Loudon-NH-03307/2119969540_zpid/,43.339264,-71.46737,,,,https://photos.zillowstatic.com/fp/da649657501527be4176f5a287a6b7bd-p_e.jpg,,
"159 Cartier St #3, Manchester, NH 03102",3102,Manchester,NH,1941.0,2.0,1.0,900.0,,https://www.zillow.com/homedetails/159-Cartier-St-3-Manchester-NH-03102/2094494608_zpid/,42.988693,-71.47614,,,,https://photos.zillowstatic.com/fp/5c2bd9007f008f53eb3170b5a97934f5-p_e.jpg,,
"357 Central St #3, Manchester, NH 03103",3103,Manchester,NH,2105.0,3.0,1.0,1250.0,,https://www.zillow.com/homedetails/357-Central-St-3-Manchester-NH-03103/2094887716_zpid/,42.987797,-71.4505,,,,https://photos.zillowstatic.com/fp/d3fca6f2c42149f2435c34f348a5fc4b-p_e.jpg,,
"231 Camelot Shore Dr #1, Farmington, NH 03835",3835,Farmington,NH,2384.0,1.0,1.0,900.0,,https://www.zillow.com/homedetails/231-Camelot-Shore-Dr-1-Farmington-NH-03835/2057877126_zpid/,43.32411,-71.050415,,,,https://photos.zillowstatic.com/fp/db594ebdb8c5de1a022bd7eaf69e9b6a-p_e.jpg,,
"222 Miller Ave, Portsmouth, NH 03801",3801,Portsmouth,NH,4628.0,4.0,2.0,2035.0,,https://www.zillow.com/homedetails/222-Miller-Ave-Portsmouth-NH-03801/2131663101_zpid/,43.068737,-70.75979,,1112500.0,,https://photos.zillowstatic.com/fp/c646dfd1516e8ddd1381546e542e482f-p_e.jpg,,
"41 Chatham Dr, Bedford, NH 03110",3110,Bedford,NH,3520.0,2.0,3.0,2100.0,,https://www.zillow.com/homedetails/41-Chatham-Dr-Bedford-NH-03110/74295876_zpid/,42.924213,-71.456856,,493600.0,,https://photos.zillowstatic.com/fp/77bae5008cbbd36ef69cc3efdbeef70b-p_e.jpg,,
"27 Wyndmere Dr, Londonderry, NH 03053",3053,Londonderry,NH,2862.0,2.0,2.0,1756.0,,https://www.zillow.com/homedetails/27-Wyndmere-Dr-Londonderry-NH-03053/124492348_zpid/,42.91736,-71.39852,,411300.0,,https://photos.zillowstatic.com/fp/7b4a80ac6e27a5b0a892736a8351814b-p_e.jpg,,
"399 Maple St APT 2, Manchester, NH 03103",3103,Manchester,NH,1897.0,2.0,1.0,900.0,,https://www.zillow.com/homedetails/399-Maple-St-APT-2-Manchester-NH-03103/2108388658_zpid/,42.98914,-71.452995,,,,https://photos.zillowstatic.com/fp/43943271d05e867b2e88ec42d5b3a8d9-p_e.jpg,,
"25 Nutter St #B, Rochester, NH 03867",3867,Rochester,NH,1886.0,2.0,1.0,800.0,,https://www.zillow.com/homedetails/25-Nutter-St-B-Rochester-NH-03867/2055811592_zpid/,43.308495,-70.96156,,,,https://photos.zillowstatic.com/fp/0e5388500bb75ffc9000a12c5f3395de-p_e.jpg,,
"126 Mammoth Rd UNIT 27, Hooksett, NH 03106",3106,Hooksett,NH,1980.0,2.0,1.0,891.0,,https://www.zillow.com/homedetails/126-Mammoth-Rd-UNIT-27-Hooksett-NH-03106/2084578738_zpid/,43.036354,-71.43334,,,,https://photos.zillowstatic.com/fp/68c5ab6ca4d7bccbe3e5155b7895a0cd-p_e.jpg,,
"21 Burns Ave UNIT 4, Concord, NH 03301",3301,Concord,NH,1629.0,2.0,1.0,700.0,,https://www.zillow.com/homedetails/21-Burns-Ave-UNIT-4-Concord-NH-03301/350113013_zpid/,43.216785,-71.50929,,,,https://photos.zillowstatic.com/fp/010bdf2c6b80a9f9f07c6316c8ca7a54-p_e.jpg,,
"23 Pleasant St APT 3, Meredith, NH 03253",3253,Meredith,NH,1858.0,2.0,1.0,1023.0,,https://www.zillow.com/homedetails/23-Pleasant-St-APT-3-Meredith-NH-03253/86703122_zpid/,43.65801,-71.49308,,678600.0,,https://photos.zillowstatic.com/fp/25033401493dee7dc2fe8919a48fcf70-p_e.jpg,,
"37 Camp Ln, Rumney, NH 03266",3266,Rumney,NH,3081.0,3.0,1.0,1583.0,,https://www.zillow.com/homedetails/37-Camp-Ln-Rumney-NH-03266/113001415_zpid/,43.859062,-71.80285,,691200.0,,https://photos.zillowstatic.com/fp/38c764e31901866c0e147fae374ff5e3-p_e.jpg,,
"32 Willow St APT C, Nashua, NH 03060",3060,Nashua,NH,1986.0,2.0,1.0,800.0,,https://www.zillow.com/homedetails/32-Willow-St-APT-C-Nashua-NH-03060/2068477271_zpid/,42.757114,-71.47244,,,,https://photos.zillowstatic.com/fp/98fd75384d2ce32b51e099a9fe03f2f3-p_e.jpg,,
"145 Union Ave #153, Laconia, NH 03246",3246,Laconia,NH,1417.0,3.0,1.0,,,https://www.zillow.com/homedetails/145-Union-Ave-153-Laconia-NH-03246/305949801_zpid/,43.528446,-71.46641,,,,https://photos.zillowstatic.com/fp/5dda21f78f06074f2b656502d11bdeaf-p_e.jpg,,
"312 Prospect St #312, Manchester, NH 03104",3104,Manchester,NH,1657.0,1.0,1.0,1000.0,,https://www.zillow.com/homedetails/312-Prospect-St-312-Manchester-NH-03104/2057969605_zpid/,42.99957,-71.447716,,,,https://photos.zillowstatic.com/fp/c67518b44647df2a9c98d32c42a10d12-p_e.jpg,,
"8 Cross Beach Rd, Seabrook, NH 03874",3874,Seabrook,NH,3013.0,3.0,2.0,1249.0,,https://www.zillow.com/homedetails/8-Cross-Beach-Rd-Seabrook-NH-03874/95361090_zpid/,42.882996,-70.82849,,616000.0,,https://photos.zillowstatic.com/fp/1dcc464adee40bbe259a098f7cf55c1a-p_e.jpg,,
"1 Bristol Ct UNIT 271, Derry, NH 03038",3038,Derry,NH,2040.0,2.0,1.0,986.0,,https://www.zillow.com/homedetails/1-Bristol-Ct-UNIT-271-Derry-NH-03038/86824500_zpid/,42.89492,-71.321465,,273300.0,,https://photos.zillowstatic.com/fp/75145c6778e9736b1e5cd8170ae04c0e-p_e.jpg,,
"35 Georgetown Dr, Nashua, NH 03062",3062,Nashua,NH,3285.0,2.0,3.0,2081.0,,https://www.zillow.com/homedetails/35-Georgetown-Dr-Nashua-NH-03062/74296866_zpid/,42.706203,-71.476845,,508100.0,,https://photos.zillowstatic.com/fp/14373ac5394a33647e9eab29a91f8f7e-p_e.jpg,,
"467 High St UNIT 24, Hampton, NH 03842",3842,Hampton,NH,2431.0,2.0,1.0,875.0,,https://www.zillow.com/homedetails/467-High-St-UNIT-24-Hampton-NH-03842/86799943_zpid/,42.9401,-70.802895,,356500.0,,https://photos.zillowstatic.com/fp/8e2f37ff4785ca8e4ba51d415aab6ddd-p_e.jpg,,
"1024 Merrill St, Manchester, NH 03103",3103,Manchester,NH,2844.0,4.0,1.0,1650.0,,https://www.zillow.com/homedetails/1024-Merrill-St-Manchester-NH-03103/2067715746_zpid/,42.9808,-71.43681,,401100.0,,https://photos.zillowstatic.com/fp/54da2a9845d5337d492411c6b374454e-p_e.jpg,,
"17 Jericho Rd, Pelham, NH 03076",3076,Pelham,NH,3205.0,3.0,2.0,,,https://www.zillow.com/homedetails/17-Jericho-Rd-Pelham-NH-03076/120667467_zpid/,42.7032,-71.31002,,501700.0,,https://photos.zillowstatic.com/fp/554a8214f780a9092381dac0310cf2eb-p_e.jpg,,
"50 Summer St #3, Dover, NH 03820",3820,Dover,NH,2559.0,3.0,1.0,1400.0,,https://www.zillow.com/homedetails/50-Summer-St-3-Dover-NH-03820/2069111950_zpid/,43.18947,-70.87827,,,,https://photos.zillowstatic.com/fp/2ecd869ed9904cdab44a524770268410-p_e.jpg,,
"58 Branch Tpke UNIT 94, Concord, NH 03301",3301,Concord,NH,1575.0,2.0,1.0,,,https://www.zillow.com/homedetails/58-Branch-Tpke-UNIT-94-Concord-NH-03301/2061703278_zpid/,43.21854,-71.496956,,,,https://photos.zillowstatic.com/fp/8a154c0cd004a02aabac17994d49f5b7-p_e.jpg,,
"100 Omega St #1, Manchester, NH 03102",3102,Manchester,NH,1651.0,2.0,1.0,653.0,,https://www.zillow.com/homedetails/100-Omega-St-1-Manchester-NH-03102/2067365986_zpid/,43.007084,-71.479385,,,,https://photos.zillowstatic.com/fp/db96e06668663f2de047cd0a311975c0-p_e.jpg,,
"803 W Main St, Hillsborough, NH 03244",3244,Hillsborough,NH,2860.0,3.0,2.0,1761.0,,https://www.zillow.com/homedetails/803-W-Main-St-Hillsborough-NH-03244/92867731_zpid/,43.10478,-71.95654,,429400.0,,https://photos.zillowstatic.com/fp/4130e29a47c7e4ee5a6e01d2eeb73316-p_e.jpg,,
"136 Hill St #3, Portsmouth, NH 03801",3801,Portsmouth,NH,2802.0,2.0,1.0,700.0,,https://www.zillow.com/homedetails/136-Hill-St-3-Portsmouth-NH-03801/95353680_zpid/,43.07641,-70.76261,,448800.0,,https://photos.zillowstatic.com/fp/b1244c62174ca26922ea0ec5c7127dee-p_e.jpg,,
"229 Washington St #B, Dover, NH 03820",3820,Dover,NH,1955.0,2.0,1.0,1355.0,,https://www.zillow.com/homedetails/229-Washington-St-B-Dover-NH-03820/2101996259_zpid/,43.194168,-70.881485,,,,https://photos.zillowstatic.com/fp/8dad0ddd3e5791e0cd7a4f4a05e9fb54-p_e.jpg,,
"189 E Bow St, Franklin, NH 03235",3235,Franklin,NH,2132.0,3.0,1.0,2147.0,,https://www.zillow.com/homedetails/189-E-Bow-St-Franklin-NH-03235/125865244_zpid/,43.447845,-71.65034,,429400.0,,https://photos.zillowstatic.com/fp/4a4e180bc88767cedaaab6ab3528ec87-p_e.jpg,,
"60 Woodland Grn #60, Rochester, NH 03868",3868,Rochester,NH,2313.0,2.0,2.0,1200.0,,https://www.zillow.com/homedetails/60-Woodland-Grn-60-Rochester-NH-03868/2066726712_zpid/,43.3282,-70.96096,,,,https://photos.zillowstatic.com/fp/4752c33029e00e968c3e076ccbcaa9d7-p_e.jpg,,
"7171 School St #B, Loudon, NH 03307",3307,Loudon,NH,2742.0,3.0,2.0,1906.0,,https://www.zillow.com/homedetails/7171-School-St-B-Loudon-NH-03307/2068463919_zpid/,43.288227,-71.48583,,514800.0,,https://photos.zillowstatic.com/fp/0dcaa1864053c1f3a33a3701168bd054-p_e.jpg,,
"121 Cadogan Way, Nashua, NH 03062",3062,Nashua,NH,3411.0,3.0,4.0,2086.0,,https://www.zillow.com/homedetails/121-Cadogan-Way-Nashua-NH-03062/92862038_zpid/,42.7082,-71.48405,,436700.0,,https://photos.zillowstatic.com/fp/446f0abf5fb1056c16f1a537a7c309d9-p_e.jpg,,
"97 Meredith Way, Portsmouth, NH 03801",3801,Portsmouth,NH,4405.0,4.0,2.0,,,https://www.zillow.com/homedetails/97-Meredith-Way-Portsmouth-NH-03801/95356400_zpid/,43.07386,-70.77461,,1174900.0,,https://photos.zillowstatic.com/fp/b425369ebb0cc65a4a15fbc62ac67314-p_e.jpg,,
"96 South Main St., 96 S Main St APT B, Newport, NH 03773",3773,Newport,NH,1662.0,2.0,1.0,,,https://www.zillow.com/apartments/newport-nh/96-south-main-st./9PGzB7/,43.359676,-72.16968,,,,https://photos.zillowstatic.com/fp/ab4b5a47031dab70fe878a374941168f-p_e.jpg,,
"412 Amory St #1, Manchester, NH 03102",3102,Manchester,NH,1684.0,2.0,1.0,700.0,,https://www.zillow.com/homedetails/412-Amory-St-1-Manchester-NH-03102/2085532913_zpid/,42.993504,-71.48401,,,,https://photos.zillowstatic.com/fp/45d46056510b84ed4b9e713e890eaee8-p_e.jpg,,
"636 Summer St #2, Manchester, NH 03103",3103,Manchester,NH,1256.0,1.0,1.0,,,https://www.zillow.com/homedetails/636-Summer-St-2-Manchester-NH-03103/2072078811_zpid/,42.9845,-71.44689,,,,https://photos.zillowstatic.com/fp/ccd3279a79d14dd35aeb03c867cf8dbf-p_e.jpg,,
"237 Spruce St #1F, Manchester, NH 03103",3103,Manchester,NH,1254.0,1.0,1.0,,,https://www.zillow.com/homedetails/237-Spruce-St-1F-Manchester-NH-03103/2053634479_zpid/,42.986523,-71.4537,,,,https://photos.zillowstatic.com/fp/b8b9b8115a1ff1cae39bcc26daea107e-p_e.jpg,,
"35 Seminary Hl UNIT 3A, West Lebanon, NH 03784",3784,West Lebanon,NH,2622.0,2.0,1.0,,,https://www.zillow.com/homedetails/35-Seminary-Hl-UNIT-3A-West-Lebanon-NH-03784/340697430_zpid/,43.642136,-72.30685,,,,https://photos.zillowstatic.com/fp/32eda0d08b103edb015a67ab127ab456-p_e.jpg,,
"99 Cluff Crossing Rd #5C, Salem, NH 03079",3079,Salem,NH,1984.0,2.0,1.0,659.0,,https://www.zillow.com/homedetails/99-Cluff-Crossing-Rd-5C-Salem-NH-03079/2062701106_zpid/,42.76465,-71.21807,,,,https://photos.zillowstatic.com/fp/b5f82684063481dd8c0f2fbf368f6b59-p_e.jpg,,
"401 Bridge St #2, Manchester, NH 03104",3104,Manchester,NH,3329.0,4.0,2.0,2200.0,,https://www.zillow.com/homedetails/401-Bridge-St-2-Manchester-NH-03104/2061204460_zpid/,42.995216,-71.44439,,,,https://photos.zillowstatic.com/fp/975aa705442cc93faed203f97d5eb902-p_e.jpg,,
"367 Hanover St, Manchester, NH 03104",3104,Manchester,NH,1526.0,1.0,1.0,750.0,,https://www.zillow.com/homedetails/367-Hanover-St-Manchester-NH-03104/2132839374_zpid/,42.99069,-71.450966,,,,https://photos.zillowstatic.com/fp/42db05eff3cb9127e8ab1b7ef93aad65-p_e.jpg,,
"77 Pillsbury St, Concord, NH 03301",3301,Concord,NH,1958.0,3.0,2.0,1509.0,,https://www.zillow.com/homedetails/77-Pillsbury-St-Concord-NH-03301/2055624189_zpid/,43.190483,-71.53764,,,,https://photos.zillowstatic.com/fp/c474c4550e86144aefd42f1e6d16a388-p_e.jpg,,
"9 Broadway UNIT 4, Suncook, NH 03275",3275,Suncook,NH,2150.0,3.0,1.0,825.0,,https://www.zillow.com/homedetails/9-Broadway-UNIT-4-Suncook-NH-03275/2056152082_zpid/,43.132736,-71.452225,,,,https://photos.zillowstatic.com/fp/ad284ddf8fd3e3d35f5299583ab5f172-p_e.jpg,,
"9 Lincoln Dr #A, Hooksett, NH 03106",3106,Hooksett,NH,2783.0,3.0,2.0,1500.0,,https://www.zillow.com/homedetails/9-Lincoln-Dr-A-Hooksett-NH-03106/2057718320_zpid/,43.043453,-71.429276,,392900.0,,https://photos.zillowstatic.com/fp/e64b796078c23109a90ac9c586bffe98-p_e.jpg,,
"80 School St #6, Lebanon, NH 03766",3766,Lebanon,NH,1573.0,1.0,1.0,530.0,,https://www.zillow.com/homedetails/80-School-St-6-Lebanon-NH-03766/2079161457_zpid/,43.637077,-72.24794,,,,https://photos.zillowstatic.com/fp/7f97fb22cde716f79223ceeb792138ad-p_e.jpg,,
"7 Greensboro Rd, Hanover, NH 03755",3755,Hanover,NH,3387.0,2.0,1.0,1544.0,,https://www.zillow.com/homedetails/7-Greensboro-Rd-Hanover-NH-03755/92851815_zpid/,43.691273,-72.26638,,622500.0,,https://photos.zillowstatic.com/fp/81ca9ed04340a8f0825f6ff1d87413b9-p_e.jpg,,
"11 Montgomery Ave, Nashua, NH 03060",3060,Nashua,NH,2558.0,3.0,1.0,1200.0,,https://www.zillow.com/homedetails/11-Montgomery-Ave-Nashua-NH-03060/2087062246_zpid/,42.744133,-71.45764,,,,https://photos.zillowstatic.com/fp/aeb14b679347387a2c1ed23d65968dbd-p_e.jpg,,
"16 Union Street, 16 Union St #3, Claremont, NH 03743",3743,Claremont,NH,1642.0,2.0,1.0,,,https://www.zillow.com/apartments/claremont-nh/16-union-street/5YRsYd/,43.374104,-72.34532,,,,https://photos.zillowstatic.com/fp/e098047566f975d5eef973f5c0ce0af3-p_e.jpg,,
"173 Main St #8, Kingston, NH 03848",3848,Kingston,NH,2431.0,2.0,1.0,,,https://www.zillow.com/homedetails/173-Main-St-8-Kingston-NH-03848/2067425530_zpid/,42.937737,-71.0502,,,,https://photos.zillowstatic.com/fp/a55113caec186712894d7a3176406c20-p_e.jpg,,
"14 Vista Ridge Dr #A, Londonderry, NH 03053",3053,Londonderry,NH,2476.0,2.0,2.0,1152.0,,https://www.zillow.com/homedetails/14-Vista-Ridge-Dr-A-Londonderry-NH-03053/336952705_zpid/,42.913258,-71.38,,354200.0,,https://photos.zillowstatic.com/fp/6f3482faa720fe58f969419d4329a40a-p_e.jpg,,
"(undisclosed Address), Newmarket, NH 03857",3857,Newmarket,NH,2760.0,2.0,1.0,1040.0,,https://www.zillow.com/homedetails/Newmarket-NH-03857/95359503_zpid/,,,,473500.0,,https://photos.zillowstatic.com/fp/a0bba87c97c73aef53fd3a1144085b9e-p_e.jpg,,
"78 South Rd, Rye Beach, NH 03871",3871,Rye Beach,NH,5515.0,4.0,3.0,3570.0,,https://www.zillow.com/homedetails/78-South-Rd-Rye-Beach-NH-03871/86814712_zpid/,42.97501,-70.77069,,3914100.0,,https://photos.zillowstatic.com/fp/fe3d174f0c51d2b63a398a31ca7ce3e4-p_e.jpg,,
"239 Shepard Hill Rd, Holderness, NH 03245",3245,Holderness,NH,2639.0,3.0,2.0,1736.0,,https://www.zillow.com/homedetails/239-Shepard-Hill-Rd-Holderness-NH-03245/92851249_zpid/,43.723736,-71.56446,,624700.0,,https://photos.zillowstatic.com/fp/31ef2a7998db08dbbbe1f2837cc05e5b-p_e.jpg,,
"250 Lovering St, Manchester, NH 03109",3109,Manchester,NH,2448.0,2.0,1.0,1300.0,,https://www.zillow.com/homedetails/250-Lovering-St-Manchester-NH-03109/74304626_zpid/,42.984196,-71.41798,,560500.0,,https://photos.zillowstatic.com/fp/cb9f2c0de9d01b059399e8ec452f6456-p_e.jpg,,
"132 English Village Rd APT 204, Manchester, NH 03102",3102,Manchester,NH,2031.0,2.0,1.0,800.0,,https://www.zillow.com/homedetails/132-English-Village-Rd-APT-204-Manchester-NH-03102/95344968_zpid/,43.009693,-71.48415,,206700.0,,https://photos.zillowstatic.com/fp/e4f74e0edb09e10cd8ffa7a793f5e966-p_e.jpg,,
"23 Gale Ave, 23 Gale Ave #3, Laconia, NH 03246",3246,Laconia,NH,1561.0,1.0,1.0,800.0,,https://www.zillow.com/apartments/laconia-nh/23-gale-ave/96Tsdf/,43.529655,-71.476555,,,,https://photos.zillowstatic.com/fp/09d8591f0ba01ac48df83821ab03b3b2-p_e.jpg,,
"190 Ashworth Ave #3A, Hampton, NH 03842",3842,Hampton,NH,2265.0,2.0,1.0,500.0,,https://www.zillow.com/homedetails/190-Ashworth-Ave-3A-Hampton-NH-03842/340036378_zpid/,42.90183,-70.814896,,,,https://photos.zillowstatic.com/fp/f560cbac393a6946b2c6df459e74a41b-p_e.jpg,,
"1 Green Street, 1 Green St APT 1, Dover, NH 03820",3820,Dover,NH,1993.0,1.0,1.0,700.0,,https://www.zillow.com/apartments/dover-nh/1-green-street/5hBqLT/,43.19473,-70.878654,,,,https://photos.zillowstatic.com/fp/1d60a09efc7d25b15be046f33f9df37b-p_e.jpg,,
"47 Concord St #2, Peterborough, NH 03458",3458,Peterborough,NH,1723.0,2.0,1.0,,,https://www.zillow.com/homedetails/47-Concord-St-2-Peterborough-NH-03458/2060114933_zpid/,42.88021,-71.94624,,,,https://photos.zillowstatic.com/fp/e1de6df2b35836b60fe7914113ceec3b-p_e.jpg,,
"1419 Ocean Blvd, Rye, NH 03870",3870,Rye,NH,4828.0,3.0,2.0,2400.0,,https://www.zillow.com/homedetails/1419-Ocean-Blvd-Rye-NH-03870/95357049_zpid/,43.013447,-70.73724,,1781200.0,,https://photos.zillowstatic.com/fp/14081466741c4d43b3489b3a6f806728-p_e.jpg,,
"611 Central, 611 Central Ave APT 7, Dover, NH 03820",3820,Dover,NH,1291.0,1.0,1.0,,,https://www.zillow.com/apartments/dover-nh/611-central/96Wq6p/,43.203514,-70.87514,,,,https://photos.zillowstatic.com/fp/d7a96c89a3d10f46690194043c37c2e1-p_e.jpg,,
"221 Calef Rd UNIT 3, Manchester, NH 03103",3103,Manchester,NH,1732.0,1.0,1.0,550.0,,https://www.zillow.com/homedetails/221-Calef-Rd-UNIT-3-Manchester-NH-03103/2057718360_zpid/,42.97143,-71.46099,,,,https://photos.zillowstatic.com/fp/f340db72e37dfe590207f58e8184181e-p_e.jpg,,
"596 Portland St, Rochester, NH 03867",3867,Rochester,NH,1464.0,1.0,1.0,550.0,,https://www.zillow.com/homedetails/596-Portland-St-Rochester-NH-03867/86851108_zpid/,43.317665,-70.95564,,459600.0,,https://photos.zillowstatic.com/fp/a0ececa079401eea6eea21e730ca393c-p_e.jpg,,
"23 Main St #7, Goffstown, NH 03045",3045,Goffstown,NH,1933.0,2.0,1.0,800.0,,https://www.zillow.com/homedetails/23-Main-St-7-Goffstown-NH-03045/2055919134_zpid/,43.018806,-71.59949,,,,https://photos.zillowstatic.com/fp/063271689239eae81232c68283796711-p_e.jpg,,
"23 Garfield St, Exeter, NH 03833",3833,Exeter,NH,3801.0,3.0,2.0,2400.0,,https://www.zillow.com/homedetails/23-Garfield-St-Exeter-NH-03833/86840474_zpid/,42.97958,-70.95911,,567500.0,,https://photos.zillowstatic.com/fp/81f51ed2101f236a64ebdfac559a5e84-p_e.jpg,,
"87 Ashland St #3, Manchester, NH 03104",3104,Manchester,NH,1703.0,2.0,1.0,800.0,,https://www.zillow.com/homedetails/87-Ashland-St-3-Manchester-NH-03104/2104558999_zpid/,42.99443,-71.44845,,,,https://photos.zillowstatic.com/fp/ce8fddbd8d75a200b62ff2faa0822823-p_e.jpg,,
"32 Charter St #11, Exeter, NH 03833",3833,Exeter,NH,2872.0,2.0,2.0,1336.0,,https://www.zillow.com/homedetails/32-Charter-St-11-Exeter-NH-03833/2053124966_zpid/,42.97738,-70.963,,,,https://photos.zillowstatic.com/fp/00f35171e253c2d409da976ccb4e2906-p_e.jpg,,
"75-81 Maple Street, 75-81 Maple St, Rochester, NH 03867",3867,Rochester,NH,1762.0,2.0,1.0,,,https://www.zillow.com/apartments/rochester-nh/75-81-maple-street/CmwJLt/,43.30138,-70.985886,,644100.0,,https://photos.zillowstatic.com/fp/8eaa2a4627de016c683c986c24bd7289-p_e.jpg,,
"73-75 Buffumsville Rd, Somersworth, NH 03878",3878,Somersworth,NH,1867.0,2.0,1.0,850.0,,https://www.zillow.com/homedetails/73-75-Buffumsville-Rd-Somersworth-NH-03878/124533319_zpid/,43.253864,-70.84648,,,,https://photos.zillowstatic.com/fp/27f2e3805ef22ffb6e7c9ec77a0c30b1-p_e.jpg,,
"21 High St, Meredith, NH 03253",3253,Meredith,NH,2520.0,3.0,2.0,1900.0,,https://www.zillow.com/homedetails/21-High-St-Meredith-NH-03253/86715739_zpid/,43.65458,-71.50243,,594800.0,,https://photos.zillowstatic.com/fp/aaa5c92de19bd048cb97195ec4246bae-p_e.jpg,,
"411 Us Route 4 #2, Enfield, NH 03748",3748,Enfield,NH,1008.0,1.0,1.0,,,https://www.zillow.com/homedetails/411-Us-Route-4-2-Enfield-NH-03748/2076656174_zpid/,43.643818,-72.13407,,,,https://photos.zillowstatic.com/fp/95cb0d5b732e85820f8db186d9442e1c-p_e.jpg,,
"29 Old Hackett Hill Rd APT 2E, Manchester, NH 03102",3102,Manchester,NH,1672.0,2.0,1.0,618.0,,https://www.zillow.com/homedetails/29-Old-Hackett-Hill-Rd-APT-2E-Manchester-NH-03102/95345212_zpid/,43.034176,-71.483284,,210300.0,,https://photos.zillowstatic.com/fp/ebdf61b09419c7a03416b0eb43286335-p_e.jpg,,
"67 School St APT 5, Lebanon, NH 03766",3766,Lebanon,NH,1444.0,1.0,1.0,,,https://www.zillow.com/homedetails/67-School-St-APT-5-Lebanon-NH-03766/2081512531_zpid/,43.6381,-72.24729,,,,https://photos.zillowstatic.com/fp/a6f9d6c9280e36bff0de82525f038b3b-p_e.jpg,,
"617 Rimmon St #2, Manchester, NH 03102",3102,Manchester,NH,1883.0,2.0,1.0,,,https://www.zillow.com/homedetails/617-Rimmon-St-2-Manchester-NH-03102/2058088930_zpid/,42.99687,-71.47884,,,,https://photos.zillowstatic.com/fp/da7f5a8a40b32ef8773624b9a24b2c08-p_e.jpg,,
"48-50 W High St, Somersworth, NH 03878",3878,Somersworth,NH,1901.0,2.0,1.0,800.0,,https://www.zillow.com/homedetails/48-50-W-High-St-Somersworth-NH-03878/124533637_zpid/,43.258045,-70.87156,,472300.0,,https://photos.zillowstatic.com/fp/9d3e115217268b46776d02b83c416bb1-p_e.jpg,,
"416 Rimmon St #3, Manchester, NH 03102",3102,Manchester,NH,1492.0,1.0,1.0,950.0,,https://www.zillow.com/homedetails/416-Rimmon-St-3-Manchester-NH-03102/2061817319_zpid/,42.993015,-71.47893,,,,https://photos.zillowstatic.com/fp/729370ea217d62a03c71e3eeeb220921-p_e.jpg,,
"Town Edge Apartments, 1140 Eastman Rd #7, Center Conway, NH 03813",3813,Center Conway,NH,1555.0,2.0,1.0,,,https://www.zillow.com/apartments/center-conway-nh/town-edge-apartments/96WdrT/,44.01493,-71.110085,,,,https://photos.zillowstatic.com/fp/d6923fc3520d173e7b37feffd81d41b2-p_e.jpg,,
"245 Central Avenue, 245 Central Ave APT 6, Dover, NH 03820",3820,Dover,NH,1920.0,2.0,1.0,750.0,,https://www.zillow.com/apartments/dover-nh/245-central-avenue/5ZWK2K/,43.19241,-70.872925,,,,https://photos.zillowstatic.com/fp/aec0c2ce0f3f3bc5b5da0d29be4e4d0c-p_e.jpg,,
"436 Salmon Falls Rd UNIT B, Rochester, NH 03868",3868,Rochester,NH,1008.0,1.0,1.0,,,https://www.zillow.com/homedetails/436-Salmon-Falls-Rd-UNIT-B-Rochester-NH-03868/2057014374_zpid/,43.324375,-70.95263,,,,https://photos.zillowstatic.com/fp/2e5f8a0cc2955c22649a0fc882080456-p_e.jpg,,
"14 Garrison Ln, Madbury, NH 03823",3823,Madbury,NH,1887.0,1.0,1.0,,,https://www.zillow.com/homedetails/14-Garrison-Ln-Madbury-NH-03823/86868981_zpid/,43.164406,-70.90675,,704600.0,,https://photos.zillowstatic.com/fp/23fba731968d03b98d4abbafe437b22f-p_e.jpg,,
"45 King Street, 45 King St #2, Wolfeboro, NH 03894",3894,Wolfeboro,NH,1538.0,2.0,1.0,,,https://www.zillow.com/apartments/wolfeboro-nh/45-king-street/96XncZ/,43.58958,-71.21393,,,,https://photos.zillowstatic.com/fp/c978ab5bd67dea8b3502c94f505b9626-p_e.jpg,,
"87 Portland Avenue, 87 Portland Ave #2, Dover, NH 03820",3820,Dover,NH,3593.0,5.0,2.0,,,https://www.zillow.com/apartments/dover-nh/87-portland-avenue/96WqmD/,43.19941,-70.86851,,,,https://photos.zillowstatic.com/fp/1af8d1499c33deb60a30b40758f446d0-p_e.jpg,,
"58 Myrtle St #2B, Manchester, NH 03104",3104,Manchester,NH,1831.0,2.0,1.0,1000.0,,https://www.zillow.com/homedetails/58-Myrtle-St-2B-Manchester-NH-03104/2066391319_zpid/,42.997578,-71.46215,,,,https://photos.zillowstatic.com/fp/c60311b29a6604ba1a90f65dff781950-p_e.jpg,,
"416 Rimmon St #5, Manchester, NH 03102",3102,Manchester,NH,1424.0,1.0,1.0,480.0,,https://www.zillow.com/homedetails/416-Rimmon-St-5-Manchester-NH-03102/2054252246_zpid/,42.993015,-71.47892,,,,https://photos.zillowstatic.com/fp/8c85928678452640959afdde8f339f4a-p_e.jpg,,
"9 Willow Spring Cir, Hanover, NH 03755",3755,Hanover,NH,3354.0,2.0,2.0,1550.0,,https://www.zillow.com/homedetails/9-Willow-Spring-Cir-Hanover-NH-03755/99280809_zpid/,43.708897,-72.274475,,617300.0,,https://photos.zillowstatic.com/fp/ecfebb74826ca4c798051b26c50bf72b-p_e.jpg,,
"3360 Lafayette Rd, Portsmouth, NH 03801",3801,Portsmouth,NH,2114.0,1.0,1.0,675.0,,https://www.zillow.com/homedetails/3360-Lafayette-Rd-Portsmouth-NH-03801/95363209_zpid/,43.022938,-70.797226,,621100.0,,https://photos.zillowstatic.com/fp/887a6c2dd00962bbb565a06c66316729-p_e.jpg,,
"56 Pinnacle Park Rd, Meredith, NH 03253",3253,Meredith,NH,2479.0,3.0,2.0,1307.0,,https://www.zillow.com/homedetails/56-Pinnacle-Park-Rd-Meredith-NH-03253/86704897_zpid/,43.647926,-71.473946,,379700.0,,https://photos.zillowstatic.com/fp/f3c9d26658886b900881ede98ea74afc-p_e.jpg,,
"24 Tracy St APT 2, West Lebanon, NH 03784",3784,West Lebanon,NH,1814.0,2.0,1.0,,,https://www.zillow.com/homedetails/24-Tracy-St-APT-2-West-Lebanon-NH-03784/2077834172_zpid/,43.64762,-72.30907,,,,https://photos.zillowstatic.com/fp/ed937f9b6d1c519c361055a985a00201-p_e.jpg,,
"529 Massabesic St APT 3W, Manchester, NH 03103",3103,Manchester,NH,1540.0,2.0,1.0,,,https://www.zillow.com/homedetails/529-Massabesic-St-APT-3W-Manchester-NH-03103/353550022_zpid/,42.982143,-71.43717,,,,https://photos.zillowstatic.com/fp/c63dc39ca64105aeaee8145dd1ddad73-p_e.jpg,,
"440 Central Ave, 440 Central Ave #201, Dover, NH 03820",3820,Dover,NH,1745.0,1.0,1.0,,,https://www.zillow.com/apartments/dover-nh/440-central-ave/C8ZrRB/,43.197327,-70.8744,,,,https://photos.zillowstatic.com/fp/a2d85d61cbea972d75d0a510166feea1-p_e.jpg,,
"(undisclosed Address), Concord, NH 03301",3301,Concord,NH,2806.0,4.0,2.0,1500.0,,https://www.zillow.com/homedetails/Concord-NH-03301/92868818_zpid/,,,,463400.0,,https://photos.zillowstatic.com/fp/adbb23ab2b8aa49a87339052bb1d4697-p_e.jpg,,
"102 Bridge St #6, Manchester, NH 03101",3101,Manchester,NH,1988.0,2.0,1.0,,,https://www.zillow.com/homedetails/102-Bridge-St-6-Manchester-NH-03101/348300068_zpid/,42.99533,-71.460205,,,,https://photos.zillowstatic.com/fp/fcbea43ff72a829ff7059867371d94fa-p_e.jpg,,
"6 Windsor Hill Way #43, Waterville Valley, NH 03215",3215,Waterville Valley,NH,1598.0,1.0,1.0,523.0,,https://www.zillow.com/homedetails/6-Windsor-Hill-Way-43-Waterville-Valley-NH-03215/92848315_zpid/,43.944412,-71.50519,,192200.0,,https://photos.zillowstatic.com/fp/ae32eeae8426dad300e3099d9ca7d8fa-p_e.jpg,,
"50-52 High Street, 50-52 High St #2, Exeter, NH 03833",3833,Exeter,NH,1980.0,1.0,1.0,700.0,,https://www.zillow.com/apartments/exeter-nh/50-52-high-street/9jMDtr/,42.981075,-70.94055,,,,https://photos.zillowstatic.com/fp/cb6debf253e29426bd60f426e073a47e-p_e.jpg,,
"41 Rollins Rd, 41 Rollins Rd #1, Rollinsford, NH 03869",3869,Rollinsford,NH,2148.0,2.0,1.0,,,https://www.zillow.com/apartments/rollinsford-nh/41-rollins-rd/5XkBQR/,43.210155,-70.864555,,,,https://photos.zillowstatic.com/fp/0dd7f023a44b623e2805ff249647b5a6-p_e.jpg,,
"LO - 12-14 Ash St., 12-14 Ash St, Dover, NH 03820",3820,Dover,NH,1645.0,2.0,1.0,600.0,,https://www.zillow.com/apartments/dover-nh/lo-12-14-ash-st./Cn26jk/,43.206787,-70.87697,,433800.0,,https://photos.zillowstatic.com/fp/c6c3a41c4110abc233d909150afc7273-p_e.jpg,,
"26 Green St, Exeter, NH 03833",3833,Exeter,NH,3760.0,3.0,2.0,2000.0,,https://www.zillow.com/homedetails/26-Green-St-Exeter-NH-03833/86836334_zpid/,42.98329,-70.952225,,844700.0,,https://photos.zillowstatic.com/fp/19e58c34aac227c464ff29cbda7ff233-p_e.jpg,,
"542 Central Ave APT 1, Dover, NH 03820",3820,Dover,NH,2028.0,2.0,1.0,,,https://www.zillow.com/homedetails/542-Central-Ave-APT-1-Dover-NH-03820/2058155283_zpid/,43.200287,-70.87545,,,,https://photos.zillowstatic.com/fp/d1f8302a6029a4219e8e4cfdfaa77e35-p_e.jpg,,
"5 Juniper Ln, Portsmouth, NH 03801",3801,Portsmouth,NH,4046.0,3.0,3.0,1550.0,,https://www.zillow.com/homedetails/5-Juniper-Ln-Portsmouth-NH-03801/2055410294_zpid/,43.072933,-70.806076,,641900.0,,https://photos.zillowstatic.com/fp/346f731755d8a6dc5df125c130a05dcc-p_e.jpg,,
"320 Douglas St #9, Manchester, NH 03102",3102,Manchester,NH,1895.0,2.0,1.0,900.0,,https://www.zillow.com/homedetails/320-Douglas-St-9-Manchester-NH-03102/343589692_zpid/,42.984165,-71.47914,,,,https://photos.zillowstatic.com/fp/355275d400bb1d3753c740d1d44bd100-p_e.jpg,,
"541 Massabesic St APT 2F, Manchester, NH 03103",3103,Manchester,NH,1561.0,2.0,1.0,,,https://www.zillow.com/homedetails/541-Massabesic-St-APT-2F-Manchester-NH-03103/2103692242_zpid/,42.98186,-71.43674,,,,https://photos.zillowstatic.com/fp/dd776ef10ec3b62c5110a5b424d080b5-p_e.jpg,,
"534 Old Wellington Rd #534, Manchester, NH 03104",3104,Manchester,NH,2903.0,3.0,2.0,1950.0,,https://www.zillow.com/homedetails/534-Old-Wellington-Rd-534-Manchester-NH-03104/2067946334_zpid/,43.000553,-71.425476,,426500.0,,https://photos.zillowstatic.com/fp/af7ffc046333436bda3e6e2bc813de01-p_e.jpg,,
"12 E Side Dr APT 219, Concord, NH 03301",3301,Concord,NH,1492.0,1.0,1.0,648.0,,https://www.zillow.com/homedetails/12-E-Side-Dr-APT-219-Concord-NH-03301/92870228_zpid/,43.218136,-71.50594,,178000.0,,https://photos.zillowstatic.com/fp/d30ec40a45a1c7c2161c59bdbeb4b280-p_e.jpg,,
"341 Varney St #2, Manchester, NH 03102",3102,Manchester,NH,1820.0,2.0,1.0,639.0,,https://www.zillow.com/homedetails/341-Varney-St-2-Manchester-NH-03102/2100452033_zpid/,42.980724,-71.4844,,,,https://photos.zillowstatic.com/fp/d98e07a181646fbd30533ee0efee40c4-p_e.jpg,,
"18 Brook St SUITE 1, Manchester, NH 03104",3104,Manchester,NH,2064.0,2.0,2.0,1050.0,,https://www.zillow.com/homedetails/18-Brook-St-SUITE-1-Manchester-NH-03104/2057439312_zpid/,43.000156,-71.46325,,,,https://photos.zillowstatic.com/fp/3f5e5825b297219349e9304992fb7953-p_e.jpg,,
"(undisclosed Address), Manchester, NH 03103",3103,Manchester,NH,1744.0,1.0,1.0,500.0,,https://www.zillow.com/homedetails/Manchester-NH-03103/2054512246_zpid/,,,,257500.0,,https://photos.zillowstatic.com/fp/a8bb3ea6d13c98ded20d9b5c262bdb73-p_e.jpg,,
"47 Franklin St UNIT 47A, Somersworth, NH 03878",3878,Somersworth,NH,1400.0,1.0,1.0,,,https://www.zillow.com/homedetails/47-Franklin-St-UNIT-47A-Somersworth-NH-03878/351642132_zpid/,43.25704,-70.86452,,,,https://photos.zillowstatic.com/fp/485eba4cba9d011ec6308d6671a6f680-p_e.jpg,,
"445 Pleasant St #2, Portsmouth, NH 03801",3801,Portsmouth,NH,4699.0,2.0,2.0,1315.0,,https://www.zillow.com/homedetails/445-Pleasant-St-2-Portsmouth-NH-03801/95353759_zpid/,43.073345,-70.75104,,841200.0,,https://photos.zillowstatic.com/fp/edf3f03784a6d0ec11464057352fb1ce-p_e.jpg,,
"68 Laval St #4, Manchester, NH 03102",3102,Manchester,NH,1454.0,1.0,1.0,750.0,,https://www.zillow.com/homedetails/68-Laval-St-4-Manchester-NH-03102/2059487284_zpid/,42.994648,-71.48593,,,,https://photos.zillowstatic.com/fp/f9e3ed85087b00daef306daf3edb92bb-p_e.jpg,,
"40 Highland St #A-F, Ashland, NH 03217",3217,Ashland,NH,1249.0,1.0,1.0,,,https://www.zillow.com/homedetails/40-Highland-St-A-F-Ashland-NH-03217/2060568268_zpid/,43.6978,-71.63305,,,,https://photos.zillowstatic.com/fp/17f30e8c800921fc8be829ac145d467f-p_e.jpg,,
"Hancock Second Apartments, 153 W Hancock St APT 11, Manchester, NH 03102",3102,Manchester,NH,2038.0,2.0,1.0,,,https://www.zillow.com/apartments/manchester-nh/hancock-second-apartments/5XqpdG/,42.977577,-71.47428,,,,https://photos.zillowstatic.com/fp/8d5126f5a51682fbfc08473b3c8c691d-p_e.jpg,,
"17 Silver Street, 17 Silver St APT 4, Dover, NH 03820",3820,Dover,NH,1016.0,1.0,1.0,,,https://www.zillow.com/apartments/dover-nh/17-silver-street/5XkDsd/,43.19078,-70.87491,,,,https://photos.zillowstatic.com/fp/6427e7d36f5453c7bcc0aad7e6f575a5-p_e.jpg,,
"55 Cleveland St #3R, Manchester, NH 03102",3102,Manchester,NH,2100.0,2.0,1.0,850.0,,https://www.zillow.com/homedetails/55-Cleveland-St-3R-Manchester-NH-03102/2058414199_zpid/,42.978848,-71.471535,,,,https://photos.zillowstatic.com/fp/f0d726bc000addd65231072aada2a0e1-p_e.jpg,,
"38 Dodge Ave, Portsmouth, NH 03801",3801,Portsmouth,NH,5668.0,4.0,3.0,3018.0,,https://www.zillow.com/homedetails/38-Dodge-Ave-Portsmouth-NH-03801/128862361_zpid/,43.057713,-70.79164,,1091200.0,,https://photos.zillowstatic.com/fp/689c9bdd9a011d901a455a6d45c234de-p_e.jpg,,
"149 Islington St, 149 Islington St #1, Portsmouth, NH 03801",3801,Portsmouth,NH,4266.0,3.0,2.0,,,https://www.zillow.com/apartments/portsmouth-nh/149-islington-st/96WTfg/,43.074615,-70.76382,,,,https://photos.zillowstatic.com/fp/4e08686e31f47c072da866656579ffb7-p_e.jpg,,
"38 Railroad St, 38 Railroad St UNIT 6, Charlestown, NH 03603",3603,Charlestown,NH,964.0,1.0,1.0,,,https://www.zillow.com/apartments/charlestown-nh/38-railroad-st/96W8SG/,43.234547,-72.42562,,,,https://photos.zillowstatic.com/fp/59800b33d8aaef384ca20935fbfe475b-p_e.jpg,,
"20-22 Winter, 20-22 Winter St, Dover, NH 03820",3820,Dover,NH,2409.0,3.0,1.0,,,https://www.zillow.com/apartments/dover-nh/20-22-winter/ChdQzy/,43.200306,-70.8719,,455900.0,,https://photos.zillowstatic.com/fp/a9776f126c6b33d2a235213fb87b106d-p_e.jpg,,
"37 5th St APT A, Dover, NH 03820",3820,Dover,NH,1752.0,1.0,1.0,,,https://www.zillow.com/homedetails/37-5th-St-APT-A-Dover-NH-03820/2083412498_zpid/,43.20031,-70.87905,,,,https://photos.zillowstatic.com/fp/5c7071fd8a61b85935ec6dedcd7616bf-p_e.jpg,,
"299 Mount Support Rd APT 20, Lebanon, NH 03766",3766,Lebanon,NH,3540.0,3.0,3.0,,,https://www.zillow.com/homedetails/299-Mount-Support-Rd-APT-20-Lebanon-NH-03766/92855294_zpid/,43.659622,-72.25109,,498600.0,,https://photos.zillowstatic.com/fp/dd41a5662bdbbd596b97c16d3cdaa191-p_e.jpg,,
"343 Hayward St APT 5, Manchester, NH 03103",3103,Manchester,NH,1045.0,1.0,1.0,,,https://www.zillow.com/homedetails/343-Hayward-St-APT-5-Manchester-NH-03103/384783070_zpid/,42.979702,-71.45427,,,,https://photos.zillowstatic.com/fp/471acaabfeda9e74c5a2016bbb8a24c8-p_e.jpg,,
"58 Palm St #C, Nashua, NH 03060",3060,Nashua,NH,1008.0,1.0,1.0,,,https://www.zillow.com/homedetails/58-Palm-St-C-Nashua-NH-03060/2052943277_zpid/,42.756702,-71.47055,,,,https://photos.zillowstatic.com/fp/7a5d4c7b259e05a14e61d39eb2604c13-p_e.jpg,,
"163 Central, 163 Central Ave APT 9, Dover, NH 03820",3820,Dover,NH,2406.0,2.0,1.0,,,https://www.zillow.com/apartments/dover-nh/163-central/96WmPs/,43.18824,-70.87378,,,,https://photos.zillowstatic.com/fp/8cc80c43a3185ae67380eb5fd5460bea-p_e.jpg,,
"78-80 Arlington St, Manchester, NH 03104",3104,Manchester,NH,1697.0,2.0,1.0,,,https://www.zillow.com/homedetails/78-80-Arlington-St-Manchester-NH-03104/2053026841_zpid/,42.996227,-71.447975,,,,https://photos.zillowstatic.com/fp/89a5b9fbf5fcff2c10188d05c226e88d-p_e.jpg,,
"83 Onset Rd, Bennington, NH 03442",3442,Bennington,NH,2981.0,3.0,2.0,1388.0,,https://www.zillow.com/homedetails/83-Onset-Rd-Bennington-NH-03442/120667411_zpid/,43.01606,-71.88925,,421100.0,,https://photos.zillowstatic.com/fp/36e35a81161cde729995fa718329c0f7-p_e.jpg,,
"167 Camelot Shore Dr, Farmington, NH 03835",3835,Farmington,NH,3562.0,3.0,3.0,2500.0,,https://www.zillow.com/homedetails/167-Camelot-Shore-Dr-Farmington-NH-03835/92910625_zpid/,43.323677,-71.04795,,618600.0,,https://photos.zillowstatic.com/fp/547308bafd571a0292dff37df8def46e-p_e.jpg,,
"57 Cleveland St #3L, Manchester, NH 03102",3102,Manchester,NH,2100.0,2.0,1.0,850.0,,https://www.zillow.com/homedetails/57-Cleveland-St-3L-Manchester-NH-03102/2059828777_zpid/,42.978832,-71.47196,,,,https://photos.zillowstatic.com/fp/c23bd46dd46caf8fcf153ecf2a7b5d67-p_e.jpg,,
"208-210 Main St, Somersworth, NH 03878",3878,Somersworth,NH,2306.0,3.0,1.0,1500.0,,https://www.zillow.com/homedetails/208-210-Main-St-Somersworth-NH-03878/124533420_zpid/,43.257267,-70.86128,,391700.0,,https://photos.zillowstatic.com/fp/aa07828206870776e05218eb52f92ee3-p_e.jpg,,
"71 Vine St UNIT A, Nashua, NH 03060",3060,Nashua,NH,1963.0,2.0,1.0,775.0,,https://www.zillow.com/homedetails/71-Vine-St-UNIT-A-Nashua-NH-03060/2058280851_zpid/,42.755714,-71.46863,,,,https://photos.zillowstatic.com/fp/c27dce1c4556c4f8731ff61f58c2aa09-p_e.jpg,,
"551 Somerville St #3, Manchester, NH 03103",3103,Manchester,NH,2175.0,3.0,1.0,1093.0,,https://www.zillow.com/homedetails/551-Somerville-St-3-Manchester-NH-03103/2104133970_zpid/,42.97635,-71.44892,,,,https://photos.zillowstatic.com/fp/f016f60e2a93296a547fec2d29e21130-p_e.jpg,,
"83 Lake Shore Dr, Moultonboro, NH 03254",3254,Moultonboro,NH,2420.0,2.0,1.0,,,https://www.zillow.com/homedetails/83-Lake-Shore-Dr-Moultonboro-NH-03254/86720800_zpid/,43.71108,-71.45258,,351100.0,,https://photos.zillowstatic.com/fp/d496bb4c17e66e3a0672a5cd00dfd8e3-p_e.jpg,,
"65 Canton St, Manchester, NH 03103",3103,Manchester,NH,2019.0,2.0,2.0,,,https://www.zillow.com/homedetails/65-Canton-St-Manchester-NH-03103/2053182068_zpid/,42.986233,-71.43838,,,,https://photos.zillowstatic.com/fp/f21e1b2e476c3703ed35081f16478ee2-p_e.jpg,,
"26 Elm St APT 2, Keene, NH 03431",3431,Keene,NH,1564.0,2.0,1.0,,,https://www.zillow.com/homedetails/26-Elm-St-APT-2-Keene-NH-03431/350973476_zpid/,42.90768,-72.26279,,,,https://photos.zillowstatic.com/fp/9a273a2bc16562f807162e6f16ae9f34-p_e.jpg,,
"8 Southwest Street, 8 Southwest St, Charlestown, NH 03603",3603,Charlestown,NH,2034.0,3.0,2.0,,,https://www.zillow.com/apartments/charlestown-nh/8-southwest-street/CkZk8D/,43.23351,-72.42719,,280400.0,,https://photos.zillowstatic.com/fp/5e617ca5bd4829b2dfcf9ea701dab016-p_e.jpg,,
"17 Winter St., 17 Winter St UNIT 8, Newport, NH 03773",3773,Newport,NH,1347.0,2.0,1.0,,,https://www.zillow.com/apartments/newport-nh/17-winter-st./96WNCL/,43.367496,-72.172226,,,,https://photos.zillowstatic.com/fp/7207bbf2844e6611d136bbaee10ecb4e-p_e.jpg,,
"58 Sullivan Street, 58 Sullivan St UNIT 3, Claremont, NH 03743",3743,Claremont,NH,1642.0,2.0,1.0,,,https://www.zillow.com/apartments/claremont-nh/58-sullivan-street/96WDsX/,43.373104,-72.34162,,,,https://photos.zillowstatic.com/fp/8c625cbc71cd55868c01f628ceeeaa0c-p_e.jpg,,
"494 Cartier St #3, Manchester, NH 03102",3102,Manchester,NH,1837.0,2.0,1.0,800.0,,https://www.zillow.com/homedetails/494-Cartier-St-3-Manchester-NH-03102/2077147557_zpid/,42.995,-71.47701,,,,https://photos.zillowstatic.com/fp/84e3f2a4e96aeda9c4e6c4eed35b9944-p_e.jpg,,
"153 Pollard Rd #3, Lincoln, NH 03251",3251,Lincoln,NH,2120.0,2.0,2.0,1100.0,,https://www.zillow.com/homedetails/153-Pollard-Rd-3-Lincoln-NH-03251/99275426_zpid/,44.046738,-71.671844,,332000.0,,https://photos.zillowstatic.com/fp/e3a85e3dd06ccf08da53eed50deaa28d-p_e.jpg,,
"24 Preble St, Dover, NH 03820",3820,Dover,NH,2631.0,3.0,1.0,1417.0,,https://www.zillow.com/homedetails/24-Preble-St-Dover-NH-03820/92908908_zpid/,43.20051,-70.87399,,408000.0,,https://photos.zillowstatic.com/fp/387c52695f6f67d9061f33153001d2e2-p_e.jpg,,
"55 River Rd APT 10B, Manchester, NH 03104",3104,Manchester,NH,2428.0,3.0,3.0,1519.0,,https://www.zillow.com/homedetails/55-River-Rd-APT-10B-Manchester-NH-03104/95349890_zpid/,43.0047,-71.46788,,483100.0,,https://photos.zillowstatic.com/fp/531d9326e0c21b5889f35dd2e8cd5673-p_e.jpg,,
"10 Auburn Rd, Londonderry, NH 03053",3053,Londonderry,NH,2437.0,2.0,1.0,882.0,,https://www.zillow.com/homedetails/10-Auburn-Rd-Londonderry-NH-03053/113619774_zpid/,42.917686,-71.36664,,410400.0,,https://photos.zillowstatic.com/fp/7e446e2bb4a2287b3ba2e2c692b6412e-p_e.jpg,,
"68 Kings Hwy UNIT 24, Hampton, NH 03842",3842,Hampton,NH,2228.0,2.0,1.0,768.0,,https://www.zillow.com/homedetails/68-Kings-Hwy-UNIT-24-Hampton-NH-03842/86806442_zpid/,42.931705,-70.799355,,340300.0,,https://photos.zillowstatic.com/fp/6007734f4a0c33527c927bd1918e7123-p_e.jpg,,
"111 Market St UNIT 4, Portsmouth, NH 03801",3801,Portsmouth,NH,2386.0,1.0,1.0,893.0,,https://www.zillow.com/homedetails/111-Market-St-UNIT-4-Portsmouth-NH-03801/95356541_zpid/,43.078663,-70.75767,,696400.0,,https://photos.zillowstatic.com/fp/c88d3dee99c542cd2d8df09623fb98ba-p_e.jpg,,
"137 Island Pond Rd, Derry, NH 03038",3038,Derry,NH,2997.0,3.0,2.0,1000.0,,https://www.zillow.com/homedetails/137-Island-Pond-Rd-Derry-NH-03038/86821453_zpid/,42.86792,-71.25916,,397000.0,,https://photos.zillowstatic.com/fp/0c254b6757ac1a487cf3c84cb3b379ce-p_e.jpg,,
"48 Orris Rd, Thornton, NH 03285",3285,Thornton,NH,2237.0,1.0,1.0,1750.0,,https://www.zillow.com/homedetails/48-Orris-Rd-Thornton-NH-03285/2120181879_zpid/,43.897873,-71.58502,,289900.0,,https://photos.zillowstatic.com/fp/8b8e709f50ab9944c39e1764176c41ec-p_e.jpg,,
"12 3rd St, Windham, NH 03087",3087,Windham,NH,2787.0,2.0,1.0,772.0,,https://www.zillow.com/homedetails/12-3rd-St-Windham-NH-03087/86798725_zpid/,42.8007,-71.29135,,277500.0,,https://photos.zillowstatic.com/fp/d9dd63d6ebf32ddbd8d6e34f4fe48113-p_e.jpg,,
"(undisclosed Address), Portsmouth, NH 03801",3801,Portsmouth,NH,4025.0,3.0,2.0,1600.0,,https://www.zillow.com/homedetails/Portsmouth-NH-03801/95356335_zpid/,,,,851900.0,,https://photos.zillowstatic.com/fp/c9f8edd5e8dd9d72872056755a4cbdca-p_e.jpg,,
"225 Blanchard St APT 1, Berlin, NH 03570",3570,Berlin,NH,1097.0,2.0,1.0,600.0,,https://www.zillow.com/homedetails/225-Blanchard-St-APT-1-Berlin-NH-03570/2092874726_zpid/,44.47407,-71.184074,,,,https://photos.zillowstatic.com/fp/61ba2cc67c1e525a9203543df00ba2fb-p_e.jpg,,
"34 Liberty Ln UNIT 2, Thornton, NH 03285",3285,Thornton,NH,2403.0,2.0,2.0,1241.0,,https://www.zillow.com/homedetails/34-Liberty-Ln-UNIT-2-Thornton-NH-03285/86754837_zpid/,43.874023,-71.61296,,299400.0,,https://photos.zillowstatic.com/fp/73a77609f3bb6fbb7b4c48b99b3dc859-p_e.jpg,,
"33 Dutton St #37, Manchester, NH 03104",3104,Manchester,NH,1823.0,2.0,1.0,1200.0,,https://www.zillow.com/homedetails/33-Dutton-St-37-Manchester-NH-03104/350156478_zpid/,42.992462,-71.45086,,,,https://photos.zillowstatic.com/fp/97171650ccd8b994ecabdbe00860f203-p_e.jpg,,
"790 Poor Farm Rd, Francestown, NH 03043",3043,Francestown,NH,3164.0,2.0,2.0,1548.0,,https://www.zillow.com/homedetails/790-Poor-Farm-Rd-Francestown-NH-03043/189913146_zpid/,43.007072,-71.80916,,579200.0,,https://photos.zillowstatic.com/fp/3b87813f315a83fccccdefb100baf6f2-p_e.jpg,,
"(undisclosed Address), Sanbornville, NH 03872",3872,Sanbornville,NH,2160.0,2.0,1.0,960.0,,https://www.zillow.com/homedetails/Sanbornville-NH-03872/86725099_zpid/,,,,272600.0,,https://photos.zillowstatic.com/fp/99223eb4b2ca829f0ffb2914a125064e-p_e.jpg,,
"616 Portland St UNIT 24, Rochester, NH 03867",3867,Rochester,NH,1804.0,2.0,1.0,856.0,,https://www.zillow.com/homedetails/616-Portland-St-UNIT-24-Rochester-NH-03867/86859919_zpid/,43.31802,-70.954056,,182600.0,,https://photos.zillowstatic.com/fp/1d90e74917073e416888522e854785c2-p_e.jpg,,
"131 Lake St #313, Gilford, NH 03249",3249,Gilford,NH,1631.0,1.0,1.0,650.0,,https://www.zillow.com/homedetails/131-Lake-St-313-Gilford-NH-03249/2061271138_zpid/,43.56562,-71.44812,,,,https://photos.zillowstatic.com/fp/509133fb373f0869d437c80468026c28-p_e.jpg,,
"(undisclosed Address), Colebrook, NH 03576",3576,Colebrook,NH,1040.0,1.0,1.0,600.0,,https://www.zillow.com/homedetails/Colebrook-NH-03576/2094773463_zpid/,,,,,,https://photos.zillowstatic.com/fp/92e82e61db98de7cb4f533d5ac837121-p_e.jpg,,
"94 Union St SUITE B, Somersworth, NH 03878",3878,Somersworth,NH,1989.0,2.0,1.0,1200.0,,https://www.zillow.com/homedetails/94-Union-St-SUITE-B-Somersworth-NH-03878/2068592890_zpid/,43.253,-70.86068,,,,https://photos.zillowstatic.com/fp/592e4004f91ce4257a6966dbc21d4655-p_e.jpg,,
"44 Dunklee St, Concord, NH 03301",3301,Concord,NH,1247.0,1.0,1.0,700.0,,https://www.zillow.com/homedetails/44-Dunklee-St-Concord-NH-03301/2056579973_zpid/,43.18871,-71.5349,,293300.0,,https://photos.zillowstatic.com/fp/d9ec6bfe5423d036bf7e377efe2487dd-p_e.jpg,,
"131 Lake St #338, Laconia, NH 03246",3246,Laconia,NH,1628.0,1.0,1.0,681.0,,https://www.zillow.com/homedetails/131-Lake-St-338-Laconia-NH-03246/92809486_zpid/,43.567074,-71.446434,,186200.0,,https://photos.zillowstatic.com/fp/3f92dc0f8e5e9ab55012f2a589047575-p_e.jpg,,
"116 W Pearl St, Nashua, NH 03060",3060,Nashua,NH,2515.0,2.0,1.0,750.0,,https://www.zillow.com/homedetails/116-W-Pearl-St-Nashua-NH-03060/189871334_zpid/,42.75939,-71.466736,,3948200.0,,https://photos.zillowstatic.com/fp/9afe84f7f8c2332816bb267e196f1ac5-p_e.jpg,,
"(undisclosed Address), Suncook, NH 03275",3275,Suncook,NH,1910.0,2.0,1.0,800.0,,https://www.zillow.com/homedetails/Suncook-NH-03275/2060483871_zpid/,,,,,,https://photos.zillowstatic.com/fp/4412bcf8b5e54d621e242f2bb4c7ec90-p_e.jpg,,
"(undisclosed Address), Northwood, NH 03261",3261,Northwood,NH,2136.0,2.0,1.0,940.0,,https://www.zillow.com/homedetails/Northwood-NH-03261/2069723286_zpid/,,,,,,https://photos.zillowstatic.com/fp/0e3a1f474ab461f3f5b98f7fde43412b-p_e.jpg,,
"(undisclosed Address), Troy, NH 03465",3465,Troy,NH,2193.0,2.0,1.0,1040.0,,https://www.zillow.com/homedetails/Troy-NH-03465/86733803_zpid/,,,,322300.0,,https://photos.zillowstatic.com/fp/a1da4d2bedd1b578bce8a70eb0281fb8-p_e.jpg,,
"23 Overlook Rd #3, Campton, NH 03223",3223,Campton,NH,1753.0,1.0,1.0,750.0,,https://www.zillow.com/homedetails/23-Overlook-Rd-3-Campton-NH-03223/92853575_zpid/,43.866993,-71.635254,,175400.0,,https://photos.zillowstatic.com/fp/2e8e09929e32d4e24e2de066383f43ec-p_e.jpg,,
"312 Front St #3, Manchester, NH 03102",3102,Manchester,NH,1938.0,1.0,1.0,800.0,,https://www.zillow.com/homedetails/312-Front-St-3-Manchester-NH-03102/2095155076_zpid/,43.007275,-71.47739,,,,https://photos.zillowstatic.com/fp/4f88899894fb30aab535ffb53c9069d2-p_e.jpg,,
"(undisclosed Address), Weare, NH 03281",3281,Weare,NH,3226.0,2.0,1.0,,,https://www.zillow.com/homedetails/Weare-NH-03281/117800421_zpid/,,,,470500.0,,https://photos.zillowstatic.com/fp/d246ff8114890ea5757a92db73d2c48c-p_e.jpg,,
"(undisclosed Address), New Boston, NH 03070",3070,New Boston,NH,2930.0,3.0,2.0,1350.0,,https://www.zillow.com/homedetails/New-Boston-NH-03070/251039971_zpid/,,,,519300.0,,https://photos.zillowstatic.com/fp/1f0ff5e635f46825aaef9407ba17943e-p_e.jpg,,
"(undisclosed Address), Windham, NH 03087",3087,Windham,NH,2428.0,2.0,1.0,800.0,,https://www.zillow.com/homedetails/Windham-NH-03087/86798672_zpid/,,,,329000.0,,https://photos.zillowstatic.com/fp/7b312b03dcc85b416b86cad756946204-p_e.jpg,,
"6 Cross St, Dover, NH 03820",3820,Dover,NH,2668.0,3.0,2.0,1200.0,,https://www.zillow.com/homedetails/6-Cross-St-Dover-NH-03820/2084304928_zpid/,43.200665,-70.86126,,,,https://photos.zillowstatic.com/fp/681b8da4906a1c1ca2d7871512327c12-p_e.jpg,,
"21 Willowbrook Ave, Greenland, NH 03840",3840,Greenland,NH,2520.0,1.0,1.0,900.0,,https://www.zillow.com/homedetails/21-Willowbrook-Ave-Greenland-NH-03840/124633817_zpid/,43.035248,-70.86587,,1225000.0,,https://photos.zillowstatic.com/fp/d01e8613360db07b48f4486cb604a7b9-p_e.jpg,,
"5 Central Sq #1, New Boston, NH 03070",3070,New Boston,NH,2199.0,2.0,1.0,1300.0,,https://www.zillow.com/homedetails/5-Central-Sq-1-New-Boston-NH-03070/350977188_zpid/,42.97707,-71.691956,,,,https://photos.zillowstatic.com/fp/e220a7fb7b7451694f6d2c46d88eb54a-p_e.jpg,,
"784 Chestnut St #2, Manchester, NH 03104",3104,Manchester,NH,1867.0,2.0,1.0,1200.0,,https://www.zillow.com/homedetails/784-Chestnut-St-2-Manchester-NH-03104/2123302982_zpid/,43.006046,-71.46328,,,,https://photos.zillowstatic.com/fp/8dff7d403dda7e56f8bd0b4193f47f89-p_e.jpg,,
"16 Dublin Rd FLOOR A-1, Peterborough, NH 03458",3458,Peterborough,NH,1920.0,2.0,1.0,1120.0,,https://www.zillow.com/homedetails/16-Dublin-Rd-FLOOR-A-1-Peterborough-NH-03458/348319336_zpid/,42.87092,-71.95289,,,,https://photos.zillowstatic.com/fp/211a1334040f1645ce34576c90ae79c0-p_e.jpg,,
"80 Noyes Rd, Tilton, NH 03276",3276,Tilton,NH,1718.0,1.0,1.0,860.0,,https://www.zillow.com/homedetails/80-Noyes-Rd-Tilton-NH-03276/92809891_zpid/,43.465675,-71.54373,,243700.0,,https://photos.zillowstatic.com/fp/0e9a0ac4d32751e44153df7a954942be-p_e.jpg,,
"(undisclosed Address), Dover, NH 03820",3820,Dover,NH,2420.0,3.0,1.0,1400.0,,https://www.zillow.com/homedetails/Dover-NH-03820/2062791038_zpid/,,,,,,https://photos.zillowstatic.com/fp/2aec2e589c969740d41b265757f67f01-p_e.jpg,,
"112 Herrick Cove Ln, New London, NH 03257",3257,New London,NH,6496.0,6.0,5.0,4265.0,,https://www.zillow.com/homedetails/112-Herrick-Cove-Ln-New-London-NH-03257/92891354_zpid/,43.40856,-72.035446,,3482400.0,,https://photos.zillowstatic.com/fp/2ddbd190260f0102f8d9bead3e544add-p_e.jpg,,
"7 Concord Ave, Hampton, NH 03842",3842,Hampton,NH,3217.0,4.0,2.0,1216.0,,https://www.zillow.com/homedetails/7-Concord-Ave-Hampton-NH-03842/124491051_zpid/,42.901493,-70.81307,,,,https://photos.zillowstatic.com/fp/a62243ea80de2fb269f9db7d281f425c-p_e.jpg,,
"105 Lawrence Rd, Salem, NH 03079",3079,Salem,NH,3266.0,3.0,1.0,1484.0,,https://www.zillow.com/homedetails/105-Lawrence-Rd-Salem-NH-03079/86787264_zpid/,42.771378,-71.20309,,724900.0,,https://photos.zillowstatic.com/fp/576ca7cb8ad0ecfadf1e5a34de966ad9-p_e.jpg,,
"178 Main St APT 1, Newmarket, NH 03857",3857,Newmarket,NH,2351.0,3.0,1.0,,,https://www.zillow.com/homedetails/178-Main-St-APT-1-Newmarket-NH-03857/2085361939_zpid/,43.077553,-70.93864,,590500.0,,https://photos.zillowstatic.com/fp/b8a22ee3d778464fda11a027769b35fe-p_e.jpg,,
"24 W High St #24, Somersworth, NH 03878",3878,Somersworth,NH,1937.0,2.0,1.0,800.0,,https://www.zillow.com/homedetails/24-W-High-St-24-Somersworth-NH-03878/2054472656_zpid/,43.25835,-70.86928,,,,https://photos.zillowstatic.com/fp/446199aece0bb8d2d6b4dfe0cd3f48a1-p_e.jpg,,
"28 Butler St, Hillsboro, NH 03244",3244,Hillsboro,NH,2246.0,3.0,1.0,1068.0,,https://www.zillow.com/homedetails/28-Butler-St-Hillsboro-NH-03244/119153989_zpid/,43.114445,-71.89871,,444100.0,,https://photos.zillowstatic.com/fp/46bdc3eaba068b1498a45f09c19250c9-p_e.jpg,,
"(undisclosed Address), Strafford, NH 03884",3884,Strafford,NH,2215.0,2.0,1.0,950.0,,https://www.zillow.com/homedetails/Strafford-NH-03884/2077989098_zpid/,,,,,,https://photos.zillowstatic.com/fp/a53b3b13d8828b910f51b390ce28f3ff-p_e.jpg,,
"90 Indigo Hill Rd APT 8, Somersworth, NH 03878",3878,Somersworth,NH,1554.0,1.0,1.0,698.0,,https://www.zillow.com/homedetails/90-Indigo-Hill-Rd-APT-8-Somersworth-NH-03878/2056171558_zpid/,43.252457,-70.85924,,,,https://photos.zillowstatic.com/fp/65f1315bf8330746069ccdac675f9849-p_e.jpg,,
"13 Tuttle Ave, Hampton, NH 03842",3842,Hampton,NH,2685.0,3.0,1.0,768.0,,https://www.zillow.com/homedetails/13-Tuttle-Ave-Hampton-NH-03842/86819190_zpid/,42.903328,-70.81561,,537400.0,,https://photos.zillowstatic.com/fp/f0dc8fa7d1ee79a6877b0a70b4b7ca51-p_e.jpg,,
"(undisclosed Address), Francestown, NH 03043",3043,Francestown,NH,3080.0,3.0,2.0,2806.0,,https://www.zillow.com/homedetails/Francestown-NH-03043/189907492_zpid/,,,,601800.0,,https://photos.zillowstatic.com/fp/ea8b7db55adfaee1ba57671b6364012e-p_e.jpg,,
"43 Three Rivers Farm Rd, Dover, NH 03820",3820,Dover,NH,2976.0,2.0,2.0,2296.0,,https://www.zillow.com/homedetails/43-Three-Rivers-Farm-Rd-Dover-NH-03820/2124402986_zpid/,43.192028,-70.83368,,536300.0,,https://photos.zillowstatic.com/fp/491934e77ad6254e366faadc06f886bc-p_e.jpg,,
"6 Louisburg Sq APT 8, Nashua, NH 03060",3060,Nashua,NH,2122.0,2.0,2.0,980.0,,https://www.zillow.com/homedetails/6-Louisburg-Sq-APT-8-Nashua-NH-03060/74313097_zpid/,42.716927,-71.44418,,290000.0,,https://photos.zillowstatic.com/fp/163290d6ddd8c7c3ee175d18623ce5d6-p_e.jpg,,
"1380 River Rd APT 1, Weare, NH 03281",3281,Weare,NH,2361.0,2.0,2.0,1271.0,,https://www.zillow.com/homedetails/1380-River-Rd-APT-1-Weare-NH-03281/126558601_zpid/,43.102417,-71.70392,,301300.0,,https://photos.zillowstatic.com/fp/19ccc195f7ac45b38e7205b70ebb2013-p_e.jpg,,
"20 Ocean Blvd, Seabrook, NH 03874",3874,Seabrook,NH,2729.0,2.0,1.0,,,https://www.zillow.com/homedetails/20-Ocean-Blvd-Seabrook-NH-03874/113010825_zpid/,42.872517,-70.81802,,876300.0,,https://photos.zillowstatic.com/fp/83b03cf6a45cf83affb3cd9d9fe3f447-p_e.jpg,,
"37 New York St #2, Dover, NH 03820",3820,Dover,NH,2208.0,2.0,1.0,900.0,,https://www.zillow.com/homedetails/37-New-York-St-2-Dover-NH-03820/2053623927_zpid/,43.201008,-70.87336,,,,https://photos.zillowstatic.com/fp/eb8554c36af8ff4f43ca298b306e9159-p_e.jpg,,
"84 Conant St #1, Manchester, NH 03102",3102,Manchester,NH,2198.0,4.0,1.0,1100.0,,https://www.zillow.com/homedetails/84-Conant-St-1-Manchester-NH-03102/2053129059_zpid/,42.985226,-71.47597,,,,https://photos.zillowstatic.com/fp/624fc7efe8746a0d2b36837188a3429d-p_e.jpg,,
"315 Ocean Blvd #302, Hampton, NH 03842",3842,Hampton,NH,2612.0,2.0,1.0,850.0,,https://www.zillow.com/homedetails/315-Ocean-Blvd-302-Hampton-NH-03842/307192568_zpid/,42.913826,-70.809074,,576000.0,,https://photos.zillowstatic.com/fp/a176c60f822733ee9d1e1e7a6f4ed3f9-p_e.jpg,,
"6 Rose St, Dover, NH 03820",3820,Dover,NH,2424.0,2.0,1.0,1142.0,,https://www.zillow.com/homedetails/6-Rose-St-Dover-NH-03820/92906297_zpid/,43.206978,-70.86915,,450700.0,,https://photos.zillowstatic.com/fp/06c401465066c53929778642d63ac5dc-p_e.jpg,,
"15 Wentworth Ter, Dover, NH 03820",3820,Dover,NH,2511.0,2.0,1.0,787.0,,https://www.zillow.com/homedetails/15-Wentworth-Ter-Dover-NH-03820/92911700_zpid/,43.12419,-70.83085,,684400.0,,https://photos.zillowstatic.com/fp/d22b4cdb0bd12b1ba6cd9e5ffa767b78-p_e.jpg,,
"(undisclosed Address), Laconia, NH 03246",3246,Laconia,NH,1688.0,1.0,1.0,1000.0,,https://www.zillow.com/homedetails/Laconia-NH-03246/348247217_zpid/,,,,,,https://photos.zillowstatic.com/fp/c22046902ffc57c86d205e2f73df2e9f-p_e.jpg,,
"3 W Concord St #1/2, Dover, NH 03820",3820,Dover,NH,2014.0,2.0,1.0,1040.0,,https://www.zillow.com/homedetails/3-W-Concord-St-1-2-Dover-NH-03820/2077950797_zpid/,43.192173,-70.88261,,,,https://photos.zillowstatic.com/fp/36283c0e9afb44bb5ad8c53ea332bb8f-p_e.jpg,,
"101 Ocean Blvd, Hampton, NH 03842",3842,Hampton,NH,1971.0,1.0,2.0,800.0,,https://www.zillow.com/homedetails/101-Ocean-Blvd-Hampton-NH-03842/2057873359_zpid/,42.90675,-70.81175,,,,https://photos.zillowstatic.com/fp/4af4a1aaed6f0088afe58aa31401eaf2-p_e.jpg,,
"16 Plantation Rd, Laconia, NH 03246",3246,Laconia,NH,3529.0,4.0,2.0,1168.0,,https://www.zillow.com/homedetails/16-Plantation-Rd-Laconia-NH-03246/86703704_zpid/,43.601673,-71.44105,,372700.0,,https://photos.zillowstatic.com/fp/dd3d5dc80ce538591031061219cee98f-p_e.jpg,,
"177 Central Ave #1, Dover, NH 03820",3820,Dover,NH,2446.0,2.0,1.0,1900.0,,https://www.zillow.com/homedetails/177-Central-Ave-1-Dover-NH-03820/2055305815_zpid/,43.188965,-70.87406,,,,https://photos.zillowstatic.com/fp/8a748632771c80adfb84e54479009e16-p_e.jpg,,
"7 Middle Mountain Trl, Jackson, NH 03846",3846,Jackson,NH,3107.0,3.0,2.0,1250.0,,https://www.zillow.com/homedetails/7-Middle-Mountain-Trl-Jackson-NH-03846/92832358_zpid/,44.142002,-71.16047,,521500.0,,https://photos.zillowstatic.com/fp/95dbd6dfc4719fd15848c42e01fb7994-p_e.jpg,,
"20 C St #19, Hampton, NH 03842",3842,Hampton,NH,1949.0,1.0,1.0,800.0,,https://www.zillow.com/homedetails/20-C-St-19-Hampton-NH-03842/2062515257_zpid/,42.91104,-70.81131,,,,https://photos.zillowstatic.com/fp/cee694211dc78785194fcc78209fa9ce-p_e.jpg,,
"15 Pleasant St #B, West Lebanon, NH 03784",3784,West Lebanon,NH,2083.0,2.0,1.0,1000.0,,https://www.zillow.com/homedetails/15-Pleasant-St-B-West-Lebanon-NH-03784/353703551_zpid/,43.645966,-72.30652,,,,https://photos.zillowstatic.com/fp/eb17d112eeaf2b0eeba2bd65962798c0-p_e.jpg,,
"19 Main St #2, Alstead, NH 03602",3602,Alstead,NH,1751.0,3.0,1.0,800.0,,https://www.zillow.com/homedetails/19-Main-St-2-Alstead-NH-03602/2102208038_zpid/,43.147762,-72.360596,,,,https://photos.zillowstatic.com/fp/d493ebe3ce18d6a1016f8ce2e10fa212-p_e.jpg,,
"(undisclosed Address), Whitefield, NH 03598",3598,Whitefield,NH,2265.0,3.0,2.0,1900.0,,https://www.zillow.com/homedetails/Whitefield-NH-03598/95337499_zpid/,,,,528900.0,,https://photos.zillowstatic.com/fp/f0dc0424a87c2b328fde48e8a2910210-p_e.jpg,,
"520 Beech St #2L, Manchester, NH 03104",3104,Manchester,NH,1683.0,2.0,1.0,750.0,,https://www.zillow.com/homedetails/520-Beech-St-2L-Manchester-NH-03104/2061187231_zpid/,42.99217,-71.455696,,,,https://photos.zillowstatic.com/fp/9af0155b358fa079795d5e361d467593-p_e.jpg,,
"23 Sunapee St APT 3, Newport, NH 03773",3773,Newport,NH,1465.0,1.0,1.0,525.0,,https://www.zillow.com/homedetails/23-Sunapee-St-APT-3-Newport-NH-03773/2086866358_zpid/,43.36511,-72.17186,,,,https://photos.zillowstatic.com/fp/9bac2d81480cf1fff4c466732fad8d3c-p_e.jpg,,
"189 Central Ave APT A, Dover, NH 03820",3820,Dover,NH,3742.0,4.0,2.0,3000.0,,https://www.zillow.com/homedetails/189-Central-Ave-APT-A-Dover-NH-03820/398548602_zpid/,43.189777,-70.873505,,,,https://photos.zillowstatic.com/fp/ca87b430f88e9b8927181da28f29b06e-p_e.jpg,,
"560 Main St APT 4, Farmington, NH 03835",3835,Farmington,NH,1806.0,2.0,1.0,1000.0,,https://www.zillow.com/homedetails/560-Main-St-APT-4-Farmington-NH-03835/2092125173_zpid/,43.391235,-71.06286,,,,https://photos.zillowstatic.com/fp/0b9086245440e3c02b7ee2295792fb3a-p_e.jpg,,
"32 Whipple Ave, Laconia, NH 03246",3246,Laconia,NH,1804.0,2.0,1.0,1001.0,,https://www.zillow.com/homedetails/32-Whipple-Ave-Laconia-NH-03246/86713190_zpid/,43.52844,-71.475685,,290700.0,,https://photos.zillowstatic.com/fp/f5dc262c8363d07c16017b760f821e8b-p_e.jpg,,
"17 Mount Pleasant St #1, Derry, NH 03038",3038,Derry,NH,1869.0,2.0,1.0,,,https://www.zillow.com/homedetails/17-Mount-Pleasant-St-1-Derry-NH-03038/2056165693_zpid/,42.887844,-71.32135,,,,https://photos.zillowstatic.com/fp/8cefe0ccd3da91e4be629ab30c8cae22-p_e.jpg,,
"68 Highland St #C, Plymouth, NH 03264",3264,Plymouth,NH,2135.0,2.0,1.0,,,https://www.zillow.com/homedetails/68-Highland-St-C-Plymouth-NH-03264/2056333613_zpid/,43.75914,-71.69617,,,,https://photos.zillowstatic.com/fp/7fd2a6c4581cae437c3325a3d345cf43-p_e.jpg,,
"53 Boulder Path Rd #1, Waterville Valley, NH 03215",3215,Waterville Valley,NH,3246.0,4.0,4.0,2200.0,,https://www.zillow.com/homedetails/53-Boulder-Path-Rd-1-Waterville-Valley-NH-03215/92844603_zpid/,43.956985,-71.50818,,1025500.0,,https://photos.zillowstatic.com/fp/432f8e072177217ea78fd98f6e54e072-p_e.jpg,,
"10 J St, Hampton, NH 03842",3842,Hampton,NH,5068.0,4.0,3.0,3520.0,,https://www.zillow.com/homedetails/10-J-St-Hampton-NH-03842/2059968926_zpid/,42.906223,-70.81211,,1922000.0,,https://photos.zillowstatic.com/fp/1ddc3a9c8652c56c56c6b7eb52401cb7-p_e.jpg,,
"407 Ocean Blvd UNIT A9, Hampton, NH 03842",3842,Hampton,NH,3976.0,3.0,2.0,1898.0,,https://www.zillow.com/homedetails/407-Ocean-Blvd-UNIT-A9-Hampton-NH-03842/86815637_zpid/,42.917866,-70.805275,,949800.0,,https://photos.zillowstatic.com/fp/b28c30ea1c1ca6751f0096cff61e9f49-p_e.jpg,,
"49 Main St APT 1, Sunapee, NH 03782",3782,Sunapee,NH,1302.0,1.0,1.0,600.0,,https://www.zillow.com/homedetails/49-Main-St-APT-1-Sunapee-NH-03782/2088388266_zpid/,43.38662,-72.08313,,,,https://photos.zillowstatic.com/fp/d4b4909c38aa1b3c99cb54dedc95ccdc-p_e.jpg,,
"10 Court St #A, Dover, NH 03820",3820,Dover,NH,1987.0,2.0,1.0,900.0,,https://www.zillow.com/homedetails/10-Court-St-A-Dover-NH-03820/2133232030_zpid/,43.190796,-70.87293,,,,https://photos.zillowstatic.com/fp/9e61156f14153796ca9286b6089a722b-p_e.jpg,,
"152 Cannongate Iii Rd, Nashua, NH 03063",3063,Nashua,NH,2457.0,2.0,2.0,1250.0,,https://www.zillow.com/homedetails/152-Cannongate-Iii-Rd-Nashua-NH-03063/2062054970_zpid/,42.783043,-71.50102,,,,https://photos.zillowstatic.com/fp/0af28660ddd166181b8fd9145af30811-p_e.jpg,,
"202 Mica Mine Rd, Claremont, NH 03743",3743,Claremont,NH,2348.0,3.0,2.0,1812.0,,https://www.zillow.com/homedetails/202-Mica-Mine-Rd-Claremont-NH-03743/113022400_zpid/,43.3081,-72.25592,,,,https://photos.zillowstatic.com/fp/c38ea6453b22996200b03442572d4758-p_e.jpg,,
"808 Cocheco Ct, Dover, NH 03820",3820,Dover,NH,1691.0,1.0,1.0,532.0,,https://www.zillow.com/homedetails/808-Cocheco-Ct-Dover-NH-03820/92904830_zpid/,43.191376,-70.86879,,208600.0,,https://photos.zillowstatic.com/fp/938a7457469b4a74a21c8ff68b5fca0d-p_e.jpg,,
"122 Pleasant St, Franklin, NH 03235",3235,Franklin,NH,1676.0,2.0,1.0,850.0,,https://www.zillow.com/homedetails/122-Pleasant-St-Franklin-NH-03235/2093115659_zpid/,43.443676,-71.63776,,452400.0,,https://photos.zillowstatic.com/fp/ed03a6e29de14e25924ea51f39128cfa-p_e.jpg,,
"69 Chestnut St #B, Rochester, NH 03867",3867,Rochester,NH,1770.0,2.0,1.0,800.0,,https://www.zillow.com/homedetails/69-Chestnut-St-B-Rochester-NH-03867/2053154836_zpid/,43.30075,-70.984566,,,,https://photos.zillowstatic.com/fp/ebeb59843570007a63c1e3e19e259e4c-p_e.jpg,,
"35 Dutton St #35, Manchester, NH 03104",3104,Manchester,NH,2023.0,3.0,1.0,1300.0,,https://www.zillow.com/homedetails/35-Dutton-St-35-Manchester-NH-03104/350160669_zpid/,42.992603,-71.45077,,,,https://photos.zillowstatic.com/fp/77f692efe94e3c728865c5254c3c23ec-p_e.jpg,,
"80 Beech Hill Ave UNIT 1, Manchester, NH 03103",3103,Manchester,NH,2330.0,2.0,2.0,1170.0,,https://www.zillow.com/homedetails/80-Beech-Hill-Ave-UNIT-1-Manchester-NH-03103/74319865_zpid/,42.958996,-71.453766,,334000.0,,https://photos.zillowstatic.com/fp/ad47db213002e21d4f21d2fc565e75fc-p_e.jpg,,
"37 Alice Dr APT 128, Concord, NH 03303",3303,Concord,NH,1991.0,2.0,1.0,824.0,,https://www.zillow.com/homedetails/37-Alice-Dr-APT-128-Concord-NH-03303/92873933_zpid/,43.261364,-71.58606,,217200.0,,https://photos.zillowstatic.com/fp/97faf6418158b98b0934b22a84a0d856-p_e.jpg,,
"263 Village St, Concord, NH 03303",3303,Concord,NH,3160.0,3.0,2.0,1200.0,,https://www.zillow.com/homedetails/263-Village-St-Concord-NH-03303/2059463711_zpid/,43.27914,-71.5995,,,,https://photos.zillowstatic.com/fp/4b8eebae0a4c61b85fd535d1d1f1c4d0-p_e.jpg,,
"(undisclosed Address), Sutton, NH 03221",3221,Sutton,NH,1766.0,1.0,1.0,800.0,,https://www.zillow.com/homedetails/Sutton-NH-03221/92868612_zpid/,,,,392300.0,,https://photos.zillowstatic.com/fp/137b49489f6c16df11d6a347a0a155cf-p_e.jpg,,
"685 State St, Portsmouth, NH 03801",3801,Portsmouth,NH,2468.0,1.0,1.0,680.0,,https://www.zillow.com/homedetails/685-State-St-Portsmouth-NH-03801/95354395_zpid/,43.073345,-70.76465,,,,https://photos.zillowstatic.com/fp/b0677566c4e9c7c4b59964593289c053-p_e.jpg,,
"127 Fox Hollow Dr, Hudson, NH 03051",3051,Hudson,NH,2349.0,2.0,2.0,1138.0,,https://www.zillow.com/homedetails/127-Fox-Hollow-Dr-Hudson-NH-03051/74287720_zpid/,42.75039,-71.4278,,355300.0,,https://photos.zillowstatic.com/fp/e56139592ecc2142f0116d99e43d6d5b-p_e.jpg,,
"(undisclosed Address), North Hampton, NH 03862",3862,North Hampton,NH,2561.0,2.0,1.0,1110.0,,https://www.zillow.com/homedetails/North-Hampton-NH-03862/113007701_zpid/,,,,,,https://photos.zillowstatic.com/fp/20c6419c16d94ae0264ebb975fb7be84-p_e.jpg,,
"11 Long Pond Rd, Kingston, NH 03848",3848,Kingston,NH,4382.0,4.0,3.0,2555.0,,https://www.zillow.com/homedetails/11-Long-Pond-Rd-Kingston-NH-03848/86812439_zpid/,42.91773,-71.09515,,798500.0,,https://photos.zillowstatic.com/fp/bb91b8657ab5b793ca74754985d0b58c-p_e.jpg,,
"18 Gould Ave UNIT 3, Meredith, NH 03253",3253,Meredith,NH,1749.0,2.0,1.0,792.0,,https://www.zillow.com/homedetails/18-Gould-Ave-UNIT-3-Meredith-NH-03253/86702987_zpid/,43.66159,-71.49059,,221900.0,,https://photos.zillowstatic.com/fp/d5d387097782c2f1c3e959c5077c1b39-p_e.jpg,,
"202 Victory Dr, Franklin, NH 03235",3235,Franklin,NH,2068.0,2.0,2.0,1840.0,,https://www.zillow.com/homedetails/202-Victory-Dr-Franklin-NH-03235/92871180_zpid/,43.448357,-71.65401,,409600.0,,https://photos.zillowstatic.com/fp/e46347a2286fa5b507736929d0d9ff86-p_e.jpg,,
"66 Stagecoach Rd, Sunapee, NH 03782",3782,Sunapee,NH,3573.0,3.0,3.0,2326.0,,https://www.zillow.com/homedetails/66-Stagecoach-Rd-Sunapee-NH-03782/92914178_zpid/,43.377483,-72.08926,,779300.0,,https://photos.zillowstatic.com/fp/c45b7e63900ded1cc5cc5c0c8007dc49-p_e.jpg,,
"24 Cable Rd, Rye, NH 03870",3870,Rye,NH,5284.0,2.0,1.0,600.0,,https://www.zillow.com/homedetails/24-Cable-Rd-Rye-NH-03870/120998415_zpid/,42.99047,-70.7617,,1167300.0,,https://photos.zillowstatic.com/fp/c9538aaab82a626a16dc3619171e4b66-p_e.jpg,,
"35 Oak St #2, Laconia, NH 03246",3246,Laconia,NH,1718.0,3.0,1.0,1250.0,,https://www.zillow.com/homedetails/35-Oak-St-2-Laconia-NH-03246/2055492734_zpid/,43.53216,-71.474846,,,,https://photos.zillowstatic.com/fp/3a1c4993305f7c9ff727b9451700f149-p_e.jpg,,
"100 Middle St APT 3, Manchester, NH 03101",3101,Manchester,NH,1663.0,1.0,1.0,430.0,,https://www.zillow.com/homedetails/100-Middle-St-APT-3-Manchester-NH-03101/95344620_zpid/,42.989857,-71.46553,,210700.0,,https://photos.zillowstatic.com/fp/3973e8424740e706de9bf7c8eb528554-p_e.jpg,,
"1178 Us Route 4 APT 1, Canaan, NH 03741",3741,Canaan,NH,2223.0,4.0,1.0,,,https://www.zillow.com/homedetails/1178-Us-Route-4-APT-1-Canaan-NH-03741/2081351811_zpid/,43.646248,-72.011604,,,,https://photos.zillowstatic.com/fp/d2ef663f150ed9a7a9ea5274547aa6c8-p_e.jpg,,
"60 Belknap St, Dover, NH 03820",3820,Dover,NH,1699.0,1.0,1.0,650.0,,https://www.zillow.com/homedetails/60-Belknap-St-Dover-NH-03820/2143983713_zpid/,43.1917,-70.878876,,,,https://photos.zillowstatic.com/fp/c5ea601d1d8010ecd9ed34003619988d-p_e.jpg,,
"230 Eastern Ave APT 301, Manchester, NH 03104",3104,Manchester,NH,1981.0,2.0,1.0,845.0,,https://www.zillow.com/homedetails/230-Eastern-Ave-APT-301-Manchester-NH-03104/95348742_zpid/,43.000103,-71.41901,,246600.0,,https://photos.zillowstatic.com/fp/a8df0ee3d907373488ca8848f93ed4d0-p_e.jpg,,
"67-69 Pillsbury St, Concord, NH 03301",3301,Concord,NH,1724.0,2.0,1.0,2636.0,,https://www.zillow.com/homedetails/67-69-Pillsbury-St-Concord-NH-03301/113004792_zpid/,43.190598,-71.53652,,703500.0,,https://photos.zillowstatic.com/fp/1bb95ec8268a06f867cf3aaabf9d8e53-p_e.jpg,,
"55 Log St APT 1E, Manchester, NH 03102",3102,Manchester,NH,1749.0,2.0,1.0,700.0,,https://www.zillow.com/homedetails/55-Log-St-APT-1E-Manchester-NH-03102/119148331_zpid/,42.978493,-71.474846,,195300.0,,https://photos.zillowstatic.com/fp/91aa899b97c11e59db1ffd5159002217-p_e.jpg,,
"17 Ryswick St, Gilford, NH 03249",3249,Gilford,NH,3495.0,3.0,2.0,1870.0,,https://www.zillow.com/homedetails/17-Ryswick-St-Gilford-NH-03249/211097324_zpid/,43.567986,-71.371796,,713700.0,,https://photos.zillowstatic.com/fp/0e9cd8f489e7fff1c99aded6b195a4c6-p_e.jpg,,
"8 W Shore Rd #2, Nelson, NH 03457",3457,Nelson,NH,1723.0,1.0,1.0,800.0,,https://www.zillow.com/homedetails/8-W-Shore-Rd-2-Nelson-NH-03457/347297261_zpid/,43.015274,-72.14863,,,,https://photos.zillowstatic.com/fp/20b3c2a90f8143fe59ed2e0d6896eee8-p_e.jpg,,
"(undisclosed Address), New Ipswich, NH 03071",3071,New Ipswich,NH,2621.0,2.0,3.0,1368.0,,https://www.zillow.com/homedetails/New-Ipswich-NH-03071/117797025_zpid/,,,,287100.0,,https://photos.zillowstatic.com/fp/b8dc189edaf944aa3667d5e2a7b3414d-p_e.jpg,,
"15 Gallen Dr, Concord, NH 03303",3303,Concord,NH,3600.0,2.0,2.0,2000.0,,https://www.zillow.com/homedetails/15-Gallen-Dr-Concord-NH-03303/92890063_zpid/,43.25453,-71.573975,,546400.0,,https://photos.zillowstatic.com/fp/9c17600ca810f6df973e78a54e5edc71-p_e.jpg,,
"8 Harrison St #16, Manchester, NH 03104",3104,Manchester,NH,1007.0,1.0,1.0,,,https://www.zillow.com/homedetails/8-Harrison-St-16-Manchester-NH-03104/2055239949_zpid/,42.99894,-71.463264,,,,https://photos.zillowstatic.com/fp/614cf420de8a4d2ff12f73330a9ba374-p_e.jpg,,
"373 N Main St, West Lebanon, NH 03784",3784,West Lebanon,NH,3430.0,3.0,2.0,1712.0,,https://www.zillow.com/homedetails/373-N-Main-St-West-Lebanon-NH-03784/2092373764_zpid/,43.681236,-72.29458,,529000.0,,https://photos.zillowstatic.com/fp/4f546724d4781e74e371226814be3cce-p_e.jpg,,
"50 Briar Rd, Hampton, NH 03842",3842,Hampton,NH,2047.0,2.0,1.0,773.0,,https://www.zillow.com/homedetails/50-Briar-Rd-Hampton-NH-03842/86786191_zpid/,42.94773,-70.79098,,646700.0,,https://photos.zillowstatic.com/fp/250d7c93b1cd6d26afcfa557ebaa679e-p_e.jpg,,
"6 Brookside Dr APT 8, Exeter, NH 03833",3833,Exeter,NH,2178.0,2.0,1.0,911.0,,https://www.zillow.com/homedetails/6-Brookside-Dr-APT-8-Exeter-NH-03833/86835712_zpid/,42.986595,-70.96464,,259500.0,,https://photos.zillowstatic.com/fp/cdf1e119a14b828597eb74ce139e21ad-p_e.jpg,,
"1072 Maplewood Ave, Portsmouth, NH 03801",3801,Portsmouth,NH,3886.0,3.0,2.0,1439.0,,https://www.zillow.com/homedetails/1072-Maplewood-Ave-Portsmouth-NH-03801/95358426_zpid/,43.08177,-70.78117,,650500.0,,https://photos.zillowstatic.com/fp/86072c1dcab8c9211d8f34198e0021e7-p_e.jpg,,
"12 West St STE 28, Keene, NH 03431",3431,Keene,NH,1352.0,1.0,1.0,550.0,,https://www.zillow.com/homedetails/12-West-St-STE-28-Keene-NH-03431/2087070339_zpid/,42.93345,-72.27893,,,,https://photos.zillowstatic.com/fp/f67742a98d7c8d84373b84ff90645259-p_e.jpg,,
"10 Rip Rd, Hanover, NH 03755",3755,Hanover,NH,4943.0,4.0,3.0,2826.0,,https://www.zillow.com/homedetails/10-Rip-Rd-Hanover-NH-03755/92853473_zpid/,43.709984,-72.26974,,1089100.0,,https://photos.zillowstatic.com/fp/a9e34015a79399da9d1d31a0a1313590-p_e.jpg,,
"381 Nashua St #B, Milford, NH 03055",3055,Milford,NH,1614.0,1.0,1.0,750.0,,https://www.zillow.com/homedetails/381-Nashua-St-B-Milford-NH-03055/2054947470_zpid/,42.830402,-71.63869,,,,https://photos.zillowstatic.com/fp/549d6b32030d9a38454f7dd600ba42e0-p_e.jpg,,
"(undisclosed Address), Raymond, NH 03077",3077,Raymond,NH,2414.0,2.0,1.0,1056.0,,https://www.zillow.com/homedetails/Raymond-NH-03077/86802573_zpid/,,,,357400.0,,https://photos.zillowstatic.com/fp/f513aa71b45f3a4303e1423b0245b7e7-p_e.jpg,,
"1991 Bodwell Rd UNIT 19, Manchester, NH 03109",3109,Manchester,NH,1831.0,2.0,1.0,880.0,,https://www.zillow.com/homedetails/1991-Bodwell-Rd-UNIT-19-Manchester-NH-03109/119151966_zpid/,42.94206,-71.383194,,238100.0,,https://photos.zillowstatic.com/fp/1732589f81b76d016abe9e65b588cccc-p_e.jpg,,
"6 Cranwell Ct, Nashua, NH 03062",3062,Nashua,NH,3395.0,4.0,2.0,1956.0,,https://www.zillow.com/homedetails/6-Cranwell-Ct-Nashua-NH-03062/123070115_zpid/,42.74389,-71.5023,,482500.0,,https://photos.zillowstatic.com/fp/c17a0bf2b1a47faa48004ccb0a776114-p_e.jpg,,
"241 Eastern Ave, Rochester, NH 03867",3867,Rochester,NH,3908.0,4.0,2.0,2387.0,,https://www.zillow.com/homedetails/241-Eastern-Ave-Rochester-NH-03867/86850850_zpid/,43.320858,-70.96024,,512800.0,,https://photos.zillowstatic.com/fp/2a4f90d7cc0cceb6d1999b62aeed14ba-p_e.jpg,,
"498 Goebel St, Berlin, NH 03570",3570,Berlin,NH,1362.0,2.0,1.0,1100.0,,https://www.zillow.com/homedetails/498-Goebel-St-Berlin-NH-03570/86746001_zpid/,44.467,-71.17661,,190700.0,,https://photos.zillowstatic.com/fp/43224d4ddcdaa591f82179ba2f94820b-p_e.jpg,,
"11 Wakefield Dr, Nashua, NH 03062",3062,Nashua,NH,4173.0,5.0,2.0,2500.0,,https://www.zillow.com/homedetails/11-Wakefield-Dr-Nashua-NH-03062/74273789_zpid/,42.732628,-71.48622,,662900.0,,https://photos.zillowstatic.com/fp/8dd21b42ab8ecd458d60f0b6ffb7a8ec-p_e.jpg,,
"1025 Main St UNIT 3, Sunapee, NH 03782",3782,Sunapee,NH,1632.0,1.0,1.0,900.0,,https://www.zillow.com/homedetails/1025-Main-St-UNIT-3-Sunapee-NH-03782/349924565_zpid/,43.43169,-72.06888,,,,https://photos.zillowstatic.com/fp/319f2d91e47da4bd59414f499015c0f0-p_e.jpg,,
"68 Trestle Way, Dover, NH 03820",3820,Dover,NH,2446.0,2.0,2.0,1440.0,,https://www.zillow.com/homedetails/68-Trestle-Way-Dover-NH-03820/99292578_zpid/,43.179817,-70.8938,,416400.0,,https://photos.zillowstatic.com/fp/35d1c10aabe399f6707bee61cbc3f21f-p_e.jpg,,
"11 Greensboro Rd, Hanover, NH 03755",3755,Hanover,NH,3729.0,3.0,2.0,1500.0,,https://www.zillow.com/homedetails/11-Greensboro-Rd-Hanover-NH-03755/92851824_zpid/,43.69128,-72.2656,,559000.0,,https://photos.zillowstatic.com/fp/039f6ec2814360ac5fea113f4f9219c3-p_e.jpg,,
"16 South St, Newport, NH 03773",3773,Newport,NH,1408.0,1.0,1.0,,,https://www.zillow.com/homedetails/16-South-St-Newport-NH-03773/304987348_zpid/,43.362076,-72.167694,,,,https://photos.zillowstatic.com/fp/e02eb4c7a67afabdb50ff4e3340014b4-p_e.jpg,,
"6 Albert St #2, Manchester, NH 03102",3102,Manchester,NH,1947.0,2.0,1.0,800.0,,https://www.zillow.com/homedetails/6-Albert-St-2-Manchester-NH-03102/2087103885_zpid/,42.995144,-71.50575,,,,https://photos.zillowstatic.com/fp/55d40ac9ae54d930f5dab989bf3a525e-p_e.jpg,,
"8 Matthews Rd, Swanzey, NH 03446",3446,Swanzey,NH,4053.0,5.0,4.0,2800.0,,https://www.zillow.com/homedetails/8-Matthews-Rd-Swanzey-NH-03446/92836016_zpid/,42.88752,-72.287605,,502400.0,,"https://maps.googleapis.com/maps/api/staticmap?mobile=false&sensor=true&maptype=satellite&size=575x242&zoom=17&center=42.88751983642578,-72.28760528564453&key=AIzaSyBWYJWCA8FNMQvSe_k3LKfDGJaEgdKwsco&signature=6JPmzBAJcvL_FuSK1JVXgPOwuWE=",,
"5 Duston Ave APT C, Hampton, NH 03842",3842,Hampton,NH,2445.0,3.0,1.0,900.0,,https://www.zillow.com/homedetails/5-Duston-Ave-APT-C-Hampton-NH-03842/86819805_zpid/,42.900745,-70.816284,,383100.0,,https://photos.zillowstatic.com/fp/32b2f8d1f92acc1fa03c74b7e9756339-p_e.jpg,,
"85 Derryfield Rd #L, Derry, NH 03038",3038,Derry,NH,2634.0,2.0,2.0,1288.0,,https://www.zillow.com/homedetails/85-Derryfield-Rd-L-Derry-NH-03038/92895818_zpid/,42.860115,-71.321625,,333200.0,,https://photos.zillowstatic.com/fp/bbce64a7ab6286cb150023c21408033d-p_e.jpg,,
"155 Farm Ln #B, Portsmouth, NH 03801",3801,Portsmouth,NH,2889.0,2.0,1.0,1000.0,,https://www.zillow.com/homedetails/155-Farm-Ln-B-Portsmouth-NH-03801/396061060_zpid/,43.078243,-70.78542,,526600.0,,https://photos.zillowstatic.com/fp/2ff54c7def2f27dc67b7c0d55cb11db7-p_e.jpg,,
"13 East Rd APT 1, Weare, NH 03281",3281,Weare,NH,1546.0,1.0,1.0,,,https://www.zillow.com/homedetails/13-East-Rd-APT-1-Weare-NH-03281/2101484612_zpid/,43.09521,-71.72899,,,,https://photos.zillowstatic.com/fp/b824f8ef01e8f58e5f3af67d377fcb19-p_e.jpg,,
"20 Wolf Rd #D64, Lebanon, NH 03766",3766,Lebanon,NH,1452.0,2.0,1.0,640.0,,https://www.zillow.com/homedetails/20-Wolf-Rd-D64-Lebanon-NH-03766/399331296_zpid/,43.65992,-72.248184,,,,https://photos.zillowstatic.com/fp/12095337ae9f7e728bc97b48cf47f534-p_e.jpg,,
"557 Pine St #3, Manchester, NH 03104",3104,Manchester,NH,1575.0,1.0,1.0,650.0,,https://www.zillow.com/homedetails/557-Pine-St-3-Manchester-NH-03104/2059953047_zpid/,42.99838,-71.46019,,,,https://photos.zillowstatic.com/fp/dd380cd67a937759098bcab1f47e0cc9-p_e.jpg,,
"69 Birch Glen Dr UNIT 1, Bennington, NH 03442",3442,Bennington,NH,2472.0,3.0,3.0,1656.0,,https://www.zillow.com/homedetails/69-Birch-Glen-Dr-UNIT-1-Bennington-NH-03442/337124577_zpid/,43.018814,-71.8779,,375200.0,,https://photos.zillowstatic.com/fp/04589831086f93228798336ff9c8bb32-p_e.jpg,,
"1 Louisburg Sq APT 3, Nashua, NH 03060",3060,Nashua,NH,2118.0,2.0,1.0,831.0,,https://www.zillow.com/homedetails/1-Louisburg-Sq-APT-3-Nashua-NH-03060/92860629_zpid/,42.71701,-71.44405,,255500.0,,https://photos.zillowstatic.com/fp/569db832ce13768b8f56ff5f02df154a-p_e.jpg,,
"2 New Haven Dr APT 303, Nashua, NH 03063",3063,Nashua,NH,2064.0,2.0,2.0,972.0,,https://www.zillow.com/homedetails/2-New-Haven-Dr-APT-303-Nashua-NH-03063/2141150014_zpid/,42.800983,-71.52896,,,,https://photos.zillowstatic.com/fp/26387e4cc5e6fe5b2efa6e653b99bc42-p_e.jpg,,
"498 Hanover St #3, Manchester, NH 03104",3104,Manchester,NH,1997.0,2.0,1.0,1400.0,,https://www.zillow.com/homedetails/498-Hanover-St-3-Manchester-NH-03104/2116986765_zpid/,42.99104,-71.44429,,,,https://photos.zillowstatic.com/fp/4e1c65c05539d816b3569fb21f2011c9-p_e.jpg,,
"36 Atkinson St #B, Dover, NH 03820",3820,Dover,NH,2393.0,2.0,1.0,,,https://www.zillow.com/homedetails/36-Atkinson-St-B-Dover-NH-03820/2053383952_zpid/,43.192802,-70.87772,,,,https://photos.zillowstatic.com/fp/f1c88ae39b90364bcd8ca1724c1c9a3b-p_e.jpg,,
"99 Derryfield Ct, Manchester, NH 03104",3104,Manchester,NH,2311.0,2.0,2.0,1214.0,,https://www.zillow.com/homedetails/99-Derryfield-Ct-Manchester-NH-03104/74319555_zpid/,43.00596,-71.43521,,338300.0,,https://photos.zillowstatic.com/fp/57fc2030221b6d47fed2b5a27cc1fe21-p_e.jpg,,
"4B Page Ln, Hampton, NH 03842",3842,Hampton,NH,2018.0,2.0,1.0,540.0,,https://www.zillow.com/homedetails/4B-Page-Ln-Hampton-NH-03842/2097596639_zpid/,42.913174,-70.8145,,312700.0,,https://photos.zillowstatic.com/fp/24ba573e0bf3a2a84f4f9d95680d2323-p_e.jpg,,
"117 Green St APT 1, Somersworth, NH 03878",3878,Somersworth,NH,1519.0,1.0,1.0,600.0,,https://www.zillow.com/homedetails/117-Green-St-APT-1-Somersworth-NH-03878/2103009887_zpid/,43.255226,-70.86377,,,,https://photos.zillowstatic.com/fp/c862959b4b1293df37eb03ee50f761ee-p_e.jpg,,
"(undisclosed Address), Jaffrey, NH 03452",3452,Jaffrey,NH,1174.0,1.0,1.0,,,https://www.zillow.com/homedetails/Jaffrey-NH-03452/2054935610_zpid/,,,,,,https://photos.zillowstatic.com/fp/134244acf21b0f5322eebe29ceef6142-p_e.jpg,,
"89 Henry Law Ave, Dover, NH 03820",3820,Dover,NH,2260.0,2.0,1.0,1300.0,,https://www.zillow.com/homedetails/89-Henry-Law-Ave-Dover-NH-03820/2057184469_zpid/,43.19263,-70.870155,,387000.0,,https://photos.zillowstatic.com/fp/30b2db85154cf3e1c808269bfd222a54-p_e.jpg,,
"(undisclosed Address), Pembroke, NH 03275",3275,Pembroke,NH,1815.0,2.0,1.0,800.0,,https://www.zillow.com/homedetails/Pembroke-NH-03275/92877240_zpid/,,,,446100.0,,https://photos.zillowstatic.com/fp/c7da87277ff430742a32cdb71f9e3278-p_e.jpg,,
"7A Spaulding Hill Rd #A, Pelham, NH 03076",3076,Pelham,NH,3159.0,3.0,3.0,1700.0,,https://www.zillow.com/homedetails/7A-Spaulding-Hill-Rd-A-Pelham-NH-03076/2054412307_zpid/,42.70563,-71.37831,,483500.0,,https://photos.zillowstatic.com/fp/8ebb6d8c135c17305567b7ef67a87ed6-p_e.jpg,,
"60 S State St #3, Concord, NH 03301",3301,Concord,NH,1533.0,1.0,1.0,600.0,,https://www.zillow.com/homedetails/60-S-State-St-3-Concord-NH-03301/2055432244_zpid/,43.199013,-71.53478,,,,https://photos.zillowstatic.com/fp/82b9de73fa5bbf2051e87edc4d82ca34-p_e.jpg,,
"84 Stard Rd, Seabrook, NH 03874",3874,Seabrook,NH,2608.0,2.0,1.0,1300.0,,https://www.zillow.com/homedetails/84-Stard-Rd-Seabrook-NH-03874/95364087_zpid/,42.901882,-70.88159,,688500.0,,https://photos.zillowstatic.com/fp/68aa561a0902793759a0640cd1279679-p_e.jpg,,
"117 1/2 High St #117-1/2, Somersworth, NH 03878",3878,Somersworth,NH,2148.0,2.0,1.0,1000.0,,https://www.zillow.com/homedetails/117-1-2-High-St-117-1-2-Somersworth-NH-03878/2058346123_zpid/,43.262215,-70.86499,,,,https://photos.zillowstatic.com/fp/7c642811b3bebe05cb3b4e7d061fe4bc-p_e.jpg,,
"14 Sanderson Rd, Greenland, NH 03840",3840,Greenland,NH,3122.0,2.0,2.0,1176.0,,https://www.zillow.com/homedetails/14-Sanderson-Rd-Greenland-NH-03840/92900649_zpid/,43.047108,-70.82312,,666100.0,,https://photos.zillowstatic.com/fp/3d5e420827fc3bdc79958c2ceba5ff42-p_e.jpg,,
"41 Pine St, Newbury, NH 03255",3255,Newbury,NH,2391.0,3.0,2.0,1144.0,,https://www.zillow.com/homedetails/41-Pine-St-Newbury-NH-03255/92877235_zpid/,43.37333,-72.04093,,444800.0,,https://photos.zillowstatic.com/fp/35bae33ae922545da1fa117584dfb79d-p_e.jpg,,
"120 Locarno St UNIT 1, Moultonborough, NH 03254",3254,Moultonborough,NH,2575.0,3.0,2.0,2200.0,,https://www.zillow.com/homedetails/120-Locarno-St-UNIT-1-Moultonborough-NH-03254/349407210_zpid/,43.729427,-71.361,,,,https://photos.zillowstatic.com/fp/6d9efb712d116c4acfd3a140cbe22c5f-p_e.jpg,,
"33 Andrew St APT 16, Manchester, NH 03104",3104,Manchester,NH,1753.0,1.0,1.0,606.0,,https://www.zillow.com/homedetails/33-Andrew-St-APT-16-Manchester-NH-03104/95349241_zpid/,43.007,-71.4691,,228600.0,,https://photos.zillowstatic.com/fp/07680334b9832f238e32c9b9ddb679b0-p_e.jpg,,
"61 Westwood Dr, Wolfeboro, NH 03894",3894,Wolfeboro,NH,4159.0,3.0,3.0,2136.0,,https://www.zillow.com/homedetails/61-Westwood-Dr-Wolfeboro-NH-03894/92818742_zpid/,43.61848,-71.149956,,517200.0,,https://photos.zillowstatic.com/fp/0965a46caf2b97bca509da5d8229bd4e-p_e.jpg,,
"34 Pelham St, Nashua, NH 03063",3063,Nashua,NH,2853.0,3.0,1.0,1272.0,,https://www.zillow.com/homedetails/34-Pelham-St-Nashua-NH-03063/74293072_zpid/,42.74761,-71.52217,,469900.0,,https://photos.zillowstatic.com/fp/735f2ccd53b673526dcca2788486c41c-p_e.jpg,,
"16 Wayland Ave #18, Manchester, NH 03109",3109,Manchester,NH,2794.0,3.0,2.0,1300.0,,https://www.zillow.com/homedetails/16-Wayland-Ave-18-Manchester-NH-03109/383913291_zpid/,42.980583,-71.431335,,389400.0,,https://photos.zillowstatic.com/fp/2d78953ba4404d9dd68b70bd882eceb0-p_e.jpg,,
"7D Duston Ave, Hampton, NH 03842",3842,Hampton,NH,3061.0,3.0,1.0,900.0,,https://www.zillow.com/homedetails/7D-Duston-Ave-Hampton-NH-03842/2061817700_zpid/,42.901,-70.816536,,,,https://photos.zillowstatic.com/fp/14fa9df1162c433f37aad151911b7f02-p_e.jpg,,
"50 Barrington Ave UNIT 503, Nashua, NH 03062",3062,Nashua,NH,2981.0,2.0,2.0,1692.0,,https://www.zillow.com/homedetails/50-Barrington-Ave-UNIT-503-Nashua-NH-03062/123066131_zpid/,42.711384,-71.48534,,405000.0,,https://photos.zillowstatic.com/fp/34a68944154ad38d369916cdc0151117-p_e.jpg,,
"106 Eastern Ave APT 102, Manchester, NH 03104",3104,Manchester,NH,1969.0,2.0,1.0,834.0,,https://www.zillow.com/homedetails/106-Eastern-Ave-APT-102-Manchester-NH-03104/119148443_zpid/,42.999695,-71.41948,,251200.0,,https://photos.zillowstatic.com/fp/836ba85611614a9725562990a92fc6e0-p_e.jpg,,
"(undisclosed Address), Sugar Hill, NH 03586",3586,Sugar Hill,NH,1480.0,1.0,1.0,800.0,,https://www.zillow.com/homedetails/Sugar-Hill-NH-03586/124532302_zpid/,,,,,,https://photos.zillowstatic.com/fp/3ae894e5868756fe00109bc8a41c66d1-p_e.jpg,,
"234 Lita Ln #234, Newmarket, NH 03857",3857,Newmarket,NH,1527.0,1.0,1.0,672.0,,https://www.zillow.com/homedetails/234-Lita-Ln-234-Newmarket-NH-03857/2060367936_zpid/,43.06037,-70.940414,,,,https://photos.zillowstatic.com/fp/c51086a090670eba0d03833e039a1700-p_e.jpg,,
"78 Tideview Dr, Dover, NH 03820",3820,Dover,NH,2699.0,2.0,2.0,1250.0,,https://www.zillow.com/homedetails/78-Tideview-Dr-Dover-NH-03820/99293218_zpid/,43.167927,-70.86576,,357400.0,,https://photos.zillowstatic.com/fp/c3bd26e2054562bc18109c288f164000-p_e.jpg,,
"725 Marlboro Rd, Keene, NH 03431",3431,Keene,NH,2665.0,3.0,2.0,1344.0,,https://www.zillow.com/homedetails/725-Marlboro-Rd-Keene-NH-03431/242977433_zpid/,42.913464,-72.24085,,299000.0,,https://photos.zillowstatic.com/fp/393d9725451ef74dc81509be597bcb79-p_e.jpg,,
"14 Strawberry Bank Rd APT 8, Nashua, NH 03062",3062,Nashua,NH,1810.0,1.0,1.0,649.0,,https://www.zillow.com/homedetails/14-Strawberry-Bank-Rd-APT-8-Nashua-NH-03062/95344472_zpid/,42.70093,-71.454834,,222500.0,,https://photos.zillowstatic.com/fp/51391e547905396d44a6f22575e762c0-p_e.jpg,,
"15 Pleasant St APT 2, Newport, NH 03773",3773,Newport,NH,1547.0,2.0,1.0,1000.0,,https://www.zillow.com/homedetails/15-Pleasant-St-APT-2-Newport-NH-03773/2080338387_zpid/,43.369144,-72.17808,,,,https://photos.zillowstatic.com/fp/d9b1ed85089750fba3474d88e4b4aef6-p_e.jpg,,
"680 Union St #1A, Manchester, NH 03104",3104,Manchester,NH,1965.0,2.0,2.0,870.0,,https://www.zillow.com/homedetails/680-Union-St-1A-Manchester-NH-03104/2056810584_zpid/,42.99827,-71.45856,,,,https://photos.zillowstatic.com/fp/ed07992f3273d06cc5c5b171a25fc351-p_e.jpg,,
"44 NE Village Rd, Concord, NH 03301",3301,Concord,NH,2261.0,2.0,1.0,,,https://www.zillow.com/homedetails/44-NE-Village-Rd-Concord-NH-03301/92867929_zpid/,43.224194,-71.49583,,273800.0,,https://photos.zillowstatic.com/fp/756cb3b6e820e96ba4f3ec8df57d2f20-p_e.jpg,,
"519 Lancaster Rd, Northumberland, NH 03582",3582,Northumberland,NH,1758.0,3.0,1.0,1296.0,,https://www.zillow.com/homedetails/519-Lancaster-Rd-Northumberland-NH-03582/86748281_zpid/,44.57195,-71.54525,,239400.0,,https://photos.zillowstatic.com/fp/d8bfd034cbbd9ec3bd64fb28fb3ffef1-p_e.jpg,,
"74 Island Path, Hampton, NH 03842",3842,Hampton,NH,3549.0,3.0,4.0,1558.0,,https://www.zillow.com/homedetails/74-Island-Path-Hampton-NH-03842/339494122_zpid/,42.91348,-70.81499,,878200.0,,https://photos.zillowstatic.com/fp/219d771af5918418c33c36a35c12d89d-p_e.jpg,,
"13 Indian Point Rd, Croydon, NH 03773",3773,Croydon,NH,1938.0,2.0,1.0,1200.0,,https://www.zillow.com/homedetails/13-Indian-Point-Rd-Croydon-NH-03773/113453238_zpid/,43.450626,-72.14367,,356000.0,,https://photos.zillowstatic.com/fp/81461c09a14609040e5c396511483031-p_e.jpg,,
"(undisclosed Address), Rindge, NH 03461",3461,Rindge,NH,1760.0,1.0,1.0,1000.0,,https://www.zillow.com/homedetails/Rindge-NH-03461/2053005540_zpid/,,,,220600.0,,https://photos.zillowstatic.com/fp/bf6d71f4ffc6086b6126fd966185b658-p_e.jpg,,
"(undisclosed Address), Wolfeboro, NH 03894",3894,Wolfeboro,NH,3492.0,3.0,2.0,2400.0,,https://www.zillow.com/homedetails/Wolfeboro-NH-03894/92820569_zpid/,,,,422700.0,,https://photos.zillowstatic.com/fp/6b7534e294ba66eaeca777703986107f-p_e.jpg,,
"75 Fernwood Point Rd, Sunapee, NH 03782",3782,Sunapee,NH,3072.0,2.0,2.0,1850.0,,https://www.zillow.com/homedetails/75-Fernwood-Point-Rd-Sunapee-NH-03782/218049317_zpid/,43.406933,-72.06085,,757200.0,,https://photos.zillowstatic.com/fp/795fa46ca384563ed0c1f72e315f4543-p_e.jpg,,
"(undisclosed Address), Barrington, NH 03825",3825,Barrington,NH,3833.0,3.0,3.0,2188.0,,https://www.zillow.com/homedetails/Barrington-NH-03825/204154943_zpid/,,,,641500.0,,https://photos.zillowstatic.com/fp/3da5d02ebe23b8f90729762d90fac3e1-p_e.jpg,,
"29 Georgetown Dr, Nashua, NH 03062",3062,Nashua,NH,3247.0,2.0,3.0,2188.0,,https://www.zillow.com/homedetails/29-Georgetown-Dr-Nashua-NH-03062/74296864_zpid/,42.706604,-71.477104,,525000.0,,https://photos.zillowstatic.com/fp/563ce4f9014ec53a44f1926da0ec2015-p_e.jpg,,
"31 Perkins Rd, Rye, NH 03870",3870,Rye,NH,4815.0,3.0,2.0,1272.0,,https://www.zillow.com/homedetails/31-Perkins-Rd-Rye-NH-03870/86831612_zpid/,42.987747,-70.76526,,1422500.0,,https://photos.zillowstatic.com/fp/ba52110ded82c19ce4c44f54d2c72e5f-p_e.jpg,,
"32 Wild Rose Ln, New Castle, NH 03854",3854,New Castle,NH,6699.0,4.0,4.0,3045.0,,https://www.zillow.com/homedetails/32-Wild-Rose-Ln-New-Castle-NH-03854/92898700_zpid/,43.061737,-70.71642,,6032100.0,,https://photos.zillowstatic.com/fp/a144b6dc7d7923b3e56e25cf998c1d58-p_e.jpg,,
"370 Wallis Rd, Rye, NH 03870",3870,Rye,NH,3057.0,2.0,1.0,1036.0,,https://www.zillow.com/homedetails/370-Wallis-Rd-Rye-NH-03870/86804185_zpid/,43.024307,-70.755806,,832600.0,,https://photos.zillowstatic.com/fp/a1f8ca0e32550d392f4d46a17a6d8462-p_e.jpg,,
"106 Bismark St #1, Manchester, NH 03102",3102,Manchester,NH,2198.0,2.0,1.0,1036.0,,https://www.zillow.com/homedetails/106-Bismark-St-1-Manchester-NH-03102/2084562227_zpid/,42.978516,-71.488174,,,,https://photos.zillowstatic.com/fp/0c621793ede8ea12719cf15f50e19da6-p_e.jpg,,
"4 Keefe Ave, Hampton, NH 03842",3842,Hampton,NH,2033.0,2.0,1.0,420.0,,https://www.zillow.com/homedetails/4-Keefe-Ave-Hampton-NH-03842/86820189_zpid/,42.9072,-70.81383,,311500.0,,https://photos.zillowstatic.com/fp/81013df613c4c57205e99b5e2c8d0463-p_e.jpg,,
