zpid,Status Type,Status Text,Time On Zillow,rent,Area,Price Per Sqft,Zestimate,Zestimate Price Per Sqft,Rent Zestimate,Lot Area,Lot Area Unit,Beds,Bathrooms,Address,Street,city,State,Zipcode,latitude,longitude,Broker Name,is zillow owned,Sold Date,Sold Price,fips_code,geo_id
453085573,FOR_RENT,Apartment for rent,,3715.0,1388.0,3.0,,,,,,2.0,2.0,"The Village At West Long Branch, 10 Avalon Ct #6301, West Long Branch, NJ 07764",10 Avalon Ct #6301,West Long Branch,NJ,7764,40.292233,-74.02617,,False,,,,
455516207,FOR_RENT,Apartment for rent,,3260.0,798.0,4.0,,,,,,1.0,1.0,"The Vault at 900 Main, 900 Main St UNIT 311, Belmar, NJ 07719",900 Main St UNIT 311,Belmar,NJ,7719,40.180153,-74.02489,,False,,,,
449385119,FOR_RENT,Apartment for rent,,3300.0,1277.0,3.0,,,,,,2.0,2.0,"Beacon Hill, 100 Buckingham St, Morganville, NJ 07751",100 Buckingham St #5085532,Morganville,NJ,7751,40.387684,-74.2282,,False,,,,
446284673,FOR_RENT,Apartment for rent,,2280.0,782.0,3.0,,,,,,1.0,1.0,"Gables Apartments, 113 Walnut St APT 22, Neptune, NJ 07753",113 Walnut St APT 22,Neptune,NJ,7753,40.208744,-74.04976,,False,,,,
2057197636,FOR_RENT,Apartment for rent,,3050.0,1321.0,2.0,,,2915.0,,,2.0,2.0,"The Hillmont, 1 Schindler Ct, Hillsborough, NJ 08844",1 Schindler Ct,Hillsborough,NJ,8844,40.47709,-74.65456,,False,,,,
2066743998,FOR_RENT,Apartment for rent,,1819.0,,,,,1470.0,,,1.0,1.0,"Rita Gardens, 812 Murray St, Elizabeth, NJ 07202",812 Murray St #0FCE08116,Elizabeth,NJ,7202,40.65711,-74.234634,,False,,,,
2076906070,FOR_RENT,Apartment for rent,,2679.0,965.0,3.0,,,2429.0,,,1.0,1.0,"Summit Hill, 100 Stone Hill Rd APT J06, Springfield, NJ 07081",100 Stone Hill Rd APT J06,Springfield,NJ,7081,40.711742,-74.332756,,False,,,,
439206015,FOR_RENT,Apartment for rent,,2695.0,1088.0,2.0,,,,,,1.0,1.0,"24 Springfield Ave Apartments, 24 Springfield Ave #24, Cranford, NJ 07016",24 Springfield Ave #24,Cranford,NJ,7016,40.659103,-74.30384,,False,,,,
454785391,FOR_RENT,Apartment for rent,,2189.0,785.0,3.0,,,,,,1.0,1.0,"Parktowne Apartments, 11 Raritan Ave #A6E, Highland Park, NJ 08904",11 Raritan Ave #A6E,Highland Park,NJ,8904,40.497963,-74.435585,,False,,,,
450899719,FOR_RENT,Apartment for rent,,4700.0,,,,,,,,1.0,2.0,"Clarus Maplewood, 160 Maplewood Ave UNIT 21, Maplewood, NJ 07040",160 Maplewood Ave UNIT 21,Maplewood,NJ,7040,40.73088,-74.27692,,False,,,,
455308220,FOR_RENT,Apartment for rent,,3325.0,636.0,5.0,,,,,,1.0,1.0,"295J, 295 Johnston Ave #295J-505, Jersey City, NJ 07304",295 Johnston Ave #295J-505,Jersey City,NJ,7304,40.71192,-74.05709,,False,,,,
2070611719,FOR_RENT,Apartment for rent,,2320.0,761.0,3.0,,,2188.0,,,1.0,1.0,"Imperial Apartments, 390 Prospect Ave APT 6C, Hackensack, NJ 07601",390 Prospect Ave APT 6C,Hackensack,NJ,7601,40.8957,-74.051445,,False,,,,
452755727,FOR_RENT,Apartment for rent,,2450.0,775.0,3.0,,,,,,1.0,1.0,"The Courtyard at Clifton, 1 Kowal St, Clifton, NJ 07013",1 Kowal St #BF518D9A6,Clifton,NJ,7013,40.863503,-74.16207,,False,,,,
450900896,FOR_RENT,Apartment for rent,,2095.0,700.0,3.0,,,,,,1.0,1.0,"Whitehouse Apartments, 186 Franklin St APT 1F, Bloomfield, NJ 07003",186 Franklin St APT 1F,Bloomfield,NJ,7003,40.787327,-74.19028,,False,,,,
2054949735,FOR_RENT,Apartment for rent,,2095.0,750.0,3.0,,,2068.0,,,1.0,1.0,"Meadowbrook Gardens, 3579 Us Highway 46, Parsippany, NJ 07054",3579 Us Highway 46 #CAC6243CF,Parsippany,NJ,7054,40.87484,-74.44013,,False,,,,
2067289768,FOR_RENT,Apartment for rent,,2749.0,669.0,4.0,,,2437.0,,,1.0,1.0,"Premiere Residences, 7 Livingston Ave #1010, New Brunswick, NJ 08901",7 Livingston Ave #1010,New Brunswick,NJ,8901,40.493492,-74.44424,,False,,,,
344565737,FOR_RENT,Apartment for rent,,2685.0,847.0,3.0,,,2668.0,,,1.0,1.0,"The Exchange on Franklin, 20 Franklin Ln #424, Englishtown, NJ 07726",20 Franklin Ln #424,Englishtown,NJ,7726,40.310253,-74.30235,,False,,,,
448978112,FOR_RENT,Apartment for rent,,2240.0,767.0,3.0,,,,,,1.0,1.0,"1000 North Ave, 1000 North Ave, Plainfield, NJ 07062",1000 North Ave #01D10CE03,Plainfield,NJ,7062,40.62917,-74.40488,,False,,,,
2083733525,FOR_RENT,Apartment for rent,,1950.0,517.0,4.0,,,1852.0,,,1.0,1.0,"114-120 Montgomery Street Apartments, 114 Montgomery St APT E4, Bloomfield, NJ 07003",114 Montgomery St APT E4,Bloomfield,NJ,7003,40.792404,-74.18487,,False,,,,
2057412028,FOR_RENT,Apartment for rent,,3828.0,1134.0,3.0,,,3489.0,,,2.0,2.0,"Hillside Club, 1000 Murray Ct #5203, Livingston, NJ 07039",1000 Murray Ct #5203,Livingston,NJ,7039,40.785564,-74.329216,,False,,,,
341152741,FOR_RENT,Apartment for rent,,2785.0,1560.0,2.0,,,2933.0,,,2.0,2.0,"Lloyd Manor, 376 W End Ave, Long Branch, NJ 07740",376 W End Ave #A8567039A,Long Branch,NJ,7740,40.28985,-73.99761,,False,,,,
449349084,FOR_RENT,Apartment for rent,,1995.0,800.0,2.0,,,,,,1.0,1.0,"Rustic Ridge Apartments, 289 Mount Hope Ave, Dover, NJ 07801",289 Mount Hope Ave #8681DAE79,Dover,NJ,7801,40.90009,-74.55005,,False,,,,
448034386,FOR_RENT,Apartment for rent,,1949.0,,,,,,,,1.0,1.0,"Jackson 55+ Apartments, 100 Jackson Ave, Carteret, NJ 07008",100 Jackson Ave #FB218CA7A,Carteret,NJ,7008,40.58499,-74.238396,,False,,,,
448959249,FOR_RENT,Apartment for rent,,1860.0,,,,,,,,1.0,1.0,"Barclay Village, 3461 S Broad St, Trenton, NJ 08610",3461 S Broad St #4773138DB,Trenton,NJ,8610,40.18645,-74.69779,,False,,,,
2079854025,FOR_RENT,Apartment for rent,,2795.0,790.0,4.0,,,2683.0,,,2.0,1.0,"Baltusrol Apartments, 541 Morris Ave #561A, Springfield, NJ 07081",541 Morris Ave #561A,Springfield,NJ,7081,40.715904,-74.32402,,False,,,,
449366947,FOR_RENT,Apartment for rent,,1850.0,760.0,2.0,,,,,,2.0,1.0,"Laurelton Village Apartments, 601 N Black Horse Pike, Williamstown, NJ 08094",601 N Black Horse Pike #5B09F75EF,Williamstown,NJ,8094,39.693966,-74.9991,,False,,,,
454624482,FOR_RENT,Apartment for rent,,3410.0,,,,,,,,2.0,1.0,"Northfield Townhouses, 1480 Pleasant Valley Way #60, West Orange, NJ 07052",1480 Pleasant Valley Way #60,West Orange,NJ,7052,40.772133,-74.28428,,False,,,,
455242725,FOR_RENT,Apartment for rent,,3125.0,1100.0,3.0,,,,,,2.0,2.0,"Columbia Court, 50 Maple Ave #3125, Springfield, NJ 07081",50 Maple Ave #3125,Springfield,NJ,7081,40.71085,-74.30552,,False,,,,
454945449,FOR_RENT,Apartment for rent,,1970.0,920.0,2.0,,,,,,2.0,1.0,"Haddon Knolls Apartments, LLC, 405 White Horse Pike, Haddon Heights, NJ 08035",405 White Horse Pike #2355999,Haddon Heights,NJ,8035,39.880432,-75.05342,,False,,,,
454826831,FOR_RENT,Apartment for rent,,2124.0,703.0,3.0,,,,,,1.0,1.0,"Hamilton Apartments, 788 Hamilton St #768-3A, Rahway, NJ 07065",788 Hamilton St #768-3A,Rahway,NJ,7065,40.614307,-74.28655,,False,,,,
453581441,FOR_RENT,Apartment for rent,,2395.0,650.0,4.0,,,,,,1.0,1.0,"The Parkview at Polifly: In-Unit Washer & Dryer, Heat and Water Included, and Cat & Dog Friendly, 70 Polifly Rd, Hackensack, NJ 07601",70 Polifly Rd #341C651B6,Hackensack,NJ,7601,40.878822,-74.0553,,False,,,,
448709552,FOR_RENT,Apartment for rent,,2400.0,900.0,3.0,,,,,,1.0,1.0,"Hampshire Terrace, 108 Riverview Ave, Neptune, NJ 07753",108 Riverview Ave #B6EDC3BBB,Neptune,NJ,7753,40.197636,-74.03164,,False,,,,
442006017,FOR_RENT,Apartment for rent,,2400.0,720.0,3.0,,,,,,1.0,1.0,"Matawan Town Center, 126 Main St, Matawan, NJ 07747",126 Main St #1B-1BA-750SQFT,Matawan,NJ,7747,40.414978,-74.229546,,False,,,,
449361356,FOR_RENT,Apartment for rent,,1175.0,625.0,2.0,,,,,,2.0,1.0,"Washington Park Apartments, 219 S 29th St, Camden, NJ 08105",219 S 29th St #A7598F7FE,Camden,NJ,8105,39.943565,-75.08266,,False,,,,
2061837992,FOR_RENT,Apartment for rent,,9160.0,1349.0,7.0,,,6677.0,,,2.0,3.0,"Haus25, 25 Christopher Columbus Dr #H25-5501, Jersey City, NJ 07302",25 Christopher Columbus Dr #H25-5501,Jersey City,NJ,7302,40.7176,-74.03839,,False,,,,
2060499907,FOR_RENT,Apartment for rent,,2050.0,800.0,3.0,,,2206.0,,,1.0,1.0,"Brighton Arms, 401 W Sylvania Ave, Neptune, NJ 07753",401 W Sylvania Ave #2713231,Neptune,NJ,7753,40.204445,-74.04957,,False,,,,
450461238,FOR_RENT,Apartment for rent,,1325.0,700.0,2.0,,,,,,1.0,1.0,"Waterside Village, 542 S Broadway, Pennsville, NJ 08070",542 S Broadway #CF852EAFA,Pennsville,NJ,8070,39.62593,-75.50645,,False,,,,
455658377,FOR_RENT,Apartment for rent,,2400.0,763.0,3.0,,,,,,1.0,1.0,"Camelot at Edison, 88 Jackson Ave #5-511, Edison, NJ 08837",88 Jackson Ave #5-511,Edison,NJ,8837,40.53049,-74.34012,,False,,,,
455658833,FOR_RENT,Apartment for rent,,3231.0,1540.0,2.0,,,,,,2.0,2.0,"Camelot at Toms River, 100 Kaplan Ct #7-104, Toms River, NJ 08753",100 Kaplan Ct #7-104,Toms River,NJ,8753,39.973465,-74.18027,,False,,,,
2088967204,FOR_RENT,Apartment for rent,,4035.0,820.0,5.0,,,3897.0,,,1.0,1.0,"The North Independence, 1 Independence Ct APT 216, Hoboken, NJ 07030",1 Independence Ct APT 216,Hoboken,NJ,7030,40.751537,-74.024315,,False,,,,
453625133,FOR_RENT,Apartment for rent,,1400.0,601.0,2.0,,,,,,1.0,1.0,"The Reserve At Barrington, 2101 Reamer Dr, Barrington, NJ 08007",2101 Reamer Dr #9EB41EBD0,Barrington,NJ,8007,39.860973,-75.06162,,False,,,,
452966434,FOR_RENT,Apartment for rent,,2800.0,846.0,3.0,,,,,,1.0,1.0,"Bella at Bergenfield, 15 W Johnson Ave APT 408, Bergenfield, NJ 07621",15 W Johnson Ave APT 408,Bergenfield,NJ,7621,40.931458,-73.997314,,False,,,,
450353776,FOR_RENT,Apartment for rent,,1925.0,1035.0,2.0,,,,,,1.0,1.0,"Carriage Run Apartments & Townhouses, 1100 Village Dr #1A, Somerset, NJ 08873",1100 Village Dr #1A,Somerset,NJ,8873,40.443398,-74.52889,,False,,,,
455728359,FOR_RENT,Apartment for rent,,1850.0,858.0,2.0,,,,,,1.0,1.0,"Austin Realty Apartment Homes, 25 Washington Ave #3L, Plainfield, NJ 07060",25 Washington Ave #3L,Plainfield,NJ,7060,40.616894,-74.43047,,False,,,,
2078361246,FOR_RENT,Apartment for rent,,2080.0,594.0,4.0,,,2130.0,,,1.0,1.0,"40 Roseland Avenue Apartments, 40 Roseland Ave APT C06, Caldwell, NJ 07006",40 Roseland Ave APT C06,Caldwell,NJ,7006,40.83764,-74.27583,,False,,,,
2057022886,FOR_RENT,Apartment for rent,,2750.0,,,,,2506.0,,,1.0,1.0,"The View, 2 Main St, Edgewater, NJ 07020",2 Main St #9FA53C394,Edgewater,NJ,7020,40.803513,-73.991035,,False,,,,
449360299,FOR_RENT,Apartment for rent,,1535.0,780.0,2.0,,,,,,1.0,1.0,"Jefferson Village, 401 N Main St, Williamstown, NJ 08094",401 N Main St #991453,Williamstown,NJ,8094,39.689175,-75.003075,,False,,,,
446718451,FOR_RENT,Apartment for rent,,5075.0,1069.0,5.0,,,,,,2.0,2.0,"The Constantine, 251 14th St #303, Hoboken, NJ 07030",251 14th St #303,Hoboken,NJ,7030,40.75349,-74.02905,,False,,,,
2066755821,FOR_RENT,Apartment for rent,,2850.0,1360.0,2.0,,,2867.0,,,2.0,3.0,"Bayside Cove, 100 Celecki Dr, South Amboy, NJ 08879",100 Celecki Dr #35BDBCF32,South Amboy,NJ,8879,40.478043,-74.2766,,False,,,,
456018070,FOR_RENT,Apartment for rent,,2305.0,,,,,,,,2.0,1.0,"The Townhouse, 107 Vose Ave APT 3, South Orange, NJ 07079",107 Vose Ave APT 3,South Orange,NJ,7079,40.74811,-74.25805,,False,,,,
448958981,FOR_RENT,Apartment for rent,,2100.0,750.0,3.0,,,,,,1.0,1.0,"Bradford Arms, 146 Tierney Dr, Cedar Grove, NJ 07009",146 Tierney Dr #37131EFD6,Cedar Grove,NJ,7009,40.84351,-74.221405,,False,,,,
443347250,FOR_RENT,Apartment for rent,,1650.0,,,,,,,,2.0,2.0,"Laurel Hill, 800 Chews Landing Rd, Clementon, NJ 08021",800 Chews Landing Rd #2B-2BA,Clementon,NJ,8021,39.813248,-75.02406,,False,,,,
441823500,FOR_RENT,Apartment for rent,,1500.0,535.0,3.0,,,,,,1.0,1.0,"Glasstown Village Apartments, 1601 N 2nd St, Millville, NJ 08332",1601 N 2nd St #1B-1BA-535SQFT,Millville,NJ,8332,39.41486,-75.03832,,False,,,,
2085122650,FOR_RENT,Apartment for rent,,2030.0,711.0,3.0,,,1889.0,,,1.0,1.0,"Newtonian Garden Apartments, 70 W End Ave #3B2, Newton, NJ 07860",70 W End Ave #3B2,Newton,NJ,7860,41.052406,-74.762405,,False,,,,
449358602,FOR_RENT,Apartment for rent,,1795.0,725.0,2.0,,,,,,1.0,1.0,"Maple Grand, 645 S Forklanding Rd #MG-17, Maple Shade, NJ 08052",645 S Forklanding Rd #MG-17,Maple Shade,NJ,8052,39.944286,-74.99213,,False,,,,
360352856,FOR_RENT,Apartment for rent,,1949.0,915.0,2.0,,,2241.0,,,1.0,1.0,"Royal Gardens, 85 Tices Ln APT 10, East Brunswick, NJ 08816",85 Tices Ln APT 10,East Brunswick,NJ,8816,40.456738,-74.40749,,False,,,,
2058129625,FOR_RENT,Apartment for rent,,3650.0,1157.0,3.0,,,3154.0,,,2.0,2.0,"The Meadowside, 333 Bergen Blvd APT 227, Fairview, NJ 07022",333 Bergen Blvd APT 227,Fairview,NJ,7022,40.820976,-74.00005,,False,,,,
455963029,FOR_RENT,Apartment for rent,,2835.0,775.0,4.0,,,,,,1.0,1.0,"BELLCLAIRE, LLC, 691 Bloomfield Ave, Montclair, NJ 07042",691 Bloomfield Ave #065833EDF,Montclair,NJ,7042,40.8179,-74.22225,,False,,,,
2106471058,FOR_RENT,Apartment for rent,,1950.0,700.0,3.0,,,1941.0,,,1.0,1.0,"Waterfall Village, 245 Hamburg Tpke, Bloomingdale, NJ 07403",245 Hamburg Tpke,Bloomingdale,NJ,7403,41.00506,-74.35022,,False,,,,
2066754763,FOR_RENT,Apartment for rent,,1950.0,,,,,1998.0,,,2.0,2.0,"Boulder Hills at Wantage, 7 Boulder Hills Blvd, Sussex, NJ 07461",7 Boulder Hills Blvd #FF4C28D9F,Sussex,NJ,7461,41.18411,-74.59095,,False,,,,
449982588,FOR_RENT,Apartment for rent,,1599.0,800.0,2.0,,,,,,2.0,1.0,"The Manor, 401-409 Elizabeth Ave, Paulsboro, NJ 08066",401-409 Elizabeth Ave,Paulsboro,NJ,8066,39.827435,-75.247925,,False,,,,
448959130,FOR_RENT,Apartment for rent,,1759.0,742.0,2.0,,,,,,1.0,1.0,"GardenView Terrace, 23 Garden View Ter, Hightstown, NJ 08520",23 Garden View Ter #E7E5CA100,Hightstown,NJ,8520,40.282845,-74.51885,,False,,,,
2055765100,FOR_RENT,Apartment for rent,,2185.0,851.0,3.0,,,2163.0,,,1.0,1.0,"Morgan's Bluff, 1101 Klimek Pl #3108, South Amboy, NJ 08879",1101 Klimek Pl #3108,South Amboy,NJ,8879,40.477844,-74.29163,,False,,,,
2053013889,FOR_RENT,Apartment for rent,,3150.0,1093.0,3.0,,,3129.0,,,2.0,2.0,"The Vue Hackensack, 295 Polifly Rd APT 200, Hackensack, NJ 07601",295 Polifly Rd APT 200,Hackensack,NJ,7601,40.873085,-74.06242,,False,,,,
448723338,FOR_RENT,Apartment for rent,,1800.0,800.0,2.0,,,,,,1.0,1.0,"Madison Gardens, 47 Madison Ave, Old Bridge, NJ 08857",47 Madison Ave #31FE0BD23,Old Bridge,NJ,8857,40.432884,-74.29997,,False,,,,
454875070,FOR_RENT,Apartment for rent,,2000.0,720.0,3.0,,,,,,1.0,1.0,"The Crossroads on Grove, 25 Freeway Dr E #209, East Orange, NJ 07018",25 Freeway Dr E #209,East Orange,NJ,7018,40.756607,-74.2032,,False,,,,
443625929,FOR_RENT,Apartment for rent,,1900.0,600.0,3.0,,,,,,1.0,1.0,"BLVD 446, 446 Irvine Turner Blvd #4C, Newark, NJ 07108",446 Irvine Turner Blvd #4C,Newark,NJ,7108,40.71855,-74.19503,,False,,,,
2066648333,FOR_RENT,Apartment for rent,,2850.0,714.0,4.0,,,2348.0,,,2.0,1.0,"Molly Pitcher Village Apartments, 183 Branch Ave #203, Red Bank, NJ 07701",183 Branch Ave #203,Red Bank,NJ,7701,40.342735,-74.056984,,False,,,,
450161417,FOR_RENT,Apartment for rent,,1895.0,710.0,3.0,,,,,,1.0,1.0,"Chilton Hall Apartments, 127-147 Chilton St, Elizabeth, NJ 07202",127-147 Chilton St #782DAD605,Elizabeth,NJ,7202,40.665104,-74.22202,,False,,,,
2054741238,FOR_RENT,Apartment for rent,,1939.0,819.0,2.0,,,1838.0,,,1.0,1.0,"Prospect Pointe, 330 S New Prospect Road Deluxe #1, Jackson, NJ 08527",330 S New Prospect Road Deluxe #1,Jackson,NJ,8527,40.123466,-74.25503,,False,,,,
2093524770,FOR_RENT,Apartment for rent,,2095.0,850.0,2.0,,,2003.0,,,2.0,1.0,"The Pioneer, 15 Summit St APT 108, East Orange, NJ 07017",15 Summit St APT 108,East Orange,NJ,7017,40.76594,-74.208954,,False,,,,
455782485,FOR_RENT,Apartment for rent,,3300.0,1430.0,2.0,,,,,,2.0,3.0,"Wedgewood Manor, 41 Madison Ave, Madison, NJ 07940",41 Madison Ave #84C75F483,Madison,NJ,7940,40.76405,-74.421814,,False,,,,
452852101,FOR_RENT,Apartment for rent,,1670.0,562.0,3.0,,,,,,1.0,1.0,"The Bell Apartments, 216 E State St #606, Trenton, NJ 08608",216 E State St #606,Trenton,NJ,8608,40.220783,-74.76105,,False,,,,
2072822586,FOR_RENT,Apartment for rent,,2450.0,613.0,4.0,,,2130.0,,,1.0,1.0,"Archview Flats, 105 North St #611, Bayonne, NJ 07002",105 North St #611,Bayonne,NJ,7002,40.655193,-74.13378,,False,,,,
449650799,FOR_RENT,Apartment for rent,,1454.0,555.0,3.0,,,,,,1.0,1.0,"Park Hill Apartments, 66 Park Ave, Washington, NJ 07882",66 Park Ave #435E5ED25,Washington,NJ,7882,40.756393,-74.97507,,False,,,,
352478243,FOR_RENT,Apartment for rent,,2600.0,810.0,3.0,,,2411.0,,,2.0,1.0,"Les Gertrude Apartments, 335 Broad St, Red Bank, NJ 07701",335 Broad St #A28258AB5,Red Bank,NJ,7701,40.340607,-74.063576,,False,,,,
455306778,FOR_RENT,Apartment for rent,,2645.0,851.0,3.0,,,,,,1.0,1.0,"Williamsburg Apts., 65 Hawthorne Pl #H, Montclair, NJ 07042",65 Hawthorne Pl #H,Montclair,NJ,7042,40.809555,-74.219536,,False,,,,
452300879,FOR_RENT,Apartment for rent,,2400.0,1104.0,2.0,,,,,,2.0,2.0,"Wyncrest at East Windsor, 174 One Mile Rd #A, Cranbury, NJ 08512",174 One Mile Rd #A,Cranbury,NJ,8512,40.287853,-74.54866,,False,,,,
448959508,FOR_RENT,Apartment for rent,,1810.0,,,,,,,,1.0,1.0,"Countryside, 97 Countryside Dr, Hackettstown, NJ 07840",97 Countryside Dr #8DFCECB27,Hackettstown,NJ,7840,40.865696,-74.830185,,False,,,,
2060741587,FOR_RENT,Apartment for rent,,1950.0,821.0,2.0,,,1951.0,,,1.0,1.0,"Mount Laurel Manor Apartments, 123 Creek Rd #B205, Mount Laurel, NJ 08054",123 Creek Rd #B205,Mount Laurel,NJ,8054,39.981762,-74.86117,,False,,,,
352526810,FOR_RENT,Apartment for rent,,2200.0,,,,,2724.0,,,2.0,1.0,"Prospect Hill Apartments, 76 Throckmorton Ave, Red Bank, NJ 07701",76 Throckmorton Ave #A53C38B71,Red Bank,NJ,7701,40.351086,-74.05649,,False,,,,
450571963,FOR_RENT,Apartment for rent,,1300.0,725.0,2.0,,,,,,1.0,1.0,"Hillcrest Oaks, 105 Blackwood Clementon Rd, Clementon, NJ 08021",105 Blackwood Clementon Rd #3CF6E6835,Clementon,NJ,8021,39.805607,-75.0047,,False,,,,
451124561,FOR_RENT,Apartment for rent,,987.0,540.0,2.0,,,,,,1.0,1.0,"Acacia Lumberton Manor - 62+ Community, 423 Landing St, Lumberton, NJ 08048",423 Landing St #7FD8E0C75,Lumberton,NJ,8048,39.960102,-74.80178,,False,,,,
453843856,FOR_RENT,Apartment for rent,,1375.0,750.0,2.0,,,,,,1.0,1.0,"Oakland Gardens, 2 W Oakland Ave, Oaklyn, NJ 08107",2 W Oakland Ave #93882080B,Oaklyn,NJ,8107,39.900352,-75.07759,,False,,,,
452941615,FOR_RENT,Apartment for rent,,3195.0,1600.0,2.0,,,,,,2.0,2.0,"The Carlton, 63 Hill St APT 5M, Morristown, NJ 07960",63 Hill St APT 5M,Morristown,NJ,7960,40.79294,-74.47017,,False,,,,
456054197,FOR_RENT,Apartment for rent,,1965.0,800.0,2.0,,,,,,1.0,1.0,"Glenwood Gardens, 11 Henry St #13, Bloomfield, NJ 07003",11 Henry St #13,Bloomfield,NJ,7003,40.79114,-74.201324,,False,,,,
2089859115,FOR_RENT,Apartment for rent,,1925.0,432.0,4.0,,,1986.0,,,1.0,1.0,"Crestview Gardens Apartments, 669 Joralemon St APT 8A, Belleville, NJ 07109",669 Joralemon St APT 8A,Belleville,NJ,7109,40.803307,-74.17065,,False,,,,
442984228,FOR_RENT,Apartment for rent,,2299.0,,,,,,,,2.0,2.0,"Princeton Orchards Apartments, 356 Ridge Rd #1, Dayton, NJ 08810",356 Ridge Rd #1,Dayton,NJ,8810,40.377518,-74.506485,,False,,,,
452961387,FOR_RENT,Apartment for rent,,2950.0,670.0,4.0,,,,,,1.0,1.0,"New England Village, 105 New England Ave, Summit, NJ 07901",105 New England Ave #79932A663,Summit,NJ,7901,40.717655,-74.369545,,False,,,,
443946409,FOR_RENT,Apartment for rent,,1645.0,,,,,,,,2.0,1.0,"Park Towne Apartments LLC, 51 W Chestnut Ave APT 54B, Vineland, NJ 08360",51 W Chestnut Ave APT 54B,Vineland,NJ,8360,39.478554,-75.03881,,False,,,,
454278974,FOR_RENT,Apartment for rent,,1145.0,850.0,1.0,,,,,,1.0,1.0,"Forest Gate Apartments, 108 Otter Branch Dr, Magnolia, NJ 08049",108 Otter Branch Dr #4F6012C6D,Magnolia,NJ,8049,39.851715,-75.04856,,False,,,,
450357692,FOR_RENT,Apartment for rent,,2029.0,,,,,,,,1.0,1.0,"Fairview Heights, 43 Fairview Ave, Jersey City, NJ 07304",43 Fairview Ave #5538C9707,Jersey City,NJ,7304,40.72233,-74.07049,,False,,,,
455050314,FOR_RENT,Apartment for rent,,1400.0,650.0,2.0,,,,,,1.0,1.0,"Malaga Villa Apartments, 981B Delsea Dr, Franklinville, NJ 08322",981B Delsea Dr #7E3F3EF4C,Franklinville,NJ,8322,39.581875,-75.052376,,False,,,,
444005428,FOR_RENT,Apartment for rent,,2700.0,855.0,3.0,,,,,,1.0,1.0,"2400 Hudson, 2400 Hudson Ter APT 5K, Fort Lee, NJ 07024",2400 Hudson Ter APT 5K,Fort Lee,NJ,7024,40.863026,-73.95796,,False,,,,
2076994254,FOR_RENT,Apartment for rent,,3295.0,1066.0,3.0,,,2807.0,,,2.0,1.0,"145 Summit Avenue Apartments, 145 Summit Ave #1, Summit, NJ 07901",145 Summit Ave #1,Summit,NJ,7901,40.72042,-74.35521,,False,,,,
448254337,FOR_RENT,Apartment for rent,,1550.0,782.0,2.0,,,,,,1.0,1.0,"The Sussex House, 1001 Kings Hwy N APT 601, Cherry Hill, NJ 08034",1001 Kings Hwy N APT 601,Cherry Hill,NJ,8034,39.93021,-75.01703,,False,,,,
447688315,FOR_RENT,Apartment for rent,,1700.0,500.0,3.0,,,,,,1.0,1.0,"210 W Broadway, 210 Broadway, Paterson, NJ 07501",210 Broadway #74A283C15,Paterson,NJ,7501,40.923782,-74.17993,,False,,,,
2082528221,FOR_RENT,Apartment for rent,,2899.0,1002.0,3.0,,,2256.0,,,2.0,1.0,"39 Cornelison Ave, 39 Cornelison Ave #308, Jersey City, NJ 07304",39 Cornelison Ave #308,Jersey City,NJ,7304,40.71769,-74.06639,,False,,,,
2062783761,FOR_RENT,Apartment for rent,,2895.0,942.0,3.0,,,2424.0,,,2.0,1.0,"Carriage House, 45 Euclid Ave APT 2B, Hackensack, NJ 07601",45 Euclid Ave APT 2B,Hackensack,NJ,7601,40.895794,-74.04122,,False,,,,
442384069,FOR_RENT,Apartment for rent,,2500.0,,,,,,,,2.0,2.0,"Main Rd Apartments, 37 Main Rd, Hammonton, NJ 08037",37 Main Rd #2B-2BA,Hammonton,NJ,8037,39.64213,-74.77832,,False,,,,
446858425,FOR_RENT,Apartment for rent,,1795.0,850.0,2.0,,,,,,1.0,1.0,"775 North Broad Street, 775 N Broad St, Elizabeth, NJ 07208",775 N Broad St #05AFDB2E3,Elizabeth,NJ,7208,40.68233,-74.21412,,False,,,,
433598028,FOR_RENT,Apartment for rent,,1549.0,550.0,3.0,,,,,,1.0,1.0,"Carriage House, 100 New Rd, Somers Pt, NJ 08244",100 New Rd #1B-1BA-550SQFT,Somers Pt,NJ,8244,39.33004,-74.591866,,False,,,,
38122383,FOR_RENT,House for rent,,3950.0,2370.0,2.0,643300.0,271.0,3483.0,,,4.0,2.0,"227 E Lake Blvd, Medford, NJ 08055",227 E Lake Blvd,Medford,NJ,8055,39.86541,-74.84813,,False,,,,
37824257,FOR_RENT,House for rent,,10000.0,,,1271800.0,,4915.0,,,5.0,5.0,"9 N Granville Ave, Margate, NJ 08402",9 N Granville Ave,Margate,NJ,8402,39.330265,-74.50052,,False,,,,
37827410,FOR_RENT,House for rent,,2500.0,3200.0,1.0,1221800.0,382.0,3058.0,,,4.0,4.0,"21 Bayside Ct, Margate, NJ 08402",21 Bayside Ct,Margate,NJ,8402,39.338192,-74.51071,,False,,,,
421100337,FOR_RENT,Apartment for rent,,1850.0,,,,,,,,1.0,1.0,"2501 Route 88 #11, Pt Pleasant Beach, NJ 08742",2501 Route 88 #11,Pt Pleasant Beach,NJ,8742,40.08214,-74.07445,,False,,,,
37801637,FOR_RENT,House for rent,,2400.0,880.0,3.0,280100.0,318.0,2466.0,,,3.0,1.0,"423 S Willow Ave, Galloway, NJ 08205",423 S Willow Ave,Galloway,NJ,8205,39.471493,-74.556015,,False,,,,
39686345,FOR_RENT,House for rent,,3200.0,1163.0,3.0,535000.0,460.0,3114.0,,,3.0,2.0,"2408 Spruce St, Point Pleasant Beach, NJ 08742",2408 Spruce St,Point Pleasant Beach,NJ,8742,40.079082,-74.07428,,False,,,,
2057003008,FOR_RENT,House for rent,,3699.0,1609.0,2.0,459100.0,285.0,3133.0,,,3.0,3.0,"406 1st Ave, Toms River, NJ 08757",406 1st Ave,Toms River,NJ,8757,39.94703,-74.22405,,False,,,,
38084407,FOR_RENT,House for rent,,3100.0,1600.0,2.0,377800.0,236.0,3105.0,,,4.0,2.0,"227 Delview Ln, Delanco, NJ 08075",227 Delview Ln,Delanco,NJ,8075,40.05636,-74.942345,,False,,,,
38137194,FOR_RENT,Apartment for rent,,2850.0,1650.0,2.0,400100.0,242.0,2818.0,,,3.0,2.0,"108 Willow Turn, Mount Laurel, NJ 08054",108 Willow Turn,Mount Laurel,NJ,8054,39.968754,-74.87957,,False,,,,
2080247024,FOR_RENT,Apartment for rent,,2100.0,900.0,2.0,,,2026.0,,,2.0,1.0,"18 Cooper Dr #18, Somers Pt, NJ 08244",18 Cooper Dr #18,Somers Pt,NJ,8244,39.328583,-74.60412,,False,,,,
452153669,FOR_RENT,Apartment for rent,,2750.0,1172.0,2.0,,,,,,3.0,1.0,"29 Pennsylvania Ave #1, Waretown, NJ 08758",29 Pennsylvania Ave #1,Waretown,NJ,8758,39.792618,-74.18817,,False,,,,
39591688,FOR_RENT,House for rent,,3200.0,1062.0,3.0,418700.0,394.0,3118.0,,,3.0,2.0,"704 Batchelor St, Toms River, NJ 08753",704 Batchelor St,Toms River,NJ,8753,39.956875,-74.16717,,False,,,,
39517848,FOR_RENT,House for rent,,6500.0,2650.0,2.0,2517800.0,950.0,8215.0,,,5.0,4.0,"649 Main Ave, Bay Head, NJ 08742",649 Main Ave,Bay Head,NJ,8742,40.06471,-74.04493,,False,,,,
150387749,FOR_RENT,Apartment for rent,,3000.0,2240.0,1.0,,,3366.0,,,5.0,3.0,"708 N Ohio Ave, Atlantic City, NJ 08401",708 N Ohio Ave,Atlantic City,NJ,8401,39.367195,-74.43976,,False,,,,
37826068,FOR_RENT,House for rent,,4250.0,,,1147000.0,,2851.0,,,4.0,2.0,"8805 Monmouth Ave, Margate, NJ 08402",8805 Monmouth Ave,Margate,NJ,8402,39.327797,-74.51128,,False,,,,
2078248908,FOR_RENT,Apartment for rent,,1600.0,750.0,2.0,,,1908.0,,,1.0,1.0,"6215 Ventnor Ave, Ventnor City, NJ 08406",6215 Ventnor Ave,Ventnor City,NJ,8406,39.339073,-74.48107,,False,,,,
69512089,FOR_RENT,Apartment for rent,,2200.0,1324.0,2.0,,,2060.0,,,2.0,2.0,"2903 Auburn Ct #B, Mount Laurel, NJ 08054",2903 Auburn Ct #B,Mount Laurel,NJ,8054,39.972736,-74.88368,,False,,,,
123057224,FOR_RENT,House for rent,,2495.0,1027.0,2.0,264200.0,257.0,2538.0,,,3.0,1.0,"306 Harvard Ave, Stratford, NJ 08084",306 Harvard Ave,Stratford,NJ,8084,39.834072,-75.00864,,False,,,,
38084840,FOR_RENT,House for rent,,2000.0,780.0,3.0,224700.0,288.0,1954.0,,,2.0,1.0,"429 3rd St, Delanco, NJ 08075",429 3rd St,Delanco,NJ,8075,40.04866,-74.95902,,False,,,,
38094066,FOR_RENT,Townhouse for rent,,2600.0,1452.0,2.0,352000.0,242.0,2524.0,,,3.0,3.0,"3402 Elberta Ln, Marlton, NJ 08053",3402 Elberta Ln,Marlton,NJ,8053,39.90717,-74.93434,,False,,,,
38368888,FOR_RENT,Apartment for rent,,1950.0,1000.0,2.0,829300.0,829.0,2269.0,,,3.0,1.0,"1139 Bay Ave, Ocean City, NJ 08226",1139 Bay Ave,Ocean City,NJ,8226,39.278095,-74.58306,,False,,,,
39663561,FOR_RENT,House for rent,,3500.0,1927.0,2.0,566400.0,294.0,3606.0,,,3.0,3.0,"612 Gladstone St, Toms River, NJ 08757",612 Gladstone St,Toms River,NJ,8757,40.00258,-74.23921,,False,,,,
39578625,FOR_RENT,House for rent,,6250.0,1592.0,4.0,788700.0,495.0,5023.0,,,4.0,3.0,"41 Pilot Rd, Toms River, NJ 08753",41 Pilot Rd,Toms River,NJ,8753,40.012466,-74.115135,,False,,,,
39663428,FOR_RENT,House for rent,,3300.0,1700.0,2.0,598000.0,352.0,3320.0,,,3.0,2.0,"709 Broadway Blvd, Toms River, NJ 08757",709 Broadway Blvd,Toms River,NJ,8757,39.99583,-74.268074,,False,,,,
2067688997,FOR_RENT,Townhouse for rent,,3000.0,1500.0,2.0,346300.0,231.0,3074.0,,,3.0,3.0,"227 Sherbrooke Ct, Cherry Hill, NJ 08003",227 Sherbrooke Ct,Cherry Hill,NJ,8003,39.87862,-75.002235,,False,,,,
2077073424,FOR_RENT,Townhouse for rent,,15000.0,3108.0,5.0,2235100.0,719.0,2285.0,,,6.0,4.0,"1802 Long Beach Blvd, Beach Haven, NJ 08008",1802 Long Beach Blvd,Beach Haven,NJ,8008,39.575073,-74.232216,,False,,,,
38174540,FOR_RENT,House for rent,,3500.0,1624.0,2.0,336500.0,207.0,3627.0,,,5.0,2.0,"46 Beaverdale Ln, Willingboro, NJ 08046",46 Beaverdale Ln,Willingboro,NJ,8046,40.03899,-74.89058,,False,,,,
39598196,FOR_RENT,House for rent,,4000.0,2682.0,1.0,1802800.0,672.0,5612.0,,,4.0,3.0,"4 7th Ave, Seaside Heights, NJ 08751",4 7th Ave,Seaside Heights,NJ,8751,39.954697,-74.0693,,False,,,,
38270343,FOR_RENT,House for rent,,2450.0,1088.0,2.0,330800.0,304.0,2423.0,,,3.0,1.0,"229 Addison Ave, Haddon Township, NJ 08108",229 Addison Ave,Haddon Township,NJ,8108,39.917152,-75.05649,,False,,,,
38240243,FOR_RENT,Apartment for rent,,1875.0,700.0,3.0,368800.0,527.0,1714.0,,,2.0,1.0,"219 E Knight Ave, Collingswood, NJ 08108",219 E Knight Ave,Collingswood,NJ,8108,39.92092,-75.071075,,False,,,,
2070336808,FOR_RENT,Apartment for rent,,995.0,,,,,1075.0,,,1.0,1.0,"26-28 E Pine St., 26-28 E Pine St, Millville, NJ 08332",26-28 E Pine St,Millville,NJ,8332,39.39745,-75.03888,,False,,,,
38413875,FOR_RENT,Townhouse for rent,,1900.0,2432.0,1.0,223200.0,92.0,1672.0,,,3.0,1.0,"508-510 N 2nd St, Millville, NJ 08332",508-510 N 2nd St,Millville,NJ,8332,39.401752,-75.03808,,False,,,,
39605322,FOR_RENT,House for rent,,3600.0,1592.0,2.0,550300.0,346.0,3658.0,,,4.0,2.0,"828 Ross St, Toms River, NJ 08753",828 Ross St,Toms River,NJ,8753,39.971928,-74.14222,,False,,,,
2056084711,FOR_RENT,Apartment for rent,,2200.0,1200.0,2.0,,,2068.0,,,2.0,1.0,"1145 West Ave #1145, Ocean City, NJ 08226",1145 West Ave #1145,Ocean City,NJ,8226,39.27677,-74.580505,,False,,,,
39543962,FOR_RENT,House for rent,,10000.0,2000.0,5.0,1858900.0,929.0,6269.0,,,4.0,3.0,"206 Curtis Point Dr, Mantoloking, NJ 08738",206 Curtis Point Dr,Mantoloking,NJ,8738,40.02705,-74.05739,,False,,,,
2056387127,FOR_RENT,Apartment for rent,,2400.0,,,,,2569.0,,,4.0,2.0,"201 Cleveland Ave #2B, Riverside, NJ 08075",201 Cleveland Ave #2B,Riverside,NJ,8075,40.03501,-74.96298,,False,,,,
38122188,FOR_RENT,House for rent,,4500.0,3100.0,1.0,749300.0,242.0,4779.0,,,4.0,3.0,"1 Braddocks Mill Rd, Medford, NJ 08055",1 Braddocks Mill Rd,Medford,NJ,8055,39.85408,-74.831535,,False,,,,
2053536035,FOR_RENT,Apartment for rent,,2000.0,,,,,1477.0,,,2.0,1.0,"168 Haddon Ave #A, West Berlin, NJ 08091",168 Haddon Ave #A,West Berlin,NJ,8091,39.809734,-74.94182,,False,,,,
38324631,FOR_RENT,House for rent,,3200.0,1820.0,2.0,369600.0,203.0,3153.0,,,3.0,3.0,"7 Whippoorwill Dr, Sicklerville, NJ 08081",7 Whippoorwill Dr,Sicklerville,NJ,8081,39.69985,-74.90932,,False,,,,
2076914484,FOR_RENT,Apartment for rent,,2200.0,1005.0,2.0,289400.0,288.0,2238.0,,,2.0,2.0,"112 Tavistock #112, Cherry Hill, NJ 08034",112 Tavistock #112,Cherry Hill,NJ,8034,39.892044,-75.02246,,False,,,,
240017499,FOR_RENT,Apartment for rent,,1900.0,1051.0,2.0,165600.0,158.0,1951.0,,,2.0,1.0,"275 Green St APT 4E6, Beverly, NJ 08010",275 Green St APT 4E6,Beverly,NJ,8010,40.05137,-74.91569,,False,,,,
2053033280,FOR_RENT,Apartment for rent,,2250.0,1500.0,2.0,,,2111.0,,,4.0,2.0,"135 E Federal St #B, Burlington, NJ 08016",135 E Federal St #B,Burlington,NJ,8016,40.0744,-74.85408,,False,,,,
38411234,FOR_RENT,House for rent,,1200.0,,,205800.0,,1302.0,,,1.0,1.0,"100 W Main St, Millville, NJ 08332",100 W Main St,Millville,NJ,8332,39.3961,-75.04364,,False,,,,
38176181,FOR_RENT,House for rent,,4000.0,2470.0,2.0,391500.0,159.0,3486.0,,,5.0,3.0,"49 Patriot Ln, Willingboro, NJ 08046",49 Patriot Ln,Willingboro,NJ,8046,40.037228,-74.900116,,False,,,,
63680661,FOR_RENT,Townhouse for rent,,2000.0,1267.0,2.0,,,1882.0,,,2.0,2.0,"49 Dover Dr, Lindenwold, NJ 08021",49 Dover Dr,Lindenwold,NJ,8021,39.80664,-75.01198,,False,,,,
39651178,FOR_RENT,House for rent,,2900.0,1392.0,2.0,407600.0,293.0,3070.0,,,4.0,3.0,"5 Holden St, Little Egg Harbor, NJ 08087",5 Holden St,Little Egg Harbor,NJ,8087,39.551865,-74.37692,,False,,,,
2080378879,FOR_RENT,Apartment for rent,,1500.0,400.0,4.0,,,1724.0,,,1.0,1.0,"9411 Monmouth Ave APT 3, Margate City, NJ 08402",9411 Monmouth Ave APT 3,Margate City,NJ,8402,39.324326,-74.51753,,False,,,,
2112505401,FOR_RENT,Apartment for rent,,2000.0,,,,,4189.0,,,4.0,4.0,"1301 Boulevard, Seaside Heights, NJ 08751",1301 Boulevard,Seaside Heights,NJ,8751,39.946598,-74.07307,,False,,,,
39553475,FOR_RENT,Apartment for rent,,2400.0,800.0,3.0,632600.0,791.0,2377.0,,,2.0,1.0,"974 Lynnwood Ave, Brick, NJ 08723",974 Lynnwood Ave,Brick,NJ,8723,40.050148,-74.1387,,False,,,,
39678493,FOR_RENT,House for rent,,3300.0,1272.0,3.0,,,3395.0,,,4.0,2.0,"72 Barnegat Beach Dr, Waretown, NJ 08758",72 Barnegat Beach Dr,Waretown,NJ,8758,39.779667,-74.192665,,False,,,,
38198871,FOR_RENT,Townhouse for rent,,2150.0,1042.0,2.0,,,1956.0,,,2.0,2.0,"424 Cherry St, Camden, NJ 08103",424 Cherry St,Camden,NJ,8103,39.934074,-75.121506,,False,,,,
38132944,FOR_RENT,Townhouse for rent,,1900.0,896.0,2.0,188700.0,211.0,1841.0,,,2.0,1.0,"125 Brown St, Mount Holly, NJ 08060",125 Brown St,Mount Holly,NJ,8060,39.995274,-74.793846,,False,,,,
39554267,FOR_RENT,House for rent,,2475.0,1000.0,2.0,496000.0,496.0,2630.0,,,2.0,2.0,"34 Breton Rd, Brick, NJ 08723",34 Breton Rd,Brick,NJ,8723,40.050915,-74.11638,,False,,,,
37843964,FOR_RENT,House for rent,,1650.0,,,568500.0,,2116.0,,,3.0,2.0,"132 N Portland Ave, Ventnor, NJ 08406",132 N Portland Ave,Ventnor,NJ,8406,39.340446,-74.48428,,False,,,,
455367923,FOR_RENT,Apartment for rent,,1800.0,1000.0,2.0,,,,,,2.0,1.0,"625 E Almond St #4, Vineland, NJ 08360",625 E Almond St #4,Vineland,NJ,8360,39.481827,-75.02245,,False,,,,
2104069372,FOR_RENT,Apartment for rent,,1750.0,1200.0,1.0,,,1775.0,,,2.0,1.0,"(undisclosed Address), Sicklerville, NJ 08081",(undisclosed Address),Sicklerville,NJ,8081,,,,False,,,,
61858119,FOR_RENT,Apartment for rent,,2500.0,902.0,3.0,425900.0,472.0,2895.0,,,2.0,2.0,"4500 W Brigantine Ave APT 2211, Brigantine, NJ 08203",4500 W Brigantine Ave APT 2211,Brigantine,NJ,8203,39.386314,-74.39289,,False,,,,
38182919,FOR_RENT,House for rent,,3100.0,2140.0,1.0,445400.0,208.0,3566.0,,,4.0,3.0,"69 Thornhill Ln, Willingboro, NJ 08046",69 Thornhill Ln,Willingboro,NJ,8046,40.01284,-74.87914,,False,,,,
39582154,FOR_RENT,House for rent,,3600.0,1992.0,2.0,591300.0,297.0,3353.0,,,5.0,2.0,"1580 Windsor Ave, Toms River, NJ 08753",1580 Windsor Ave,Toms River,NJ,8753,39.95893,-74.14743,,False,,,,
2107366975,FOR_RENT,Apartment for rent,,1900.0,800.0,2.0,,,1951.0,,,2.0,1.0,"28 K St, Seaside Park, NJ 08752",28 K St,Seaside Park,NJ,8752,39.931065,-74.0747,,False,,,,
2056602506,FOR_RENT,Townhouse for rent,,2000.0,1280.0,2.0,207400.0,162.0,1894.0,,,2.0,2.0,"140 Chelsea Cir #1, Clementon, NJ 08021",140 Chelsea Cir #1,Clementon,NJ,8021,39.81452,-74.97513,,False,,,,
350330715,FOR_RENT,Apartment for rent,,2000.0,,,,,2241.0,,,2.0,1.0,"509 E 7th St FLOOR 2, Ocean City, NJ 08226",509 E 7th St FLOOR 2,Ocean City,NJ,8226,39.28029,-74.5722,,False,,,,
38283745,FOR_RENT,House for rent,,3200.0,1559.0,2.0,339900.0,218.0,3172.0,,,4.0,2.0,"418 W Madison Ave, Magnolia, NJ 08049",418 W Madison Ave,Magnolia,NJ,8049,39.853867,-75.03954,,False,,,,
455571583,FOR_RENT,Apartment for rent,,1575.0,950.0,2.0,,,,,,3.0,1.0,"(undisclosed Address), Camden, NJ 08104",(undisclosed Address),Camden,NJ,8104,,,,False,,,,
39595024,FOR_RENT,House for rent,,2900.0,1100.0,3.0,357000.0,325.0,2742.0,,,2.0,2.0,"588 Innkeeper Ln, Toms River, NJ 08753",588 Innkeeper Ln,Toms River,NJ,8753,39.9559,-74.140114,,False,,,,
2116448192,FOR_RENT,Townhouse for rent,,2250.0,1254.0,2.0,223000.0,178.0,2242.0,,,2.0,3.0,"198 Patriots Ct #198, Galloway, NJ 08205",198 Patriots Ct #198,Galloway,NJ,8205,39.490166,-74.49979,,False,,,,
2059096362,FOR_RENT,Apartment for rent,,2000.0,1000.0,2.0,,,2039.0,,,2.0,1.0,"(undisclosed Address), Pleasantville, NJ 08232",(undisclosed Address),Pleasantville,NJ,8232,,,,False,,,,
38087679,FOR_RENT,Townhouse for rent,,2950.0,1476.0,2.0,360000.0,244.0,2768.0,,,3.0,3.0,"5 Larkspur Ct, Delran, NJ 08075",5 Larkspur Ct,Delran,NJ,8075,40.009705,-74.92899,,False,,,,
37795998,FOR_RENT,House for rent,,2725.0,1020.0,3.0,82100.0,80.0,2567.0,,,3.0,2.0,"424 Zion Rd, Egg Harbor Township, NJ 08234",424 Zion Rd,Egg Harbor Township,NJ,8234,39.361332,-74.630646,,False,,,,
455020032,FOR_RENT,Apartment for rent,,1650.0,675.0,2.0,,,,,,1.0,1.0,"409 Newton Ave #1, Oaklyn, NJ 08107",409 Newton Ave #1,Oaklyn,NJ,8107,39.90353,-75.08053,,False,,,,
150408510,FOR_RENT,House for rent,,3650.0,2496.0,1.0,507200.0,203.0,3648.0,,,4.0,3.0,"21 Gardenia Dr, Egg Harbor Township, NJ 08234",21 Gardenia Dr,Egg Harbor Township,NJ,8234,39.412457,-74.60167,,False,,,,
38197312,FOR_RENT,House for rent,,4000.0,2700.0,1.0,372600.0,138.0,3754.0,,,5.0,3.0,"317 N 2nd St, Camden, NJ 08102",317 N 2nd St,Camden,NJ,8102,39.949474,-75.1245,,False,,,,
2090570419,FOR_RENT,Townhouse for rent,,2400.0,1200.0,2.0,,,2507.0,,,3.0,3.0,"100 Chaucer Rd #B, Mount Laurel, NJ 08054",100 Chaucer Rd #B,Mount Laurel,NJ,8054,39.969036,-74.874985,,False,,,,
2055324866,FOR_RENT,Apartment for rent,,1600.0,457.0,4.0,,,1220.0,,,1.0,1.0,"9415-19 Pacific Ave #33, Margate City, NJ 08402",9415-19 Pacific Ave #33,Margate City,NJ,8402,39.320503,-74.514336,,False,,,,
454984351,FOR_RENT,Apartment for rent,,4200.0,2664.0,2.0,,,,,,5.0,3.0,"47 Tower Ln #1, Willingboro, NJ 08046",47 Tower Ln #1,Willingboro,NJ,8046,40.00436,-74.87355,,False,,,,
2086488265,FOR_RENT,Apartment for rent,,2400.0,1000.0,2.0,,,2172.0,,,2.0,1.0,"212 N Suffolk Ave #1, Ventnor City, NJ 08406",212 N Suffolk Ave #1,Ventnor City,NJ,8406,39.345036,-74.47767,,False,,,,
39654811,FOR_RENT,House for rent,,2800.0,1652.0,2.0,438200.0,265.0,2925.0,,,4.0,2.0,"70 Ocean Blvd, Little Egg Harbor, NJ 08087",70 Ocean Blvd,Little Egg Harbor,NJ,8087,39.546246,-74.37817,,False,,,,
69512742,FOR_RENT,Apartment for rent,,1800.0,796.0,2.0,147500.0,185.0,1788.0,,,2.0,1.0,"1212 Liberte Ct, Burlington, NJ 08016",1212 Liberte Ct,Burlington,NJ,8016,40.04965,-74.878204,,False,,,,
38212109,FOR_RENT,House for rent,,1700.0,896.0,2.0,139400.0,156.0,1702.0,,,2.0,1.0,"446 Raritan St, Camden, NJ 08105",446 Raritan St,Camden,NJ,8105,39.939987,-75.08962,,False,,,,
455191740,FOR_RENT,Apartment for rent,,2095.0,1300.0,2.0,,,,,,3.0,1.0,"2 Aberdeen Dr #BASEMENT, Sicklerville, NJ 08081",2 Aberdeen Dr #BASEMENT,Sicklerville,NJ,8081,39.750362,-74.988235,,False,,,,
39610946,FOR_RENT,House for rent,,3200.0,1286.0,2.0,608300.0,473.0,3024.0,,,2.0,1.0,"381 Glenn Rd, Jackson, NJ 08527",381 Glenn Rd,Jackson,NJ,8527,40.10424,-74.26527,,False,,,,
38256365,FOR_RENT,Townhouse for rent,,2000.0,1328.0,2.0,224100.0,169.0,2081.0,,,3.0,2.0,"118 La Cascata Tnhs, Clementon, NJ 08021",118 La Cascata Tnhs,Clementon,NJ,8021,39.80601,-75.02596,,False,,,,
38181978,FOR_RENT,Townhouse for rent,,2800.0,1300.0,2.0,285100.0,219.0,2563.0,,,3.0,2.0,"8 Radford Pl, Willingboro, NJ 08046",8 Radford Pl,Willingboro,NJ,8046,40.03627,-74.911736,,False,,,,
38275575,FOR_RENT,House for rent,,4300.0,1574.0,3.0,498500.0,317.0,3722.0,,,3.0,2.0,"437 3rd Ave, Haddon Heights, NJ 08035",437 3rd Ave,Haddon Heights,NJ,8035,39.879852,-75.04843,,False,,,,
450152350,FOR_RENT,Townhouse for rent,,2950.0,2000.0,1.0,642400.0,321.0,,,,3.0,3.0,"304C Barnegat Ave #304C, Seaside Heights, NJ 08751",304C Barnegat Ave #304C,Seaside Heights,NJ,8751,39.940094,-74.07742,,False,,,,
39344093,FOR_RENT,House for rent,,3200.0,1060.0,3.0,386800.0,365.0,2929.0,,,3.0,2.0,"242 Myrtle Ave, Neptune, NJ 07753",242 Myrtle Ave,Neptune,NJ,7753,40.21444,-74.02533,,False,,,,
2059770461,FOR_RENT,Apartment for rent,,1700.0,500.0,3.0,,,1320.0,,,2.0,1.0,"323 Union Ave #B, Riverside, NJ 08075",323 Union Ave #B,Riverside,NJ,8075,40.04974,-74.95709,,False,,,,
455633632,FOR_RENT,Apartment for rent,,1600.0,,,,,,,,1.0,1.0,"7 Scammell Ave #1, Trenton, NJ 08629",7 Scammell Ave #1,Trenton,NJ,8629,40.22865,-74.72607,,False,,,,
299423138,FOR_RENT,Townhouse for rent,,3300.0,2097.0,2.0,456800.0,218.0,3175.0,,,3.0,4.0,"30 Kramer Ct, Florence, NJ 08518",30 Kramer Ct,Florence,NJ,8518,40.097584,-74.7664,,False,,,,
38232959,FOR_RENT,House for rent,,2800.0,1621.0,2.0,276700.0,171.0,2968.0,,,3.0,3.0,"34 Lafayette Ln, Cherry Hill, NJ 08003",34 Lafayette Ln,Cherry Hill,NJ,8003,39.86848,-74.955864,,False,,,,
39219787,FOR_RENT,House for rent,,3500.0,996.0,4.0,377800.0,379.0,3504.0,,,3.0,1.0,"116 De Witt Ave, Asbury Park, NJ 07712",116 De Witt Ave,Asbury Park,NJ,7712,40.215935,-74.02281,,False,,,,
38074024,FOR_RENT,Townhouse for rent,,1745.0,900.0,2.0,218900.0,243.0,1800.0,,,2.0,1.0,"212 Jones Ave, Burlington, NJ 08016",212 Jones Ave,Burlington,NJ,8016,40.07587,-74.85335,,False,,,,
2068984920,FOR_RENT,Apartment for rent,,2400.0,1500.0,2.0,,,2334.0,,,2.0,2.0,"(undisclosed Address), Collingswood, NJ 08108",(undisclosed Address),Collingswood,NJ,8108,,,,False,,,,
454893228,FOR_RENT,Apartment for rent,,1700.0,795.0,2.0,,,,,,2.0,1.0,"90 Hanover St #4, Pemberton, NJ 08068",90 Hanover St #4,Pemberton,NJ,8068,39.972458,-74.682755,,False,,,,
455635956,FOR_RENT,Townhouse for rent,,2500.0,1200.0,2.0,275800.0,230.0,,,,2.0,3.0,"612 Steeplechase Ct, Woodbury, NJ 08096",612 Steeplechase Ct,Woodbury,NJ,8096,39.846386,-75.10799,,False,,,,
2087139755,FOR_RENT,Apartment for rent,,2100.0,943.0,2.0,,,2169.0,,,1.0,1.0,"2346 Route 33 STE 210, Robbinsville, NJ 08691",2346 Route 33 STE 210,Robbinsville,NJ,8691,40.2188,-74.62848,,False,,,,
39520594,FOR_RENT,House for rent,,2495.0,,,547500.0,,2703.0,,,3.0,2.0,"227 Beachwood Blvd, Beachwood, NJ 08722",227 Beachwood Blvd,Beachwood,NJ,8722,39.937893,-74.19271,,False,,,,
38087751,FOR_RENT,Townhouse for rent,,2900.0,1750.0,2.0,364900.0,209.0,2893.0,,,3.0,3.0,"28 Woodcrest Ln, Delran, NJ 08075",28 Woodcrest Ln,Delran,NJ,8075,40.0098,-74.927284,,False,,,,
2054003848,FOR_RENT,Apartment for rent,,1625.0,700.0,2.0,,,1725.0,,,2.0,1.0,"200 E Browning Rd #3B, Bellmawr, NJ 08031",200 E Browning Rd #3B,Bellmawr,NJ,8031,39.86452,-75.07116,,False,,,,
39590255,FOR_RENT,House for rent,,3795.0,2350.0,2.0,556400.0,237.0,3802.0,,,5.0,2.0,"22 Brookside Ct, Toms River, NJ 08753",22 Brookside Ct,Toms River,NJ,8753,39.972713,-74.17523,,False,,,,
2078294769,FOR_RENT,Apartment for rent,,2000.0,1206.0,2.0,,,3198.0,,,4.0,2.0,"549 Brielle Rd UNIT 1, Manasquan, NJ 08736",549 Brielle Rd UNIT 1,Manasquan,NJ,8736,40.11016,-74.03598,,False,,,,
37788426,FOR_RENT,House for rent,,3600.0,2000.0,2.0,356200.0,178.0,2939.0,,,6.0,2.0,"511 Philadelphia Ave, Egg Harbor City, NJ 08215",511 Philadelphia Ave,Egg Harbor City,NJ,8215,39.534645,-74.641396,,False,,,,
39615364,FOR_RENT,House for rent,,3500.0,1916.0,2.0,618900.0,323.0,3626.0,,,4.0,2.0,"3 Bedford Rd, Jackson, NJ 08527",3 Bedford Rd,Jackson,NJ,8527,40.139362,-74.372986,,False,,,,
2078091496,FOR_RENT,Apartment for rent,,2200.0,1000.0,2.0,,,2592.0,,,4.0,1.0,"11 Danby Pl FLOOR 2, Pt Pleasant Beach, NJ 08742",11 Danby Pl FLOOR 2,Pt Pleasant Beach,NJ,8742,40.097916,-74.0358,,False,,,,
38316167,FOR_RENT,House for rent,,5000.0,3457.0,1.0,725400.0,210.0,5251.0,,,4.0,5.0,"25 Forrest Hills Dr, Voorhees, NJ 08043",25 Forrest Hills Dr,Voorhees,NJ,8043,39.81982,-74.92022,,False,,,,
2063196435,FOR_RENT,Apartment for rent,,2000.0,1400.0,1.0,,,1770.0,,,2.0,1.0,"1932 Chambers St UNIT 2, Trenton, NJ 08610",1932 Chambers St UNIT 2,Trenton,NJ,8610,40.199413,-74.72934,,False,,,,
455919430,FOR_RENT,Apartment for rent,,1850.0,,,,,,,,2.0,2.0,"84 Mattix Run, Absecon, NJ 08205",84 Mattix Run,Absecon,NJ,8205,39.474,-74.5077,,False,,,,
38326970,FOR_RENT,House for rent,,2450.0,1462.0,2.0,196800.0,135.0,2422.0,,,3.0,2.0,"19 Medford Ct, Sicklerville, NJ 08081",19 Medford Ct,Sicklerville,NJ,8081,39.70504,-74.95201,,False,,,,
455822905,FOR_RENT,Apartment for rent,,2000.0,1504.0,1.0,,,,,,4.0,2.0,"306 Oak St E #E, Millville, NJ 08332",306 Oak St E #E,Millville,NJ,8332,39.400826,-75.0355,,False,,,,
455141093,FOR_RENT,Apartment for rent,,3300.0,850.0,4.0,,,,,,3.0,1.0,"1235 Washington Ave #2, Asbury Park, NJ 07712",1235 Washington Ave #2,Asbury Park,NJ,7712,40.220257,-74.02118,,False,,,,
38770874,FOR_RENT,House for rent,,2200.0,900.0,2.0,263400.0,293.0,2195.0,,,2.0,2.0,"117 Idle Lake Rd, Franklinville, NJ 08322",117 Idle Lake Rd,Franklinville,NJ,8322,39.611416,-75.08969,,False,,,,
39603163,FOR_RENT,House for rent,,2000.0,900.0,2.0,526000.0,584.0,2605.0,,,3.0,1.0,"100 W Albacore Way, Lavallette, NJ 08735",100 W Albacore Way,Lavallette,NJ,8735,39.98947,-74.06486,,False,,,,
39381364,FOR_RENT,House for rent,,3100.0,1600.0,2.0,567400.0,355.0,3229.0,,,3.0,2.0,"578 Route 524, Allentown, NJ 08501",578 Route 524,Allentown,NJ,8501,40.189205,-74.47271,,False,,,,
299034935,FOR_RENT,House for rent,,2400.0,,,1018900.0,,2149.0,,,2.0,1.0,"93 Mount Tabor Way, Ocean Grove, NJ 07756",93 Mount Tabor Way,Ocean Grove,NJ,7756,40.213753,-74.00941,,False,,,,
2080923513,FOR_RENT,House for rent,,6995.0,,,2400100.0,,4616.0,,,3.0,3.0,"423 Atlantic Ave, Spring Lake, NJ 07762",423 Atlantic Ave,Spring Lake,NJ,7762,40.14605,-74.03437,,False,,,,
39271885,FOR_RENT,Apartment for rent,,2425.0,1044.0,2.0,317000.0,304.0,2475.0,,,2.0,2.0,"10 White Oak Ct, Howell, NJ 07731",10 White Oak Ct,Howell,NJ,7731,40.202225,-74.25836,,False,,,,
120860873,FOR_RENT,Apartment for rent,,1600.0,660.0,2.0,419900.0,636.0,1865.0,,,2.0,1.0,"107 E Brigantine Ave #106, Brigantine, NJ 08203",107 E Brigantine Ave #106,Brigantine,NJ,8203,39.408066,-74.362946,,False,,,,
39616315,FOR_RENT,House for rent,,3500.0,1352.0,3.0,554900.0,410.0,3461.0,,,4.0,2.0,"2 Elm St, Jackson, NJ 08527",2 Elm St,Jackson,NJ,8527,40.12427,-74.2872,,False,,,,
39604080,FOR_RENT,House for rent,,4600.0,2400.0,2.0,807600.0,337.0,4273.0,,,4.0,3.0,"1939 Ship Ct, Toms River, NJ 08753",1939 Ship Ct,Toms River,NJ,8753,39.989117,-74.13947,,False,,,,
2109415516,FOR_RENT,Apartment for rent,,1450.0,420.0,3.0,,,1574.0,,,1.0,1.0,"44 Embury Ave #2, Ocean Grove, NJ 07756",44 Embury Ave #2,Ocean Grove,NJ,7756,40.210835,-74.00681,,False,,,,
2078165233,FOR_RENT,House for rent,,2750.0,1200.0,2.0,857300.0,714.0,2629.0,,,2.0,1.0,"574 Central Ave, Spring Lake, NJ 07762",574 Central Ave,Spring Lake,NJ,7762,40.142784,-74.039,,False,,,,
39614526,FOR_RENT,House for rent,,4250.0,2682.0,2.0,740000.0,276.0,4218.0,,,4.0,3.0,"667 Rodriguez Ln, Jackson, NJ 08527",667 Rodriguez Ln,Jackson,NJ,8527,40.137188,-74.395386,,False,,,,
2072717749,FOR_RENT,House for rent,,3250.0,,,2489600.0,,3883.0,,,4.0,2.0,"181 Beachfront, Manasquan, NJ 08736",181 Beachfront,Manasquan,NJ,8736,40.11228,-74.0332,,False,,,,
347396355,FOR_RENT,Apartment for rent,,1825.0,,,,,1886.0,,,2.0,1.0,"215 North Pavilion Avenue, 215 S Pavilion Ave E, Riverside, NJ 08075",215 S Pavilion Ave E,Riverside,NJ,8075,40.036385,-74.95971,,False,,,,
448883461,FOR_RENT,Apartment for rent,,1540.0,1100.0,1.0,,,,,,1.0,1.0,"234 N Burlington St UNIT 2, Gloucester City, NJ 08030",234 N Burlington St UNIT 2,Gloucester City,NJ,8030,39.90108,-75.12105,,False,,,,
38189944,FOR_RENT,House for rent,,2295.0,1116.0,2.0,193100.0,173.0,2092.0,,,3.0,1.0,"906 Alcyon Dr, Bellmawr, NJ 08031",906 Alcyon Dr,Bellmawr,NJ,8031,39.87549,-75.107475,,False,,,,
63678552,FOR_RENT,Townhouse for rent,,3500.0,1597.0,2.0,,,3097.0,,,4.0,4.0,"111 Chanticleer, Cherry Hill, NJ 08003",111 Chanticleer,Cherry Hill,NJ,8003,39.870014,-74.95142,,False,,,,
455212779,FOR_RENT,Townhouse for rent,,2300.0,1252.0,2.0,305500.0,244.0,,,,2.0,3.0,"3806 Grenwich Ln, Mount Laurel, NJ 08054",3806 Grenwich Ln,Mount Laurel,NJ,8054,39.97629,-74.87299,,False,,,,
38185879,FOR_RENT,House for rent,,3200.0,1278.0,3.0,368400.0,288.0,3016.0,,,3.0,2.0,"241 Maple Ave, Audubon, NJ 08106",241 Maple Ave,Audubon,NJ,8106,39.891857,-75.07352,,False,,,,
38227638,FOR_RENT,House for rent,,3500.0,2550.0,1.0,539600.0,212.0,3550.0,,,4.0,3.0,"210 Philellena Rd, Cherry Hill, NJ 08034",210 Philellena Rd,Cherry Hill,NJ,8034,39.88832,-75.01131,,False,,,,
69523686,FOR_RENT,Townhouse for rent,,2150.0,1004.0,2.0,251900.0,251.0,2065.0,,,2.0,1.0,"29 E Daisy Ln #A, Mount Laurel, NJ 08054",29 E Daisy Ln #A,Mount Laurel,NJ,8054,39.93804,-74.92702,,False,,,,
38220900,FOR_RENT,House for rent,,3500.0,,,463900.0,,3498.0,,,4.0,3.0,"315 Lincoln Ave S, Cherry Hill, NJ 08002",315 Lincoln Ave S,Cherry Hill,NJ,8002,39.935585,-75.00065,,False,,,,
453091121,FOR_RENT,Apartment for rent,,1800.0,900.0,2.0,,,,,,2.0,1.0,"4137 Marlton Pike, Merchantville, NJ 08109",4137 Marlton Pike,Merchantville,NJ,8109,39.93664,-75.07356,,False,,,,
63681137,FOR_RENT,Apartment for rent,,1950.0,748.0,3.0,,,1485.0,,,2.0,1.0,"101 Dartmouth Ave, Somerdale, NJ 08083",101 Dartmouth Ave,Somerdale,NJ,8083,39.84119,-75.01677,,False,,,,
455831177,FOR_RENT,House for rent,,1600.0,750.0,2.0,191800.0,256.0,,,,1.0,1.0,"28 E Holly Ave FLOOR 2, Oaklyn, NJ 08107",28 E Holly Ave FLOOR 2,Oaklyn,NJ,8107,39.90117,-75.07302,,False,,,,
38309725,FOR_RENT,Apartment for rent,,2175.0,1112.0,2.0,,,2262.0,,,2.0,2.0,"502 Britton Pl, Voorhees, NJ 08043",502 Britton Pl,Voorhees,NJ,8043,39.84651,-75.00323,,False,,,,
452571555,FOR_RENT,Townhouse for rent,,2800.0,1734.0,2.0,370600.0,214.0,,,,3.0,3.0,"201 Wharton Rd, Mount Laurel, NJ 08054",201 Wharton Rd,Mount Laurel,NJ,8054,39.94192,-74.927956,,False,,,,
450401409,FOR_RENT,House for rent,,2195.0,1600.0,1.0,237500.0,148.0,,,,3.0,3.0,"409 S 7th St, Camden, NJ 08103",409 S 7th St,Camden,NJ,8103,39.94023,-75.11615,,False,,,,
38232934,FOR_RENT,Townhouse for rent,,2975.0,1416.0,2.0,349300.0,247.0,2898.0,,,3.0,3.0,"9 Lafayette Ln, Cherry Hill, NJ 08003",9 Lafayette Ln,Cherry Hill,NJ,8003,39.86958,-74.9556,,False,,,,
455634607,FOR_RENT,Apartment for rent,,1950.0,990.0,2.0,,,,,,2.0,1.0,"13 S Black Horse Pike #1B, Haddon Heights, NJ 08035",13 S Black Horse Pike #1B,Haddon Heights,NJ,8035,39.879936,-75.085266,,False,,,,
455594886,FOR_RENT,House for rent,,2100.0,1434.0,1.0,347000.0,242.0,,,,2.0,2.0,"4204 Aberdeen Dr #B, Mount Laurel, NJ 08054",4204 Aberdeen Dr #B,Mount Laurel,NJ,8054,39.97184,-74.88718,,False,,,,
38094634,FOR_RENT,House for rent,,3200.0,1500.0,2.0,436500.0,291.0,3213.0,,,3.0,2.0,"220 N Locust Ave, Marlton, NJ 08053",220 N Locust Ave,Marlton,NJ,8053,39.906715,-74.92012,,False,,,,
2066673992,FOR_RENT,House for rent,,2200.0,900.0,2.0,196200.0,218.0,2266.0,,,3.0,1.0,"30 Haddon Ave APT 15, Collingswood, NJ 08108",30 Haddon Ave APT 15,Collingswood,NJ,8108,39.922184,-75.08741,,False,,,,
38107419,FOR_RENT,House for rent,,3200.0,1208.0,3.0,318200.0,263.0,2965.0,,,3.0,1.0,"300 Delaware Ave, Roebling, NJ 08554",300 Delaware Ave,Roebling,NJ,8554,40.11392,-74.78858,,False,,,,
448006195,FOR_RENT,Townhouse for rent,,2700.0,1734.0,2.0,346600.0,200.0,,,,3.0,3.0,"1404 Wharton Rd, Mount Laurel, NJ 08054",1404 Wharton Rd,Mount Laurel,NJ,8054,39.942314,-74.928314,,False,,,,
38185566,FOR_RENT,House for rent,,2825.0,1275.0,2.0,289000.0,227.0,2858.0,,,3.0,1.0,"724 Willitts Ave, Audubon, NJ 08106",724 Willitts Ave,Audubon,NJ,8106,39.886906,-75.062744,,False,,,,
38156812,FOR_RENT,House for rent,,2100.0,974.0,2.0,247100.0,254.0,2084.0,,,2.0,1.0,"374 Magnolia Rd, Pemberton, NJ 08068",374 Magnolia Rd,Pemberton,NJ,8068,39.94159,-74.65515,,False,,,,
39017687,FOR_RENT,House for rent,,1800.0,,,217400.0,,2291.0,,,4.0,2.0,"16 Chase St, Trenton, NJ 08638",16 Chase St,Trenton,NJ,8638,40.233383,-74.75503,,False,,,,
38120155,FOR_RENT,House for rent,,3200.0,1837.0,2.0,510500.0,278.0,3386.0,,,3.0,2.0,"51 Christopher Mill Rd, Medford, NJ 08055",51 Christopher Mill Rd,Medford,NJ,8055,39.88551,-74.84426,,False,,,,
2078887147,FOR_RENT,Apartment for rent,,2900.0,10847.0,0.0,,,2998.0,,,4.0,2.0,"740 River Rd #2, Trenton, NJ 08628",740 River Rd #2,Trenton,NJ,8628,40.244106,-74.82452,,False,,,,
2068505839,FOR_RENT,Apartment for rent,,1800.0,2014.0,1.0,,,1504.0,,,1.0,1.0,"54 E Centre St #1, Woodbury, NJ 08096",54 E Centre St #1,Woodbury,NJ,8096,39.836033,-75.15191,,False,,,,
38245210,FOR_RENT,Townhouse for rent,,2200.0,1208.0,2.0,198400.0,164.0,1904.0,,,3.0,1.0,"506 Ridgeway St, Gloucester City, NJ 08030",506 Ridgeway St,Gloucester City,NJ,8030,39.894634,-75.12242,,False,,,,
2079448948,FOR_RENT,Apartment for rent,,1650.0,975.0,2.0,,,1934.0,,,3.0,1.0,"330 Berkley Ave, 330 Berkley Ave UNIT 1, Palmyra, NJ 08065",330 Berkley Ave UNIT 1,Palmyra,NJ,8065,40.005646,-75.02601,,False,,,,
38150568,FOR_RENT,House for rent,,2800.0,2156.0,1.0,422700.0,196.0,3014.0,,,4.0,2.0,"258 Pemberton Blvd, Browns Mills, NJ 08015",258 Pemberton Blvd,Browns Mills,NJ,8015,39.989513,-74.584274,,False,,,,
455872967,FOR_RENT,Apartment for rent,,1850.0,1561.0,1.0,,,,,,2.0,1.0,"517 Newton Ave #B, Oaklyn, NJ 08107",517 Newton Ave #B,Oaklyn,NJ,8107,39.90241,-75.07958,,False,,,,
38178706,FOR_RENT,House for rent,,3950.0,1570.0,3.0,383100.0,244.0,3715.0,,,4.0,2.0,"29 Hinsdale Ln, Willingboro, NJ 08046",29 Hinsdale Ln,Willingboro,NJ,8046,40.04276,-74.87465,,False,,,,
455765039,FOR_RENT,Apartment for rent,,1600.0,800.0,2.0,,,,,,1.0,1.0,"1549 Brunswick Ave FLOOR 2, Lawrence Township, NJ 08648",1549 Brunswick Ave FLOOR 2,Lawrence Township,NJ,8648,40.245865,-74.74201,,False,,,,
455195839,FOR_RENT,House for rent,,6500.0,4146.0,2.0,914800.0,221.0,,,,4.0,4.0,"29 Elmwood Rd S, Marlton, NJ 08053",29 Elmwood Rd S,Marlton,NJ,8053,39.87673,-74.8904,,False,,,,
38073788,FOR_RENT,House for rent,,1750.0,1936.0,1.0,166700.0,86.0,1683.0,,,2.0,1.0,"412 Lawrence St, Burlington, NJ 08016",412 Lawrence St,Burlington,NJ,8016,40.077255,-74.85641,,False,,,,
187947201,FOR_RENT,Townhouse for rent,,4500.0,2892.0,2.0,596900.0,206.0,4273.0,,,3.0,4.0,"28 Isabelle Ct, Marlton, NJ 08053",28 Isabelle Ct,Marlton,NJ,8053,39.913025,-74.87156,,False,,,,
69517157,FOR_RENT,Apartment for rent,,2300.0,1104.0,2.0,287300.0,260.0,2398.0,,,2.0,2.0,"309 Andrews Ln, Moorestown, NJ 08057",309 Andrews Ln,Moorestown,NJ,8057,39.96493,-74.97603,,False,,,,
38100551,FOR_RENT,Townhouse for rent,,3300.0,2015.0,2.0,489600.0,243.0,3254.0,,,3.0,3.0,"208 Hazelwood Ln, Marlton, NJ 08053",208 Hazelwood Ln,Marlton,NJ,8053,39.867233,-74.91642,,False,,,,
2054479757,FOR_RENT,Townhouse for rent,,4000.0,2290.0,2.0,561700.0,245.0,3990.0,,,3.0,3.0,"495 Monte Farm Rd, Mount Laurel, NJ 08054",495 Monte Farm Rd,Mount Laurel,NJ,8054,39.98022,-74.88616,,False,,,,
2080678514,FOR_RENT,Apartment for rent,,2500.0,1100.0,2.0,,,2374.0,,,2.0,1.0,"(undisclosed Address), South River, NJ 08882",(undisclosed Address),South River,NJ,8882,,,,False,,,,
2060937483,FOR_RENT,Apartment for rent,,1800.0,,,,,1840.0,,,2.0,2.0,"442 W. Hanover St, 442 W Hanover St #2A, Trenton, NJ 08618",442 W Hanover St #2A,Trenton,NJ,8618,40.22418,-74.77501,,False,,,,
55543779,FOR_RENT,Townhouse for rent,,2700.0,1212.0,2.0,387900.0,320.0,2816.0,,,2.0,2.0,"10 Cosgrove Ct, East Brunswick, NJ 08816",10 Cosgrove Ct,East Brunswick,NJ,8816,40.42634,-74.40427,,False,,,,
39030116,FOR_RENT,House for rent,,2100.0,1200.0,2.0,210300.0,175.0,2214.0,,,3.0,1.0,"20 Hobart Ave, Trenton, NJ 08629",20 Hobart Ave,Trenton,NJ,8629,40.220646,-74.73279,,False,,,,
83039560,FOR_RENT,Condo for rent,,2900.0,1096.0,3.0,398600.0,364.0,2774.0,,,2.0,2.0,"148 Tulip Ln, Freehold, NJ 07728",148 Tulip Ln,Freehold,NJ,7728,40.24706,-74.31152,,False,,,,
39047456,FOR_RENT,Condo for rent,,2600.0,884.0,3.0,335700.0,380.0,2535.0,,,2.0,1.0,"79 Crosspointe Dr, East Brunswick, NJ 08816",79 Crosspointe Dr,East Brunswick,NJ,8816,40.456375,-74.40537,,False,,,,
39294395,FOR_RENT,House for rent,,1750.0,920.0,2.0,201700.0,219.0,1819.0,,,1.0,1.0,"71 Overlook Way UNIT H, Manalapan, NJ 07726",71 Overlook Way UNIT H,Manalapan,NJ,7726,40.328278,-74.32094,,False,,,,
38981240,FOR_RENT,Apartment for rent,,2200.0,1100.0,2.0,287800.0,262.0,2245.0,,,2.0,2.0,"58 Willow Ct, Hamilton, NJ 08619",58 Willow Ct,Hamilton,NJ,8619,40.21766,-74.68342,,False,,,,
39300565,FOR_RENT,Condo for rent,,3700.0,2077.0,2.0,609000.0,293.0,3965.0,,,4.0,3.0,"58 Dortmunder Dr, Manalapan, NJ 07726",58 Dortmunder Dr,Manalapan,NJ,7726,40.311153,-74.35336,,False,,,,
39294772,FOR_RENT,House for rent,,1850.0,864.0,2.0,244300.0,283.0,1858.0,,,1.0,1.0,"118 Amberly Dr UNIT J, Manalapan, NJ 07726",118 Amberly Dr UNIT J,Manalapan,NJ,7726,40.328976,-74.31903,,False,,,,
69516996,FOR_RENT,Apartment for rent,,1600.0,888.0,2.0,157300.0,177.0,1601.0,,,1.0,1.0,"834 Henri Ct, Burlington Township, NJ 08016",834 Henri Ct,Burlington Township,NJ,8016,40.05378,-74.87837,,False,,,,
39152839,FOR_RENT,Condo for rent,,1850.0,775.0,2.0,280800.0,362.0,1908.0,,,1.0,1.0,"5019 Ravens Crest Dr, Plainsboro, NJ 08536",5019 Ravens Crest Dr,Plainsboro,NJ,8536,40.326607,-74.55247,,False,,,,
447209313,FOR_RENT,Townhouse for rent,,2795.0,,,,,,,,2.0,2.0,"351 McDowell Dr UNIT 351, East Brunswick, NJ 08816",351 McDowell Dr UNIT 351,East Brunswick,NJ,8816,40.40868,-74.4101,,False,,,,
39177092,FOR_RENT,House for rent,,3900.0,,,705000.0,,4135.0,,,4.0,2.0,"1 Oakey Dr, Kendall Park, NJ 08824",1 Oakey Dr,Kendall Park,NJ,8824,40.434353,-74.53661,,False,,,,
455325317,FOR_RENT,Townhouse for rent,,3500.0,1862.0,2.0,592300.0,318.0,,,,2.0,3.0,"107 Windsor Pond Rd, Princeton Junction, NJ 08550",107 Windsor Pond Rd,Princeton Junction,NJ,8550,40.28708,-74.65607,,False,,,,
38980577,FOR_RENT,Townhouse for rent,,2200.0,1120.0,2.0,251700.0,225.0,2218.0,,,2.0,2.0,"615 Silver Ct, Hamilton, NJ 08690",615 Silver Ct,Hamilton,NJ,8690,40.21483,-74.68171,,False,,,,
39151848,FOR_RENT,Condo for rent,,4300.0,2363.0,2.0,770000.0,326.0,4134.0,,,2.0,4.0,"388 Sayre Dr, Princeton, NJ 08540",388 Sayre Dr,Princeton,NJ,8540,40.35104,-74.62252,,False,,,,
83036604,FOR_RENT,Condo for rent,,2700.0,1138.0,2.0,397900.0,350.0,2808.0,,,2.0,2.0,"127 Tulip Ln, Freehold, NJ 07728",127 Tulip Ln,Freehold,NJ,7728,40.247334,-74.311,,False,,,,
39152885,FOR_RENT,Apartment for rent,,1950.0,667.0,3.0,272900.0,409.0,1835.0,,,1.0,1.0,"5307 Ravens Crest Dr, Plainsboro, NJ 08536",5307 Ravens Crest Dr,Plainsboro,NJ,8536,40.32734,-74.55191,,False,,,,
39293827,FOR_RENT,House for rent,,1800.0,920.0,2.0,220100.0,239.0,1819.0,,,1.0,1.0,"6 Pine Cluster Cir UNIT C, Manalapan, NJ 07726",6 Pine Cluster Cir UNIT C,Manalapan,NJ,7726,40.333885,-74.320305,,False,,,,
39899312,FOR_RENT,House for rent,,4500.0,2433.0,2.0,836900.0,344.0,4414.0,,,4.0,3.0,"2 Boice Ln, Belle Mead, NJ 08502",2 Boice Ln,Belle Mead,NJ,8502,40.46155,-74.65275,,False,,,,
455597756,FOR_RENT,House for rent,,2350.0,1058.0,2.0,349800.0,331.0,,,,2.0,2.0,"15 Andrew Jackson Ct #B, Monroe Township, NJ 08831",15 Andrew Jackson Ct #B,Monroe Township,NJ,8831,40.314262,-74.45289,,False,,,,
456046820,FOR_RENT,Apartment for rent,,1800.0,672.0,3.0,419000.0,624.0,,,,2.0,1.0,"47 Story St, New Egypt, NJ 08533",47 Story St,New Egypt,NJ,8533,40.06374,-74.518425,,False,,,,
38980678,FOR_RENT,Apartment for rent,,2250.0,1005.0,2.0,300900.0,299.0,2273.0,,,2.0,2.0,"14 Lehavre Ct, Hamilton, NJ 08619",14 Lehavre Ct,Hamilton,NJ,8619,40.214294,-74.68207,,False,,,,
429324561,FOR_RENT,Townhouse for rent,,3000.0,1004.0,3.0,441200.0,439.0,,,,2.0,2.0,"1208 Parker Blvd, Princeton Junction, NJ 08550",1208 Parker Blvd,Princeton Junction,NJ,8550,40.31966,-74.623795,,False,,,,
61838112,FOR_RENT,House for rent,,2350.0,1058.0,2.0,348300.0,329.0,2438.0,,,2.0,2.0,"15B Andrew Jackson Ct, Monroe Township, NJ 08831",15B Andrew Jackson Ct,Monroe Township,NJ,8831,40.31426,-74.45288,,False,,,,
39294769,FOR_RENT,House for rent,,2400.0,1014.0,2.0,315600.0,311.0,2340.0,,,2.0,1.0,"118 Amberly Dr UNIT F, Manalapan, NJ 07726",118 Amberly Dr UNIT F,Manalapan,NJ,7726,40.329105,-74.31893,,False,,,,
55551572,FOR_RENT,Condo for rent,,2400.0,1068.0,2.0,413100.0,387.0,2464.0,,,2.0,2.0,"1202 Aspen Dr, Plainsboro, NJ 08536",1202 Aspen Dr,Plainsboro,NJ,8536,40.323864,-74.55746,,False,,,,
443782367,FOR_RENT,Townhouse for rent,,4200.0,1987.0,2.0,672700.0,339.0,,,,4.0,3.0,"5 Audrey St, Old Bridge, NJ 08857",5 Audrey St,Old Bridge,NJ,8857,40.35594,-74.32344,,False,,,,
39154162,FOR_RENT,Condo for rent,,1950.0,740.0,3.0,,,1933.0,,,1.0,1.0,"8113 Tamarron Dr, Plainsboro, NJ 08536",8113 Tamarron Dr,Plainsboro,NJ,8536,40.32974,-74.5658,,False,,,,
55546284,FOR_RENT,House for rent,,3300.0,1800.0,2.0,561000.0,312.0,3503.0,,,3.0,3.0,"14 Sandhill Ct, Jamesburg, NJ 08831",14 Sandhill Ct,Jamesburg,NJ,8831,40.349236,-74.44849,,False,,,,
64609483,FOR_RENT,Townhouse for rent,,2950.0,1647.0,2.0,545800.0,331.0,3189.0,,,3.0,3.0,"92 Shelley Cir, East Windsor, NJ 08520",92 Shelley Cir,East Windsor,NJ,8520,40.28477,-74.51365,,False,,,,
39903453,FOR_RENT,House for rent,,4900.0,2431.0,2.0,952700.0,392.0,4964.0,,,4.0,3.0,"42 York Dr, Princeton, NJ 08540",42 York Dr,Princeton,NJ,8540,40.39117,-74.66646,,False,,,,
39015345,FOR_RENT,House for rent,,2700.0,,,169200.0,,2659.0,,,5.0,2.0,"126 Spring St, Trenton, NJ 08618",126 Spring St,Trenton,NJ,8618,40.224785,-74.77197,,False,,,,
39168674,FOR_RENT,Townhouse for rent,,3150.0,,,630900.0,,3503.0,,,4.0,3.0,"15 Jeffrey Cir, Dayton, NJ 08810",15 Jeffrey Cir,Dayton,NJ,8810,40.38426,-74.51546,,False,,,,
39152920,FOR_RENT,Apartment for rent,,2350.0,836.0,3.0,351800.0,421.0,2316.0,,,2.0,2.0,"4812 Ravens Crest Dr, Plainsboro, NJ 08536",4812 Ravens Crest Dr,Plainsboro,NJ,8536,40.326393,-74.55295,,False,,,,
453092642,FOR_RENT,Apartment for rent,,5700.0,,,,,,,,3.0,2.0,"19 Lincoln Ct #103, Princeton, NJ 08540",19 Lincoln Ct #103,Princeton,NJ,8540,40.350925,-74.65819,,False,,,,
39036823,FOR_RENT,House for rent,,5800.0,,,1368800.0,,6053.0,,,4.0,3.0,"554 Village Rd W, West Windsor, NJ 08550",554 Village Rd W,West Windsor,NJ,8550,40.28322,-74.622154,,False,,,,
39173373,FOR_RENT,Condo for rent,,3050.0,,,458400.0,,2927.0,,,3.0,2.0,"18 Foxtail Ln, Monmouth Junction, NJ 08852",18 Foxtail Ln,Monmouth Junction,NJ,8852,40.395794,-74.569534,,False,,,,
64904086,FOR_RENT,Townhouse for rent,,3200.0,1864.0,2.0,502700.0,270.0,3255.0,,,3.0,3.0,"813 Plymouth Rd, North Brunswick, NJ 08902",813 Plymouth Rd,North Brunswick,NJ,8902,40.437298,-74.48639,,False,,,,
39035528,FOR_RENT,House for rent,,4300.0,2298.0,2.0,947500.0,412.0,4133.0,,,4.0,3.0,"30 Norchester Dr, Princeton Jct, NJ 08550",30 Norchester Dr,Princeton Jct,NJ,8550,40.30947,-74.61702,,False,,,,
39008837,FOR_RENT,House for rent,,4500.0,1564.0,3.0,1162300.0,743.0,4814.0,,,5.0,2.0,"40 Murray Pl, Princeton, NJ 08540",40 Murray Pl,Princeton,NJ,8540,40.35143,-74.64855,,False,,,,
39007927,FOR_RENT,Apartment for rent,,2100.0,,,,,2485.0,,,1.0,1.0,"25 Greenview Ave, Princeton, NJ 08542",25 Greenview Ave,Princeton,NJ,8542,40.3539,-74.65952,,False,,,,
150600422,FOR_RENT,Apartment for rent,,2400.0,1250.0,2.0,381800.0,305.0,2744.0,,,2.0,2.0,"1121 Halifax Pl, Hamilton, NJ 08619",1121 Halifax Pl,Hamilton,NJ,8619,40.258232,-74.706116,,False,,,,
449685732,FOR_RENT,House for rent,,2700.0,1058.0,3.0,373600.0,353.0,,,,2.0,2.0,"27 Benjamin Franklin Dr #B, Monroe Township, NJ 08831",27 Benjamin Franklin Dr #B,Monroe Township,NJ,8831,40.314724,-74.45543,,False,,,,
2064272970,FOR_RENT,Townhouse for rent,,3500.0,1691.0,2.0,590900.0,349.0,3385.0,,,3.0,3.0,"15 Andover Cir #B, Princeton, NJ 08540",15 Andover Cir #B,Princeton,NJ,8540,40.38983,-74.63216,,False,,,,
39177159,FOR_RENT,House for rent,,3800.0,,,720100.0,,3824.0,,,3.0,3.0,"26 James Ave, Kendall Park, NJ 08824",26 James Ave,Kendall Park,NJ,8824,40.436317,-74.53402,,False,,,,
64538150,FOR_RENT,Apartment for rent,,2600.0,1506.0,2.0,382500.0,254.0,2672.0,,,2.0,2.0,"1314 Rustic Ct, Lawrence Township, NJ 08648",1314 Rustic Ct,Lawrence Township,NJ,8648,40.277565,-74.70932,,False,,,,
64690828,FOR_RENT,Apartment for rent,,2300.0,1203.0,2.0,325500.0,271.0,2244.0,,,2.0,2.0,"34 Feiler Ct, Lawrence Township, NJ 08648",34 Feiler Ct,Lawrence Township,NJ,8648,40.275604,-74.67443,,False,,,,
453092653,FOR_RENT,Townhouse for rent,,6200.0,,,1106000.0,,,,,3.0,3.0,"19 Lincoln Ct #201, Princeton, NJ 08540",19 Lincoln Ct #201,Princeton,NJ,8540,40.350895,-74.65824,,False,,,,
39010449,FOR_RENT,House for rent,,8400.0,3706.0,2.0,1659500.0,448.0,7138.0,,,5.0,4.0,"328 Dodds Ln, Princeton, NJ 08540",328 Dodds Ln,Princeton,NJ,8540,40.37261,-74.62587,,False,,,,
455066030,FOR_RENT,Apartment for rent,,2500.0,900.0,3.0,,,,,,1.0,1.0,"1 N Main St APT 2, Stockton, NJ 08559",1 N Main St APT 2,Stockton,NJ,8559,40.40645,-74.97732,,False,,,,
447342763,FOR_RENT,Townhouse for rent,,2450.0,1352.0,2.0,433900.0,321.0,,,,2.0,3.0,"212 Sapphire Ln, Franklin Park, NJ 08823",212 Sapphire Ln,Franklin Park,NJ,8823,40.434113,-74.55222,,False,,,,
2094921474,FOR_RENT,Condo for rent,,2195.0,,,347100.0,,2333.0,,,2.0,1.0,"110 Raintree Ct #110, Helmetta, NJ 08828",110 Raintree Ct #110,Helmetta,NJ,8828,40.38048,-74.41637,,False,,,,
453577687,FOR_RENT,Apartment for rent,,2480.0,1215.0,2.0,,,,,,2.0,2.0,"1914 Old Stone Mill Dr, Cranbury, NJ 08512",1914 Old Stone Mill Dr,Cranbury,NJ,8512,40.28864,-74.55052,,False,,,,
2089682980,FOR_RENT,Apartment for rent,,2200.0,,,642000.0,,2150.0,,,1.0,1.0,"118 N Union St #1, Lambertville, NJ 08530",118 N Union St #1,Lambertville,NJ,8530,40.37052,-74.94649,,False,,,,
39831528,FOR_RENT,House for rent,,3600.0,,,653100.0,,3485.0,,,2.0,2.0,"2081 Us Highway 206, Belle Mead, NJ 08502",2081 Us Highway 206,Belle Mead,NJ,8502,40.44438,-74.66362,,False,,,,
38848925,FOR_RENT,House for rent,,2200.0,,,864400.0,,2112.0,,,1.0,1.0,"118 N Union St, Lambertville, NJ 08530",118 N Union St,Lambertville,NJ,8530,40.37059,-74.94614,,False,,,,
39005048,FOR_RENT,Apartment for rent,,2200.0,1008.0,2.0,295200.0,293.0,2210.0,,,2.0,1.0,"101 Quince Ct, Lawrence Township, NJ 08648",101 Quince Ct,Lawrence Township,NJ,8648,40.30949,-74.73524,,False,,,,
39174591,FOR_RENT,House for rent,,4600.0,2293.0,2.0,893700.0,390.0,4660.0,,,4.0,3.0,"2 Oxford Ct, Kendall Park, NJ 08824",2 Oxford Ct,Kendall Park,NJ,8824,40.414158,-74.57975,,False,,,,
39011338,FOR_RENT,House for rent,,7500.0,2814.0,3.0,1618500.0,575.0,8212.0,,,4.0,4.0,"127 Westerly Rd, Princeton, NJ 08540",127 Westerly Rd,Princeton,NJ,8540,40.352943,-74.679344,,False,,,,
52627439,FOR_RENT,Apartment for rent,,2200.0,1125.0,2.0,335300.0,298.0,2376.0,,,2.0,2.0,"158 Wyndham Pl, Robbinsville, NJ 08691",158 Wyndham Pl,Robbinsville,NJ,8691,40.228806,-74.63394,,False,,,,
2067002374,FOR_RENT,Apartment for rent,,2075.0,,,,,2186.0,,,4.0,1.0,"184 Brunswick Ave, 184 Brunswick Ave #B, Trenton, NJ 08618",184 Brunswick Ave #B,Trenton,NJ,8618,40.2271,-74.762115,,False,,,,
39109953,FOR_RENT,Condo for rent,,2500.0,1106.0,2.0,424600.0,384.0,2529.0,,,2.0,2.0,"298 Wimbeldon Ct, North Brunswick, NJ 08902",298 Wimbeldon Ct,North Brunswick,NJ,8902,40.44426,-74.507996,,False,,,,
39187283,FOR_RENT,Apartment for rent,,2200.0,,,653700.0,,2265.0,,,2.0,1.0,"176 Manalapan Rd, Spotswood, NJ 08884",176 Manalapan Rd,Spotswood,NJ,8884,40.387787,-74.39765,,False,,,,
39015250,FOR_RENT,House for rent,,1650.0,1000.0,2.0,101600.0,102.0,1707.0,,,2.0,1.0,"25 Passaic St, Trenton, NJ 08618",25 Passaic St,Trenton,NJ,8618,40.22349,-74.77192,,False,,,,
2095989642,FOR_RENT,Apartment for rent,,2000.0,980.0,2.0,,,2070.0,,,2.0,1.0,"208 Garnet Dr, Burlington Township, NJ 08016",208 Garnet Dr,Burlington Township,NJ,8016,40.05334,-74.84492,,False,,,,
2053152866,FOR_RENT,Townhouse for rent,,3500.0,,,735900.0,,3986.0,,,2.0,3.0,"1006 Greenwich Dr, Princeton Junction, NJ 08550",1006 Greenwich Dr,Princeton Junction,NJ,8550,40.32006,-74.62373,,False,,,,
2053193776,FOR_RENT,Condo for rent,,4000.0,,,648900.0,,3887.0,,,2.0,2.0,"1 Culvert Dr UNIT 107, Princeton Junction, NJ 08550",1 Culvert Dr UNIT 107,Princeton Junction,NJ,8550,40.319347,-74.62482,,False,,,,
39154165,FOR_RENT,Condo for rent,,2350.0,916.0,3.0,378400.0,413.0,2384.0,,,2.0,2.0,"8201 Tamarron Dr, Plainsboro, NJ 08536",8201 Tamarron Dr,Plainsboro,NJ,8536,40.329727,-74.56547,,False,,,,
38961083,FOR_RENT,House for rent,,2800.0,1466.0,2.0,405100.0,276.0,2811.0,,,3.0,2.0,"31 Pershing Ave, Ewing, NJ 08618",31 Pershing Ave,Ewing,NJ,8618,40.247734,-74.777626,,False,,,,
2055997853,FOR_RENT,Apartment for rent,,1849.0,800.0,2.0,,,1793.0,,,3.0,1.0,"Convenient Corners at South Olden, 1163 E State St #6, Trenton, NJ 08609",1163 E State St #6,Trenton,NJ,8609,40.22651,-74.7397,,False,,,,
39009887,FOR_RENT,Townhouse for rent,,4250.0,1872.0,2.0,809800.0,433.0,4251.0,,,3.0,2.0,"211 Ross Stevenson Cir, Princeton, NJ 08540",211 Ross Stevenson Cir,Princeton,NJ,8540,40.38022,-74.65619,,False,,,,
52627819,FOR_RENT,Condo for rent,,2400.0,888.0,3.0,284000.0,320.0,2321.0,,,2.0,1.0,"124 Walden Cir, Robbinsville, NJ 08691",124 Walden Cir,Robbinsville,NJ,8691,40.23651,-74.6358,,False,,,,
39150244,FOR_RENT,Condo for rent,,2300.0,,,327900.0,,2315.0,,,2.0,1.0,"447 Lancaster Ct, Piscataway, NJ 08854",447 Lancaster Ct,Piscataway,NJ,8854,40.52944,-74.457405,,False,,,,
39063032,FOR_RENT,Condo for rent,,2500.0,1034.0,2.0,432600.0,418.0,2473.0,,,2.0,2.0,"434 Waterford Dr, Edison, NJ 08817",434 Waterford Dr,Edison,NJ,8817,40.5454,-74.39978,,False,,,,
376731870,FOR_RENT,House for rent,,1700.0,750.0,2.0,293200.0,391.0,1850.0,,,1.0,1.0,"898 State Route 34 #B, Matawan, NJ 07747",898 State Route 34 #B,Matawan,NJ,7747,40.40951,-74.2375,,False,,,,
449936777,FOR_RENT,Apartment for rent,,1795.0,2212.0,1.0,,,,,,1.0,1.0,"1604 State Route 27 Rte, Edison, NJ 08817",1604 State Route 27 Rte,Edison,NJ,8817,40.50803,-74.41232,,False,,,,
39878150,FOR_RENT,House for rent,,3000.0,,,461100.0,,3074.0,,,3.0,3.0,"7 Mariano Ct, Somerset, NJ 08873",7 Mariano Ct,Somerset,NJ,8873,40.5128,-74.49757,,False,,,,
39061956,FOR_RENT,Townhouse for rent,,2600.0,1452.0,2.0,450500.0,310.0,2609.0,,,2.0,2.0,"6102 Hana Rd, Edison, NJ 08817",6102 Hana Rd,Edison,NJ,8817,40.53376,-74.41064,,False,,,,
2068684248,FOR_RENT,Townhouse for rent,,2000.0,,,263200.0,,1916.0,,,1.0,1.0,"55 Smith St #1, Perth Amboy, NJ 08861",55 Smith St #1,Perth Amboy,NJ,8861,40.507324,-74.26459,,False,,,,
39871044,FOR_RENT,Townhouse for rent,,2900.0,1575.0,2.0,518800.0,329.0,2795.0,,,2.0,3.0,"51 Talbot St, Somerset, NJ 08873",51 Talbot St,Somerset,NJ,8873,40.452213,-74.525505,,False,,,,
449858459,FOR_RENT,House for rent,,2500.0,1362.0,2.0,487700.0,358.0,,,,2.0,3.0,"220 Sapphire Ln, Franklin Park, NJ 08823",220 Sapphire Ln,Franklin Park,NJ,8823,40.433945,-74.55239,,False,,,,
39198076,FOR_RENT,House for rent,,3000.0,,,488000.0,,3018.0,,,3.0,2.0,"216 Julius St, Iselin, NJ 08830",216 Julius St,Iselin,NJ,8830,40.564247,-74.302574,,False,,,,
39076207,FOR_RENT,Townhouse for rent,,3000.0,1587.0,2.0,606900.0,382.0,3141.0,,,3.0,3.0,"187 Prestwick Way, Edison, NJ 08820",187 Prestwick Way,Edison,NJ,8820,40.557407,-74.397995,,False,,,,
39076050,FOR_RENT,Townhouse for rent,,2650.0,,,464800.0,,2717.0,,,2.0,2.0,"24 Prestwick Way, Edison, NJ 08820",24 Prestwick Way,Edison,NJ,8820,40.555058,-74.39733,,False,,,,
39067986,FOR_RENT,House for rent,,3000.0,,,482500.0,,3096.0,,,3.0,2.0,"2 Brookside Rd, Edison, NJ 08817",2 Brookside Rd,Edison,NJ,8817,40.512325,-74.37258,,False,,,,
39082814,FOR_RENT,House for rent,,4100.0,2216.0,2.0,664300.0,300.0,4112.0,,,4.0,3.0,"21 Raleigh Rd, Edison, NJ 08817",21 Raleigh Rd,Edison,NJ,8817,40.517406,-74.39522,,False,,,,
455347739,FOR_RENT,Apartment for rent,,1670.0,,,,,,,,1.0,1.0,"9 Koster Blvd #A, Edison, NJ 08837",9 Koster Blvd #A,Edison,NJ,8837,40.546883,-74.34441,,False,,,,
39058261,FOR_RENT,House for rent,,3500.0,,,615500.0,,3537.0,,,4.0,3.0,"59 Victory Pl, East Brunswick, NJ 08816",59 Victory Pl,East Brunswick,NJ,8816,40.44251,-74.42263,,False,,,,
59876614,FOR_RENT,Condo for rent,,2400.0,,,396200.0,,2513.0,,,2.0,2.0,"231 Lucy Ct, South Plainfield, NJ 07080",231 Lucy Ct,South Plainfield,NJ,7080,40.546,-74.41566,,False,,,,
178475683,FOR_RENT,Condo for rent,,3200.0,1310.0,2.0,589300.0,450.0,3334.0,,,2.0,2.0,"1 Spring St UNIT 2004, New Brunswick, NJ 08901",1 Spring St UNIT 2004,New Brunswick,NJ,8901,40.49532,-74.44493,,False,,,,
39150116,FOR_RENT,Condo for rent,,2550.0,1138.0,2.0,386600.0,340.0,2542.0,,,2.0,2.0,"306 Hampshire Ct, Piscataway, NJ 08854",306 Hampshire Ct,Piscataway,NJ,8854,40.529118,-74.45833,,False,,,,
39880865,FOR_RENT,Townhouse for rent,,3000.0,1664.0,2.0,539800.0,324.0,3094.0,,,3.0,3.0,"226 Matlook Pl, Somerset, NJ 08873",226 Matlook Pl,Somerset,NJ,8873,40.51573,-74.51037,,False,,,,
39056426,FOR_RENT,Townhouse for rent,,3300.0,,,536500.0,,3248.0,,,3.0,3.0,"17 Clark Ct, East Brunswick, NJ 08816",17 Clark Ct,East Brunswick,NJ,8816,40.411377,-74.41789,,False,,,,
55552790,FOR_RENT,Townhouse for rent,,2700.0,1351.0,2.0,426600.0,316.0,2780.0,,,2.0,2.0,"43 Giera Ct, Parlin, NJ 08859",43 Giera Ct,Parlin,NJ,8859,40.455536,-74.281944,,False,,,,
2060638058,FOR_RENT,House for rent,,2995.0,,,547200.0,,3069.0,,,3.0,2.0,"487 S Pine Ave, South Amboy, NJ 08879",487 S Pine Ave,South Amboy,NJ,8879,40.47156,-74.27942,,False,,,,
2103990711,FOR_RENT,Condo for rent,,2600.0,,,301900.0,,2613.0,,,3.0,1.0,"174 W Main St, Bound Brook, NJ 08805",174 W Main St,Bound Brook,NJ,8805,40.560143,-74.539375,,False,,,,
39076072,FOR_RENT,Townhouse for rent,,3000.0,,,505200.0,,2825.0,,,2.0,3.0,"46 Prestwick Way, Edison, NJ 08820",46 Prestwick Way,Edison,NJ,8820,40.555298,-74.39823,,False,,,,
454966353,FOR_RENT,Apartment for rent,,1825.0,,,,,,,,1.0,1.0,"2250 Woodbridge Assoc LLC, 2250 Woodbridge Ave APT 1, Edison, NJ 08817",2250 Woodbridge Ave APT 1,Edison,NJ,8817,40.501637,-74.39085,,False,,,,
2085762672,FOR_RENT,Apartment for rent,,2750.0,2412.0,1.0,,,2834.0,,,3.0,2.0,"586 Jacques St #2, Perth Amboy, NJ 08861",586 Jacques St #2,Perth Amboy,NJ,8861,40.519825,-74.27377,,False,,,,
2087294060,FOR_RENT,Apartment for rent,,2100.0,,,,,2142.0,,,2.0,1.0,"37 Highland Ave APT 3, Metuchen, NJ 08840",37 Highland Ave APT 3,Metuchen,NJ,8840,40.54389,-74.36099,,False,,,,
39066596,FOR_RENT,Apartment for rent,,2395.0,984.0,2.0,,,2336.0,,,2.0,1.0,"143 Vineyard Rd, Edison, NJ 08817",143 Vineyard Rd,Edison,NJ,8817,40.5256,-74.37546,,False,,,,
39208958,FOR_RENT,House for rent,,2300.0,,,434100.0,,2209.0,,,1.0,1.0,"141 Woodbridge Ave, Sewaren, NJ 07077",141 Woodbridge Ave,Sewaren,NJ,7077,40.553204,-74.26339,,False,,,,
39050655,FOR_RENT,House for rent,,3250.0,1602.0,2.0,550800.0,344.0,3257.0,,,4.0,2.0,"33 Windsor Dr, East Brunswick, NJ 08816",33 Windsor Dr,East Brunswick,NJ,8816,40.42738,-74.3814,,False,,,,
448700395,FOR_RENT,Condo for rent,,2500.0,,,384500.0,,,,,2.0,2.0,"1213 Harbor Club Dr, Parlin, NJ 08859",1213 Harbor Club Dr,Parlin,NJ,8859,40.460167,-74.27742,,False,,,,
452423286,FOR_RENT,Apartment for rent,,2150.0,,,,,,,,3.0,1.0,"424 Division St APT 3, Perth Amboy, NJ 08861",424 Division St APT 3,Perth Amboy,NJ,8861,40.513477,-74.267784,,False,,,,
39173601,FOR_RENT,Condo for rent,,2850.0,1280.0,2.0,411900.0,322.0,2931.0,,,3.0,3.0,"34 Beechwood Ct, Monmouth Junction, NJ 08852",34 Beechwood Ct,Monmouth Junction,NJ,8852,40.393734,-74.57023,,False,,,,
443152295,FOR_RENT,House for rent,,1795.0,,,307100.0,,,,,1.0,1.0,"82 Woodbridge Ave #2NDFL, Highland Park, NJ 08904",82 Woodbridge Ave #2NDFL,Highland Park,NJ,8904,40.500973,-74.41905,,False,,,,
454952185,FOR_RENT,Apartment for rent,,2300.0,,,,,,,,3.0,1.0,"107 Baldwin St #1, New Brunswick, NJ 08901",107 Baldwin St #1,New Brunswick,NJ,8901,40.485558,-74.44598,,False,,,,
455093461,FOR_RENT,Apartment for rent,,2000.0,,,,,,,,2.0,1.0,"35 Lavern St #2-F, Sayreville, NJ 08872",35 Lavern St #2-F,Sayreville,NJ,8872,40.463547,-74.342705,,False,,,,
39146002,FOR_RENT,House for rent,,3500.0,,,609500.0,,3442.0,,,3.0,2.0,"5 Pelmont Pl, Piscataway, NJ 08854",5 Pelmont Pl,Piscataway,NJ,8854,40.551754,-74.4902,,False,,,,
39057002,FOR_RENT,Townhouse for rent,,2800.0,1466.0,2.0,449100.0,306.0,2821.0,,,2.0,3.0,"47 Morgan Pl, East Brunswick, NJ 08816",47 Morgan Pl,East Brunswick,NJ,8816,40.405785,-74.417046,,False,,,,
39172339,FOR_RENT,House for rent,,6900.0,,,849500.0,,4613.0,,,4.0,3.0,"21 Crestview Dr, Kendall Park, NJ 08824",21 Crestview Dr,Kendall Park,NJ,8824,40.424908,-74.5343,,False,,,,
39133811,FOR_RENT,Apartment for rent,,2600.0,,,,,2585.0,,,3.0,1.0,"159 1st St, Perth Amboy, NJ 08861",159 1st St,Perth Amboy,NJ,8861,40.505142,-74.2738,,False,,,,
55548752,FOR_RENT,House for rent,,3100.0,1400.0,2.0,360800.0,258.0,3034.0,,,2.0,2.0,"18 Henry Ave, New Brunswick, NJ 08901",18 Henry Ave,New Brunswick,NJ,8901,40.482178,-74.47964,,False,,,,
456177214,FOR_RENT,Apartment for rent,,2084.0,,,,,,,,3.0,1.0,"35 High St, 35 High St APT 1, New Brunswick, NJ 08901",35 High St APT 1,New Brunswick,NJ,8901,40.49672,-74.45259,,False,,,,
39885434,FOR_RENT,House for rent,,3950.0,1833.0,2.0,710600.0,388.0,3657.0,,,3.0,3.0,"34 Nostrand Rd, Hillsborough, NJ 08844",34 Nostrand Rd,Hillsborough,NJ,8844,40.54772,-74.6021,,False,,,,
455800197,FOR_RENT,House for rent,,3500.0,2337.0,1.0,,,,,,3.0,3.0,"76 Glenville Rd #76, Edison, NJ 08817",76 Glenville Rd #76,Edison,NJ,8817,40.516506,-74.38737,,False,,,,
55544788,FOR_RENT,Townhouse for rent,,3400.0,1683.0,2.0,660600.0,393.0,3390.0,,,2.0,3.0,"75 Gate House Ln, Edison, NJ 08820",75 Gate House Ln,Edison,NJ,8820,40.56514,-74.386604,,False,,,,
2055948413,FOR_RENT,House for rent,,3500.0,,,568900.0,,3589.0,,,3.0,4.0,"1314 Danchetz Ct, Rahway, NJ 07065",1314 Danchetz Ct,Rahway,NJ,7065,40.60144,-74.270935,,False,,,,
440741983,FOR_RENT,Condo for rent,,2175.0,,,291500.0,,,,,1.0,1.0,"17 Briarwood Path, Clark, NJ 07066",17 Briarwood Path,Clark,NJ,7066,40.61543,-74.33532,,False,,,,
2069300757,FOR_RENT,Apartment for rent,,2100.0,,,,,2249.0,,,2.0,1.0,"144 S Broadway, South Amboy, NJ 08879",144 S Broadway,South Amboy,NJ,8879,40.481426,-74.27887,,False,,,,
456187060,FOR_RENT,Townhouse for rent,,3000.0,,,,,,,,2.0,3.0,"330 Smithwold Rd #1, Somerset, NJ 08873",330 Smithwold Rd #1,Somerset,NJ,8873,40.51262,-74.51995,,False,,,,
2054032504,FOR_RENT,Condo for rent,,4000.0,,,755700.0,,,,,3.0,3.0,"307 Peyton Pl, New Brunswick, NJ 08901",307 Peyton Pl,New Brunswick,NJ,8901,40.4815,-74.42527,,False,,,,
2078264459,FOR_RENT,Apartment for rent,,2800.0,,,627400.0,,2664.0,,,3.0,2.0,"288 E Hazelwood Ave #2, Rahway, NJ 07065",288 E Hazelwood Ave #2,Rahway,NJ,7065,40.60077,-74.27632,,False,,,,
240111961,FOR_RENT,Condo for rent,,3450.0,,,,,2045.0,,,3.0,4.0,"1150 Broad St APT 104, Rahway, NJ 07065",1150 Broad St APT 104,Rahway,NJ,7065,40.60411,-74.27959,,False,,,,
2097045777,FOR_RENT,Condo for rent,,2700.0,,,,,2356.0,,,2.0,1.0,"172 Evergreen Rd APT 22A, Edison, NJ 08837",172 Evergreen Rd APT 22A,Edison,NJ,8837,40.55038,-74.33027,,False,,,,
454529593,FOR_RENT,Apartment for rent,,2800.0,,,606400.0,,,,,3.0,1.0,"730 W 4th St, Plainfield, NJ 07060",730 W 4th St,Plainfield,NJ,7060,40.60725,-74.43165,,False,,,,
2105688683,FOR_RENT,Condo for rent,,2900.0,1380.0,2.0,535100.0,388.0,3019.0,,,3.0,2.0,"2818 Edward Stec Blvd #2818, Edison, NJ 08837",2818 Edward Stec Blvd #2818,Edison,NJ,8837,40.510246,-74.362564,,False,,,,
453264567,FOR_RENT,Apartment for rent,,2800.0,,,,,,,,2.0,1.0,"191 Main St #A, Matawan, NJ 07747",191 Main St #A,Matawan,NJ,7747,40.41188,-74.231285,,False,,,,
39162495,FOR_RENT,Townhouse for rent,,3500.0,,,485600.0,,3360.0,,,3.0,3.0,"29 Borelle Sq, Parlin, NJ 08859",29 Borelle Sq,Parlin,NJ,8859,40.471542,-74.31262,,False,,,,
454685733,FOR_RENT,Apartment for rent,,2500.0,700.0,4.0,481400.0,688.0,,,,2.0,1.0,"234 W High St FLOOR 2, Bound Brook, NJ 08805",234 W High St FLOOR 2,Bound Brook,NJ,8805,40.56391,-74.54312,,False,,,,
39064752,FOR_RENT,Condo for rent,,1925.0,,,292700.0,,1946.0,,,1.0,1.0,"222 Orlando St, Edison, NJ 08817",222 Orlando St,Edison,NJ,8817,40.5217,-74.39542,,False,,,,
55546972,FOR_RENT,House for rent,,3500.0,,,609900.0,,3531.0,,,3.0,2.0,"158 Stout Ave, Middlesex, NJ 08846",158 Stout Ave,Middlesex,NJ,8846,40.57348,-74.513565,,False,,,,
88942516,FOR_RENT,Townhouse for rent,,3600.0,,,675700.0,,3724.0,,,3.0,4.0,"254 River Rd, Piscataway, NJ 08854",254 River Rd,Piscataway,NJ,8854,40.547497,-74.51576,,False,,,,
39075447,FOR_RENT,Condo for rent,,2700.0,,,491200.0,,2769.0,,,2.0,1.0,"92 Gate House Ln, Edison, NJ 08820",92 Gate House Ln,Edison,NJ,8820,40.564735,-74.38731,,False,,,,
39164912,FOR_RENT,Condo for rent,,2400.0,1013.0,2.0,396000.0,391.0,2413.0,,,2.0,2.0,"2313 Bayhead Dr, Parlin, NJ 08859",2313 Bayhead Dr,Parlin,NJ,8859,40.45975,-74.27579,,False,,,,
2061091245,FOR_RENT,Apartment for rent,,2590.0,30165.0,0.0,,,2601.0,,,1.0,2.0,"37 Main St #15, South River, NJ 08882",37 Main St #15,South River,NJ,8882,40.451714,-74.380066,,False,,,,
446433475,FOR_RENT,Apartment for rent,,1700.0,,,,,,,,1.0,1.0,"110 Market St APT 3E, Perth Amboy, NJ 08861",110 Market St APT 3E,Perth Amboy,NJ,8861,40.507053,-74.2682,,False,,,,
39105909,FOR_RENT,Apartment for rent,,2895.0,,,626000.0,,2739.0,,,3.0,1.0,"270 Handy St, New Brunswick, NJ 08901",270 Handy St,New Brunswick,NJ,8901,40.489002,-74.45086,,False,,,,
452423284,FOR_RENT,Apartment for rent,,2650.0,,,,,,,,3.0,1.0,"428 Division St APT 1, Perth Amboy, NJ 08861",428 Division St APT 1,Perth Amboy,NJ,8861,40.513664,-74.2677,,False,,,,
455043317,FOR_RENT,Condo for rent,,2300.0,1013.0,2.0,375100.0,370.0,,,,2.0,2.0,"805 Sunshine Ct #805, Parlin, NJ 08859",805 Sunshine Ct #805,Parlin,NJ,8859,40.46154,-74.277916,,False,,,,
39164445,FOR_RENT,Townhouse for rent,,2900.0,1121.0,3.0,391600.0,349.0,2747.0,,,2.0,2.0,"2302 Timber Ridge Ct, Parlin, NJ 08859",2302 Timber Ridge Ct,Parlin,NJ,8859,40.45702,-74.27991,,False,,,,
455887197,FOR_RENT,Apartment for rent,,1785.0,,,,,,,,1.0,1.0,"250 Penn Ave #4B, Edison, NJ 08817",250 Penn Ave #4B,Edison,NJ,8817,40.51311,-74.40413,,False,,,,
55549236,FOR_RENT,Condo for rent,,3500.0,2093.0,2.0,678500.0,324.0,3489.0,,,4.0,3.0,"95 Amy Dr, North Brunswick, NJ 08902",95 Amy Dr,North Brunswick,NJ,8902,40.44015,-74.493614,,False,,,,
39853375,FOR_RENT,House for rent,,4700.0,2371.0,2.0,918200.0,387.0,4056.0,,,4.0,3.0,"183 Milltown Rd, Bridgewater, NJ 08807",183 Milltown Rd,Bridgewater,NJ,8807,40.525036,-74.35907,,False,,,,
82170534,FOR_RENT,Townhouse for rent,,3650.0,2058.0,2.0,509300.0,247.0,3505.0,,,3.0,3.0,"368 Rector St UNIT 208, Perth Amboy, NJ 08861",368 Rector St UNIT 208,Perth Amboy,NJ,8861,40.51012,-74.26186,,False,,,,
2079023158,FOR_RENT,Apartment for rent,,2500.0,1806.0,1.0,,,2466.0,,,3.0,1.0,"309 Hall Ave #2F, Perth Amboy, NJ 08861",309 Hall Ave #2F,Perth Amboy,NJ,8861,40.520416,-74.271484,,False,,,,
40003116,FOR_RENT,Apartment for rent,,2500.0,,,722000.0,,2475.0,,,2.0,1.0,"215 New St, Garwood, NJ 07027",215 New St,Garwood,NJ,7027,40.65129,-74.31619,,False,,,,
39079471,FOR_RENT,House for rent,,3200.0,1240.0,3.0,682700.0,551.0,3463.0,,,3.0,2.0,"252 W Hegel Ave, Edison, NJ 08820",252 W Hegel Ave,Edison,NJ,8820,40.603245,-74.34479,,False,,,,
450137653,FOR_RENT,Apartment for rent,,2600.0,950.0,3.0,,,,,,3.0,1.0,"1760 Winfield St FLOOR 2, Rahway, NJ 07065",1760 Winfield St FLOOR 2,Rahway,NJ,7065,40.616875,-74.282295,,False,,,,
39061848,FOR_RENT,Townhouse for rent,,2595.0,1590.0,2.0,452900.0,285.0,2628.0,,,2.0,2.0,"8501 Hana Rd, Edison, NJ 08817",8501 Hana Rd,Edison,NJ,8817,40.531235,-74.40947,,False,,,,
450868501,FOR_RENT,Apartment for rent,,3500.0,,,,,,,,3.0,2.0,"913 Union St FLOOR 1, Linden, NJ 07036",913 Union St FLOOR 1,Linden,NJ,7036,40.644165,-74.25158,,False,,,,
40087082,FOR_RENT,House for rent,,4900.0,1498.0,3.0,798700.0,533.0,4473.0,,,3.0,2.0,"26 Gallowae, Westfield, NJ 07090",26 Gallowae,Westfield,NJ,7090,40.66312,-74.33724,,False,,,,
39180746,FOR_RENT,House for rent,,2800.0,1160.0,2.0,460800.0,397.0,2680.0,,,2.0,1.0,"122 Waverly Pl, South Plainfield, NJ 07080",122 Waverly Pl,South Plainfield,NJ,7080,40.592106,-74.40002,,False,,,,
454302271,FOR_RENT,Apartment for rent,,2600.0,10.0,260.0,,,,,,3.0,1.0,"450 Hall Ave FLOOR 2, Perth Amboy, NJ 08861",450 Hall Ave FLOOR 2,Perth Amboy,NJ,8861,40.522064,-74.27777,,False,,,,
2053562560,FOR_RENT,Apartment for rent,,2350.0,,,,,1426.0,,,1.0,1.0,"41 Kelly Pkwy APT A1, Bayonne, NJ 07002",41 Kelly Pkwy APT A1,Bayonne,NJ,7002,40.64669,-74.12922,,False,,,,
2053587629,FOR_RENT,Apartment for rent,,2500.0,,,,,2420.0,,,3.0,1.0,"325 High St FLOOR 2, Elizabeth, NJ 07202",325 High St FLOOR 2,Elizabeth,NJ,7202,40.657036,-74.20757,,False,,,,
453226643,FOR_RENT,Apartment for rent,,2150.0,,,,,,,,2.0,1.0,"1425 E Saint Georges Ave #3B, Roselle, NJ 07203",1425 E Saint Georges Ave #3B,Roselle,NJ,7203,40.648983,-74.244286,,False,,,,
39066783,FOR_RENT,Apartment for rent,,2400.0,1275.0,2.0,382000.0,300.0,2423.0,,,2.0,2.0,"903 Edison Glen Ter, Edison, NJ 08837",903 Edison Glen Ter,Edison,NJ,8837,40.520706,-74.36129,,False,,,,
456146165,FOR_RENT,Apartment for rent,,2249.0,600.0,4.0,,,,,,1.0,1.0,"466 Kennedy Blvd #6D, Bayonne, NJ 07002",466 Kennedy Blvd #6D,Bayonne,NJ,7002,40.662117,-74.12597,,False,,,,
455183029,FOR_RENT,Apartment for rent,,1800.0,700.0,3.0,,,,,,2.0,1.0,"153 Ripley Pl #1, Elizabethport, NJ 07206",153 Ripley Pl #1,Elizabethport,NJ,7206,40.654396,-74.18051,,False,,,,
2084237348,FOR_RENT,Apartment for rent,,1800.0,750.0,2.0,,,1883.0,,,1.0,1.0,"529 Park Ave APT 2, Scotch Plains, NJ 07076",529 Park Ave APT 2,Scotch Plains,NJ,7076,40.649055,-74.39528,,False,,,,
39070997,FOR_RENT,Townhouse for rent,,3200.0,1600.0,2.0,623100.0,389.0,3347.0,,,3.0,3.0,"31 Hawthorn Dr, Edison, NJ 08820",31 Hawthorn Dr,Edison,NJ,8820,40.58874,-74.375626,,False,,,,
455065879,FOR_RENT,Apartment for rent,,2450.0,1238.0,2.0,,,,,,3.0,1.0,"825 Pennington St FLOOR 1, Elizabeth, NJ 07202",825 Pennington St FLOOR 1,Elizabeth,NJ,7202,40.66258,-74.23794,,False,,,,
40012762,FOR_RENT,Apartment for rent,,2900.0,1000.0,3.0,683900.0,684.0,2736.0,,,3.0,1.0,"1300 Lincoln St, Linden, NJ 07036",1300 Lincoln St,Linden,NJ,7036,40.64438,-74.25233,,False,,,,
456133780,FOR_RENT,Apartment for rent,,3100.0,1050.0,3.0,,,,,,2.0,1.0,"(undisclosed Address), Westfield, NJ 07090",(undisclosed Address),Westfield,NJ,7090,,,,False,,,,
456127486,FOR_RENT,Apartment for rent,,1750.0,700.0,3.0,,,,,,1.0,1.0,"(undisclosed Address), Clark, NJ 07066",(undisclosed Address),Clark,NJ,7066,,,,False,,,,
402649422,FOR_RENT,Apartment for rent,,3000.0,2800.0,1.0,,,,,,3.0,1.0,"605 S Springfield Ave FLOOR 2, Springfield, NJ 07081",605 S Springfield Ave FLOOR 2,Springfield,NJ,7081,40.693027,-74.32077,,False,,,,
40012668,FOR_RENT,House for rent,,3200.0,1200.0,3.0,506200.0,422.0,3386.0,,,4.0,1.0,"1011 E Blancke St, Linden, NJ 07036",1011 E Blancke St,Linden,NJ,7036,40.64217,-74.24544,,False,,,,
454786154,FOR_RENT,Apartment for rent,,1900.0,980.0,2.0,,,,,,1.0,1.0,"(undisclosed Address), Woodbridge, NJ 07095",(undisclosed Address),Woodbridge,NJ,7095,,,,False,,,,
2064271787,FOR_RENT,Townhouse for rent,,3475.0,1743.0,2.0,694800.0,399.0,3549.0,,,3.0,3.0,"3 Carriage Pl UNIT 3, Edison, NJ 08820",3 Carriage Pl UNIT 3,Edison,NJ,8820,40.562527,-74.38569,,False,,,,
456172418,FOR_RENT,Apartment for rent,,1650.0,650.0,3.0,,,,,,1.0,1.0,"678 Audrey Dr #CPM1, Rahway, NJ 07065",678 Audrey Dr #CPM1,Rahway,NJ,7065,40.623463,-74.273994,,False,,,,
456095642,FOR_RENT,Apartment for rent,,2100.0,,,,,,,,2.0,1.0,"223 3rd St #6, Elizabethport, NJ 07206",223 3rd St #6,Elizabethport,NJ,7206,40.654644,-74.18633,,False,,,,
2096061871,FOR_RENT,Apartment for rent,,2750.0,,,,,2786.0,,,4.0,1.0,"322 Westfield Avenue # FL 2ND, Elizabeth, NJ 07208",322 Westfield Avenue # FL 2ND,Elizabeth,NJ,7208,40.666084,-74.22917,,False,,,,
456146342,FOR_RENT,House for rent,,4500.0,,,,,,,,5.0,2.0,"139 E 2nd Ave, Roselle, NJ 07203",139 E 2nd Ave,Roselle,NJ,7203,40.659473,-74.26154,,False,,,,
2064246797,FOR_RENT,Apartment for rent,,1600.0,950.0,2.0,,,2060.0,,,1.0,1.0,"36 Washington Pkwy FLOOR 1, Bayonne, NJ 07002",36 Washington Pkwy FLOOR 1,Bayonne,NJ,7002,40.660797,-74.13148,,False,,,,
455019144,FOR_RENT,Apartment for rent,,2600.0,,,,,,,,4.0,1.0,"390 State St APT 2B, Perth Amboy, NJ 08861",390 State St APT 2B,Perth Amboy,NJ,8861,40.51188,-74.26576,,False,,,,
456093854,FOR_RENT,Apartment for rent,,1995.0,700.0,3.0,,,,,,1.0,1.0,"(undisclosed Address), Clark, NJ 07066",(undisclosed Address),Clark,NJ,7066,,,,False,,,,
55546649,FOR_RENT,House for rent,,3800.0,2100.0,2.0,851600.0,406.0,3580.0,,,3.0,3.0,"13 Park Sq, Metuchen, NJ 08840",13 Park Sq,Metuchen,NJ,8840,40.542725,-74.36915,,False,,,,
2082816378,FOR_RENT,Apartment for rent,,2900.0,1000.0,3.0,,,2996.0,,,2.0,1.0,"609 Central Ave #2, Westfield, NJ 07090",609 Central Ave #2,Westfield,NJ,7090,40.647743,-74.33985,,False,,,,
455755279,FOR_RENT,Apartment for rent,,2050.0,99.0,21.0,,,,,,2.0,1.0,"(undisclosed Address), Belleville, NJ 07109",(undisclosed Address),Belleville,NJ,7109,,,,False,,,,
38904064,FOR_RENT,Townhouse for rent,,3100.0,1400.0,2.0,529500.0,378.0,3063.0,26.75,acres,2.0,3.0,"134 Cottonwood St, Jersey City, NJ 07305",134 Cottonwood St,Jersey City,NJ,7305,40.705406,-74.10609,,False,,,,
344582314,FOR_RENT,Apartment for rent,,1650.0,,,640300.0,,1305.0,,,1.0,1.0,"19 N 18th St FLOOR 3, East Orange, NJ 07017",19 N 18th St FLOOR 3,East Orange,NJ,7017,40.758812,-74.19973,,False,,,,
2066642035,FOR_RENT,Apartment for rent,,1850.0,,,,,1810.0,,,2.0,1.0,"180 Alexander St FLOOR 3, Newark, NJ 07106",180 Alexander St FLOOR 3,Newark,NJ,7106,40.73977,-74.22735,,False,,,,
2067699234,FOR_RENT,Apartment for rent,,2520.0,1000.0,3.0,,,2390.0,,,3.0,2.0,"473 Avon Ave FLOOR 2, Newark, NJ 07108",473 Avon Ave FLOOR 2,Newark,NJ,7108,40.728447,-74.21286,,False,,,,
345103087,FOR_RENT,Apartment for rent,,2300.0,,,,,2191.0,,,3.0,1.0,"270 4th St FLOOR 1, Newark, NJ 07107",270 4th St FLOOR 1,Newark,NJ,7107,40.756752,-74.186325,,False,,,,
455542663,FOR_RENT,Apartment for rent,,1900.0,700.0,3.0,,,,,,2.0,1.0,"1281 Springfield Ave #1R, Irvington, NJ 07111",1281 Springfield Ave #1R,Irvington,NJ,7111,40.724384,-74.242,,False,,,,
2056489668,FOR_RENT,Apartment for rent,,1500.0,,,,,1506.0,,,1.0,1.0,"1300 Springfield Ave #402, Irvington, NJ 07111",1300 Springfield Ave #402,Irvington,NJ,7111,40.724644,-74.24312,,False,,,,
456085446,FOR_RENT,Apartment for rent,,1915.0,800.0,2.0,,,,,,2.0,1.0,"389 Baldwin Ave APT 3R, Jersey City, NJ 07306",389 Baldwin Ave APT 3R,Jersey City,NJ,7306,40.734097,-74.05419,,False,,,,
455124908,FOR_RENT,Apartment for rent,,1650.0,,,,,,,,1.0,1.0,"751 Martin Luther King Blvd #303, Newark, NJ 07108",751 Martin Luther King Blvd #303,Newark,NJ,7108,40.726627,-74.18382,,False,,,,
455814964,FOR_RENT,Apartment for rent,,2800.0,1200.0,2.0,,,,,,3.0,2.0,"844 Lafayette St FLOOR 1, Elizabeth, NJ 07201",844 Lafayette St FLOOR 1,Elizabeth,NJ,7201,40.662403,-74.20114,,False,,,,
454281109,FOR_RENT,Apartment for rent,,1960.0,1001.0,2.0,,,,,,2.0,1.0,"479 20th St #1, Irvington, NJ 07111",479 20th St #1,Irvington,NJ,7111,40.740524,-74.21066,,False,,,,
453620907,FOR_RENT,Apartment for rent,,3499.0,1300.0,3.0,,,,,,4.0,2.0,"143 Summer Ave #1A, Hillside, NJ 07205",143 Summer Ave #1A,Hillside,NJ,7205,40.702614,-74.21929,,False,,,,
455371120,FOR_RENT,Apartment for rent,,2400.0,1500.0,2.0,,,,,,2.0,1.0,"13 Seidler St FLOOR 2, Jersey City, NJ 07304",13 Seidler St FLOOR 2,Jersey City,NJ,7304,40.71628,-74.07566,,False,,,,
455720281,FOR_RENT,Apartment for rent,,2400.0,5550.0,0.0,,,,,,4.0,1.0,"26-28 Treacy Ave #3, Newark, NJ 07108",26-28 Treacy Ave #3,Newark,NJ,7108,40.72567,-74.20247,,False,,,,
2104556758,FOR_RENT,Apartment for rent,,3600.0,1200.0,3.0,,,3076.0,,,2.0,1.0,"416 2nd St #3, Jersey City, NJ 07302",416 2nd St #3,Jersey City,NJ,7302,40.723507,-74.05178,,False,,,,
455090470,FOR_RENT,Apartment for rent,,1950.0,850.0,2.0,,,,,,2.0,1.0,"729 Martin Luther King Blvd #32-B, Newark, NJ 07108",729 Martin Luther King Blvd #32-B,Newark,NJ,7108,40.727192,-74.18346,,False,,,,
2076198156,FOR_RENT,Apartment for rent,,2350.0,800.0,3.0,,,2208.0,,,3.0,1.0,"303 Union St FLOOR 2, Jersey City, NJ 07304",303 Union St FLOOR 2,Jersey City,NJ,7304,40.717472,-74.08267,,False,,,,
455839818,FOR_RENT,Apartment for rent,,3400.0,1300.0,3.0,,,,,,3.0,1.0,"9 Grenada Pl #1, Montclair, NJ 07042",9 Grenada Pl #1,Montclair,NJ,7042,40.796017,-74.21784,,False,,,,
2077345615,FOR_RENT,Apartment for rent,,1650.0,,,,,1910.0,,,2.0,1.0,"160 Grumman Ave #405, Newark, NJ 07112",160 Grumman Ave #405,Newark,NJ,7112,40.704704,-74.21825,,False,,,,
2058036022,FOR_RENT,Apartment for rent,,1450.0,,,,,1463.0,,,1.0,1.0,"393 13th Ave APT 8, Newark, NJ 07103",393 13th Ave APT 8,Newark,NJ,7103,40.742947,-74.19968,,False,,,,
2069834133,FOR_RENT,Apartment for rent,,2400.0,1000.0,2.0,,,1213.0,,,1.0,1.0,"1613 Summit Ave #2, Union City, NJ 07087",1613 Summit Ave #2,Union City,NJ,7087,40.764347,-74.039764,,False,,,,
2057281635,FOR_RENT,Apartment for rent,,1950.0,900.0,2.0,,,2365.0,,,2.0,1.0,"39 Atlantic St #1, Elizabethport, NJ 07206",39 Atlantic St #1,Elizabethport,NJ,7206,40.65117,-74.19911,,False,,,,
353702164,FOR_RENT,Apartment for rent,,2600.0,850.0,3.0,,,,,,2.0,1.0,"605 Liberty Ave FLOOR 2, North Bergen, NJ 07047",605 Liberty Ave FLOOR 2,North Bergen,NJ,7047,40.760185,-74.05027,,False,,,,
2060506976,FOR_RENT,Apartment for rent,,3500.0,1200.0,3.0,,,3005.0,,,2.0,2.0,"233 La Grande Ave APT 206, Fanwood, NJ 07023",233 La Grande Ave APT 206,Fanwood,NJ,7023,40.639587,-74.38314,,False,,,,
452979811,FOR_RENT,Apartment for rent,,2900.0,,,,,,,,3.0,2.0,"(undisclosed Address), Elizabeth, NJ 07202",(undisclosed Address),Elizabeth,NJ,7202,,,,False,,,,
2079536629,FOR_RENT,Apartment for rent,,1895.0,1300.0,1.0,,,2411.0,,,4.0,1.0,"278 Leslie St FLOOR 2, Newark, NJ 07112",278 Leslie St FLOOR 2,Newark,NJ,7112,40.7141,-74.2197,,False,,,,
453851948,FOR_RENT,Apartment for rent,,1695.0,,,,,,,,2.0,1.0,"1061 Bergen St #A1, Newark, NJ 07112",1061 Bergen St #A1,Newark,NJ,7112,40.707897,-74.2085,,False,,,,
418541926,FOR_RENT,Apartment for rent,,2600.0,,,,,,,,3.0,2.0,"85 N 6th St FLOOR 2, Newark, NJ 07107",85 N 6th St FLOOR 2,Newark,NJ,7107,40.75118,-74.19085,,False,,,,
2080378115,FOR_RENT,Apartment for rent,,2495.0,700.0,4.0,,,2281.0,,,2.0,1.0,"25 Westview Ave FLOOR 2, New Providence, NJ 07974",25 Westview Ave FLOOR 2,New Providence,NJ,7974,40.701355,-74.40609,,False,,,,
2062382151,FOR_RENT,Apartment for rent,,1750.0,,,,,2246.0,,,3.0,1.0,"24 Chelsea Ave #1, Newark, NJ 07106",24 Chelsea Ave #1,Newark,NJ,7106,40.74592,-74.21836,,False,,,,
455087149,FOR_RENT,Apartment for rent,,3200.0,700.0,5.0,,,,,,1.0,1.0,"129 Brunswick St UNIT 4A, Jersey City, NJ 07302",129 Brunswick St UNIT 4A,Jersey City,NJ,7302,40.723576,-74.05104,,False,,,,
455832046,FOR_RENT,Apartment for rent,,4400.0,1251.0,4.0,,,,,,2.0,2.0,"(undisclosed Address), Hoboken, NJ 07030",(undisclosed Address),Hoboken,NJ,7030,,,,False,,,,
2068728066,FOR_RENT,Apartment for rent,,2100.0,900.0,2.0,,,2178.0,,,3.0,1.0,"371 Badger Ave #1, Newark, NJ 07112",371 Badger Ave #1,Newark,NJ,7112,40.71374,-74.19971,,False,,,,
2062411094,FOR_RENT,Apartment for rent,,2300.0,2450.0,1.0,,,2396.0,,,3.0,2.0,"54 Norwood St FLOOR 1, Newark, NJ 07106",54 Norwood St FLOOR 1,Newark,NJ,7106,40.744484,-74.228226,,False,,,,
2101723367,FOR_RENT,Apartment for rent,,2450.0,1000.0,2.0,,,2043.0,,,2.0,1.0,"399 Harvard Ave #2, Hillside, NJ 07205",399 Harvard Ave #2,Hillside,NJ,7205,40.697792,-74.2366,,False,,,,
2102212568,FOR_RENT,Apartment for rent,,2750.0,,,,,2744.0,,,4.0,2.0,"53 N 22nd St FL 2, East Orange, NJ 07017",53 N 22nd St FL 2,East Orange,NJ,7017,40.76812,-74.19841,,False,,,,
2065713633,FOR_RENT,Apartment for rent,,1850.0,1000.0,2.0,,,2132.0,,,3.0,1.0,"124 Hobson St FLOOR 2, Newark, NJ 07112",124 Hobson St FLOOR 2,Newark,NJ,7112,40.715565,-74.21738,,False,,,,
108633140,FOR_RENT,Apartment for rent,,3300.0,855.0,4.0,458400.0,536.0,2505.0,,,1.0,1.0,"300 Communipaw Ave APT 145, Jersey City, NJ 07304",300 Communipaw Ave APT 145,Jersey City,NJ,7304,40.710403,-74.05961,,False,,,,
456067481,FOR_RENT,Apartment for rent,,2290.0,,,,,,,,3.0,2.0,"26-28 Avon Avenue - 1, 26-28 Avon Ave, Newark, NJ 07108",26-28 Avon Ave #1,Newark,NJ,7108,40.73196,-74.22457,,False,,,,
40003519,FOR_RENT,House for rent,,3800.0,,,,,3882.0,,,4.0,2.0,"76 Wolf Pl, Hillside, NJ 07205",76 Wolf Pl,Hillside,NJ,7205,40.71014,-74.24237,,False,,,,
2087387251,FOR_RENT,Apartment for rent,,2500.0,1500.0,2.0,,,2656.0,,,3.0,2.0,"81 Summer Ave #3, Newark, NJ 07104",81 Summer Ave #3,Newark,NJ,7104,40.753304,-74.17322,,False,,,,
2092596185,FOR_RENT,Apartment for rent,,2650.0,767.0,3.0,,,2594.0,,,1.0,1.0,"15 Enterprise Ct APT 406, Jersey City, NJ 07305",15 Enterprise Ct APT 406,Jersey City,NJ,7305,40.69101,-74.07513,,False,,,,
2067762565,FOR_RENT,Apartment for rent,,2100.0,,,,,2194.0,,,2.0,2.0,"345 S Clinton St #1R, East Orange, NJ 07018",345 S Clinton St #1R,East Orange,NJ,7018,40.75403,-74.22306,,False,,,,
37946089,FOR_RENT,Apartment for rent,,2660.0,1100.0,2.0,594400.0,540.0,2859.0,,,3.0,1.0,"56 Spring St, Lodi, NJ 07644",56 Spring St,Lodi,NJ,7644,40.87331,-74.08481,,False,,,,
2060114666,FOR_RENT,Apartment for rent,,1995.0,1000.0,2.0,,,1973.0,,,2.0,1.0,"51 N 14th St APT 2, East Orange, NJ 07017",51 N 14th St APT 2,East Orange,NJ,7017,40.75742,-74.19642,,False,,,,
2061907112,FOR_RENT,Apartment for rent,,1900.0,650.0,3.0,,,1658.0,,,1.0,1.0,"127 Clifton Pl APT 1R, Jersey City, NJ 07304",127 Clifton Pl APT 1R,Jersey City,NJ,7304,40.72157,-74.06508,,False,,,,
2081944926,FOR_RENT,Apartment for rent,,2435.0,750.0,3.0,,,2206.0,,,1.0,1.0,"79 Forest St APT 1, Montclair, NJ 07042",79 Forest St APT 1,Montclair,NJ,7042,40.817184,-74.21223,,False,,,,
2086067764,FOR_RENT,Apartment for rent,,1999.0,675.0,3.0,,,1804.0,,,1.0,1.0,"229 Summit Ave APT 6, Jersey City, NJ 07304",229 Summit Ave APT 6,Jersey City,NJ,7304,40.723194,-74.066086,,False,,,,
453569964,FOR_RENT,Apartment for rent,,2300.0,1200.0,2.0,,,,,,3.0,2.0,"449 Elizabeth Ave #610, Newark, NJ 07112",449 Elizabeth Ave #610,Newark,NJ,7112,40.70925,-74.19884,,False,,,,
37925161,FOR_RENT,Apartment for rent,,2475.0,800.0,3.0,332600.0,416.0,2595.0,,,2.0,2.0,"120 Sussex St APT 5B, Hackensack, NJ 07601",120 Sussex St APT 5B,Hackensack,NJ,7601,40.880795,-74.04944,,False,,,,
2056980803,FOR_RENT,Apartment for rent,,1700.0,,,,,1868.0,,,2.0,1.0,"101 Goodwin Ave #3, Newark, NJ 07112",101 Goodwin Ave #3,Newark,NJ,7112,40.714706,-74.21188,,False,,,,
343775119,FOR_RENT,Apartment for rent,,1995.0,,,,,2431.0,,,3.0,2.0,"738 Clinton Ave #2, Newark, NJ 07108",738 Clinton Ave #2,Newark,NJ,7108,40.722885,-74.21159,,False,,,,
455670470,FOR_RENT,Apartment for rent,,3200.0,,,,,,,,3.0,2.0,"46 Yale Ave ROOM 1, Jersey City, NJ 07304",46 Yale Ave ROOM 1,Jersey City,NJ,7304,40.716377,-74.08887,,False,,,,
38939187,FOR_RENT,Apartment for rent,,3000.0,1104.0,3.0,,,2694.0,,,2.0,2.0,"114 Riverview Ct, Secaucus, NJ 07094",114 Riverview Ct,Secaucus,NJ,7094,40.803093,-74.05904,,False,,,,
39742046,FOR_RENT,Apartment for rent,,2350.0,,,322700.0,,2318.0,,,1.0,1.0,"300 Main St APT 215, Little Falls, NJ 07424",300 Main St APT 215,Little Falls,NJ,7424,40.88339,-74.23463,,False,,,,
2110569358,FOR_RENT,Apartment for rent,,2600.0,800.0,3.0,,,2931.0,,,3.0,1.0,"821 Roosevelt Ave #2, Secaucus, NJ 07094",821 Roosevelt Ave #2,Secaucus,NJ,7094,40.789497,-74.05513,,False,,,,
38916821,FOR_RENT,Apartment for rent,,2500.0,9999.0,0.0,,,2557.0,,,1.0,2.0,"350 Arlington Ave, Jersey City, NJ 07304",350 Arlington Ave,Jersey City,NJ,7304,40.712814,-74.0705,,False,,,,
2061898985,FOR_RENT,Apartment for rent,,1925.0,823.0,2.0,,,1561.0,,,1.0,1.0,"2520 John F Kennedy Blvd APT 3B, Jersey City, NJ 07304",2520 John F Kennedy Blvd APT 3B,Jersey City,NJ,7304,40.723236,-74.074524,,False,,,,
2061814906,FOR_RENT,Apartment for rent,,2800.0,2000.0,1.0,,,3119.0,,,3.0,1.0,"37 Saint Pauls Ave #2, Jersey City, NJ 07306",37 Saint Pauls Ave #2,Jersey City,NJ,7306,40.73417,-74.052925,,False,,,,
455703479,FOR_RENT,Apartment for rent,,1895.0,500.0,4.0,,,,,,1.0,1.0,"2767 Kennedy Blvd #1, Jersey City, NJ 07306",2767 Kennedy Blvd #1,Jersey City,NJ,7306,40.730633,-74.068726,,False,,,,
2082804072,FOR_RENT,Apartment for rent,,1700.0,800.0,2.0,,,1848.0,,,2.0,1.0,"731 S 13th St #3R, Newark, NJ 07103",731 S 13th St #3R,Newark,NJ,7103,40.728672,-74.20819,,False,,,,
455342496,FOR_RENT,Apartment for rent,,1900.0,720.0,3.0,,,,,,2.0,1.0,"743 Harrison Ave APT 3, Harrison, NJ 07029",743 Harrison Ave APT 3,Harrison,NJ,7029,40.747402,-74.14868,,False,,,,
2083580154,FOR_RENT,Apartment for rent,,3000.0,1400.0,2.0,,,2506.0,,,3.0,2.0,"212 N 9th St APT 3, Newark, NJ 07107",212 N 9th St APT 3,Newark,NJ,7107,40.763233,-74.18922,,False,,,,
456071974,FOR_RENT,Apartment for rent,,2700.0,,,,,,,,3.0,1.0,"229 Gaston Ave FLOOR 2, Garfield, NJ 07026",229 Gaston Ave FLOOR 2,Garfield,NJ,7026,40.88013,-74.09701,,False,,,,
2059751114,FOR_RENT,Apartment for rent,,1550.0,,,,,1648.0,,,2.0,1.0,"937 S 20th St FLOOR 3, Newark, NJ 07108",937 S 20th St FLOOR 3,Newark,NJ,7108,40.724182,-74.21676,,False,,,,
2094388398,FOR_RENT,Apartment for rent,,4400.0,2750.0,2.0,,,4281.0,,,5.0,3.0,"39 Union St #1, Jersey City, NJ 07304",39 Union St #1,Jersey City,NJ,7304,40.712055,-74.07253,,False,,,,
2062196376,FOR_RENT,Apartment for rent,,2300.0,1250.0,2.0,,,2591.0,,,3.0,2.0,"92 Schley St #2, Newark, NJ 07112",92 Schley St #2,Newark,NJ,7112,40.717392,-74.218796,,False,,,,
456088729,FOR_RENT,Apartment for rent,,1595.0,600.0,3.0,,,,,,1.0,1.0,"590 Main Ave #8, Passaic, NJ 07055",590 Main Ave #8,Passaic,NJ,7055,40.85911,-74.123985,,False,,,,
453998571,FOR_RENT,Apartment for rent,,2500.0,1200.0,2.0,,,,,,3.0,2.0,"466 Avon Ave FLOOR 2, Newark, NJ 07108",466 Avon Ave FLOOR 2,Newark,NJ,7108,40.72792,-74.21278,,False,,,,
453143257,FOR_RENT,Apartment for rent,,2500.0,825.0,3.0,,,,,,2.0,2.0,"712 N Broad St APT 8D, Elizabeth, NJ 07208",712 N Broad St APT 8D,Elizabeth,NJ,7208,40.679825,-74.21429,,False,,,,
455195095,FOR_RENT,Apartment for rent,,2100.0,,,,,,,,2.0,1.0,"125 Woodlawn Ave FLOOR 1, Jersey City, NJ 07305",125 Woodlawn Ave FLOOR 1,Jersey City,NJ,7305,40.702427,-74.08553,,False,,,,
455417959,FOR_RENT,Apartment for rent,,2100.0,,,,,,,,3.0,2.0,"597 Grove St #1RR, Irvington, NJ 07111",597 Grove St #1RR,Irvington,NJ,7111,40.73716,-74.21478,,False,,,,
456142366,FOR_RENT,Apartment for rent,,1850.0,,,,,,,,2.0,2.0,"86 Stone St #1R, Newark, NJ 07104",86 Stone St #1R,Newark,NJ,7104,40.754482,-74.17455,,False,,,,
2058995644,FOR_RENT,Apartment for rent,,2900.0,,,,,2727.0,,,4.0,2.0,"182 Littleton Ave FLOOR 2, Newark, NJ 07103",182 Littleton Ave FLOOR 2,Newark,NJ,7103,40.74082,-74.19518,,False,,,,
455623280,FOR_RENT,Apartment for rent,,1750.0,,,,,,,,1.0,1.0,"888 N 7th St #3C, Newark, NJ 07107",888 N 7th St #3C,Newark,NJ,7107,40.780262,-74.17678,,False,,,,
2078350706,FOR_RENT,Apartment for rent,,2600.0,1500.0,2.0,,,2115.0,,,3.0,1.0,"68 Amherst St FLOOR 2, East Orange, NJ 07018",68 Amherst St FLOOR 2,East Orange,NJ,7018,40.76208,-74.21836,,False,,,,
